property_id,address,longitude,latitude,coordinates,geocode_success
15635638,"Hillcrest Grove, Springvale, VIC 3171",145.154303,-37.957587,POINT (145.154303 -37.957587),True
15833356,"26 Whitworth Avenue, Springvale, VIC 3171",145.153317,-37.940686,POINT (145.153317 -37.940686),True
16331535,"Springvale Road, Springvale, VIC 3171",145.154765,-37.939032,POINT (145.154765 -37.939032),True
16528939,"2d Hillside Street, Springvale, VIC 3171",145.16555,-37.940283,POINT (145.16555 -37.940283),True
16726231,"73 Regent Avenue, Springvale, VIC 3171",145.143206,-37.954603,POINT (145.143206 -37.954603),True
16828390,"Charlton Street, Springvale, VIC 3171",145.16313,-37.934802,POINT (145.16313 -37.934802),True
16967721,"31 Hillside Street, Springvale, VIC 3171",145.166679,-37.938121,POINT (145.166679 -37.938121),True
16978990,"1 Grace Park Avenue, Springvale, VIC 3171",145.152176,-37.955399,POINT (145.152176 -37.955399),True
16987451,"16c Whitworth Avenue, Springvale, VIC 3171",145.151454,-37.940608,POINT (145.151454 -37.940608),True
16991379,"10 Albert Avenue, Springvale, VIC 3171",145.146653,-37.946552,POINT (145.146653 -37.946552),True
16998451,"6 Stephenson Street, Springvale, VIC 3171",145.153153,-37.941972,POINT (145.153153 -37.941972),True
17004440,"56 Virginia Street, Springvale, VIC 3171",145.158447,-37.947936,POINT (145.158447 -37.947936),True
17005110,"Clive Street, Springvale, VIC 3171",145.149572,-37.934199,POINT (145.149572 -37.934199),True
17010701,"26 Turner Close, Springvale, VIC 3171",145.161084,-37.935582,POINT (145.161084 -37.935582),True
17011092,"Union Grove, Springvale, VIC 3171",145.15468,-37.95329,POINT (145.15468 -37.95329),True
17012025,"62 Hillside Street, Springvale, VIC 3171",145.166102,-37.935611,POINT (145.166102 -37.935611),True
17014452,"21 Royal Avenue, Springvale, VIC 3171",145.148956,-37.950382,POINT (145.148956 -37.950382),True
17014698,"953 Heatherton Road, Springvale, VIC 3171",145.157464,-37.962879,POINT (145.157464 -37.962879),True
17017470,"3 Ashdale Court, Springvale, VIC 3171",145.147354,-37.938029,POINT (145.147354 -37.938029),True
16881305,"Narbethong Drive, Greensborough, VIC 3088",145.094255,-37.716757,POINT (145.094255 -37.716757),True
17009167,"17a Doowi Court, Greensborough, VIC 3088",145.104943,-37.688461,POINT (145.104943 -37.688461),True
17009417,"199 Mountain View Road, Greensborough, VIC 3088",145.115573,-37.702367,POINT (145.115573 -37.702367),True
17011027,"219 Mountain View Road, Greensborough, VIC 3088",145.114878,-37.700609,POINT (145.114878 -37.700609),True
17011103,"29 Diamond Boulevard, Greensborough, VIC 3088",145.115772,-37.685908,POINT (145.115772 -37.685908),True
17011934,"1 Coolabah Drive, Eltham, VIC 3095",145.155317,-37.703291,POINT (145.155317 -37.703291),True
17013005,"Kempston Street, Greensborough, VIC 3088",145.092392,-37.699924,POINT (145.092392 -37.699924),True
17013277,"29 Diamond Boulevard, Greensborough, VIC 3088",145.115772,-37.685908,POINT (145.115772 -37.685908),True
17016180,"Delta Road, Greensborough, VIC 3088",145.092557,-37.716562,POINT (145.092557 -37.716562),True
17016985,"7 Gipson Street Diamond, Creek, VIC 3089",145.159197,-37.66973,POINT (145.159197 -37.66973),True
17019889,"24 Chapman Street Diamond, Creek, VIC 3089",145.167097,-37.678666,POINT (145.167097 -37.678666),True
17021089,"28 Diamond Boulevard, Greensborough, VIC 3088",145.115981,-37.685786,POINT (145.115981 -37.685786),True
17021561,"Walter Withers Court Diamond, Creek, VIC 3089",145.131877,-37.67861,POINT (145.131877 -37.67861),True
17022248,"River Gum Close Diamond, Creek, VIC 3089",145.161907,-37.671191,POINT (145.161907 -37.671191),True
17022560,"30 Diamond Boulevard, Greensborough, VIC 3088",145.116648,-37.68572,POINT (145.116648 -37.68572),True
15735020,"22a Crimea Street St, Kilda, VIC 3182",144.988223,-37.859482,POINT (144.988223 -37.859482),True
16329537,"340 Carlisle Street St, Kilda, VIC 3182",144.97793,-37.866987,POINT (144.97793 -37.866987),True
16993471,"3 Herbert Street St, Kilda, VIC 3182",144.982124,-37.870553,POINT (144.982124 -37.870553),True
16994879,"76 Barkly Street St, Kilda, VIC 3182",144.982256,-37.862609,POINT (144.982256 -37.862609),True
17010486,"186 Barkly Street St, Kilda, VIC 3182",144.981098,-37.868927,POINT (144.981098 -37.868927),True
17010535,"130 Inkerman Street St, Kilda, VIC 3182",144.988239,-37.864772,POINT (144.988239 -37.864772),True
17011342,"Gurner Street St, Kilda, VIC 3182",144.98113,-37.861575,POINT (144.98113 -37.861575),True
17011605,"2 Albert Street St, Kilda, VIC 3182",144.979512,-37.867169,POINT (144.979512 -37.867169),True
17011756,"4 Irwell Street St, Kilda, VIC 3182",144.979755,-37.867421,POINT (144.979755 -37.867421),True
17013841,"78 Inkerman Street St, Kilda, VIC 3182",144.984387,-37.864275,POINT (144.984387 -37.864275),True
17013941,"9 Vale Street St, Kilda, VIC 3182",144.982409,-37.866257,POINT (144.982409 -37.866257),True
17014277,"Octavia Street St, Kilda, VIC 3182",144.985894,-37.858008,POINT (144.985894 -37.858008),True
17016891,"5 St Kilda Road St, Kilda, VIC 3182",144.983327,-37.858919,POINT (144.983327 -37.858919),True
17017025,"7 Robertson Avenue St, Kilda, VIC 3182",144.98586,-37.85736,POINT (144.98586 -37.85736),True
17017993,"8 Charnwood Grove St, Kilda, VIC 3182",144.985237,-37.859231,POINT (144.985237 -37.859231),True
17018029,"14a Chapel Street St, Kilda, VIC 3182",144.991552,-37.86291,POINT (144.991552 -37.86291),True
17018118,"5 St Kilda Road St, Kilda, VIC 3182",144.983327,-37.858919,POINT (144.983327 -37.858919),True
17018723,"3 Alma Rd St, Kilda, VIC 3182",144.989288,-37.861312,POINT (144.989288 -37.861312),True
17021517,"181 St Kilda Road St, Kilda, VIC 3182",144.984054,-37.861048,POINT (144.984054 -37.861048),True
17021830,"Chaucer Street St, Kilda, VIC 3182",144.979508,-37.870205,POINT (144.979508 -37.870205),True
17027656,"3 Tracey Street, Tullamarine, VIC 3043",144.878184,-37.699565,POINT (144.878184 -37.699565),True
17037417,"1 Moss Court, Glenroy, VIC 3046",144.923806,-37.699538,POINT (144.923806 -37.699538),True
17038871,"May Street, Glenroy, VIC 3046",144.946362,-37.699547,POINT (144.946362 -37.699547),True
17044071,"49 Gladstone Parade, Glenroy, VIC 3046",144.909779,-37.709156,POINT (144.909779 -37.709156),True
17047264,"2 Bailey Crescent Oak, Park, VIC 3046",144.922025,-37.720679,POINT (144.922025 -37.720679),True
17047965,"24 Vaucluse Avenue Gladstone, Park, VIC 3043",144.894827,-37.69762,POINT (144.894827 -37.69762),True
17057951,"Cardinal Road, Glenroy, VIC 3046",144.930333,-37.697218,POINT (144.930333 -37.697218),True
17061055,"Anselm Grove, Glenroy, VIC 3046",144.912916,-37.702234,POINT (144.912916 -37.702234),True
17070466,"19a Kerferd St Essendon, North, VIC 3041",144.90686,-37.742526,POINT (144.90686 -37.742526),True
17070795,"900 Pascoe Vale Road, Glenroy, VIC 3046",144.915289,-37.69874,POINT (144.915289 -37.69874),True
17071143,"Dundee Close Gladstone, Park, VIC 3043",144.886984,-37.68157,POINT (144.886984 -37.68157),True
16054146,"Charles Street Surrey, Hills, VIC 3127",145.112211,-37.825722,POINT (145.112211 -37.825722),True
16952778,"Oak Street Surrey, Hills, VIC 3127",145.109765,-37.833516,POINT (145.109765 -37.833516),True
16956840,"12 Warrigal Road Surrey, Hills, VIC 3127",145.099343,-37.827078,POINT (145.099343 -37.827078),True
16961788,"250 Union Road Surrey, Hills, VIC 3127",145.098773,-37.815498,POINT (145.098773 -37.815498),True
16982634,"10 Florence Road Surrey, Hills, VIC 3127",145.101596,-37.827551,POINT (145.101596 -37.827551),True
16988653,"19 Middlesex Road Surrey, Hills, VIC 3127",145.089919,-37.827557,POINT (145.089919 -37.827557),True
16994073,"7 View Street Surrey, Hills, VIC 3127",145.109381,-37.8252,POINT (145.109381 -37.8252),True
16995300,"56 Windsor Crescent Surrey, Hills, VIC 3127",145.100056,-37.823875,POINT (145.100056 -37.823875),True
16998184,"37 Boisdale Street Surrey, Hills, VIC 3127",145.103159,-37.834971,POINT (145.103159 -37.834971),True
16999257,"Park Road Surrey, Hills, VIC 3127",145.107647,-37.836209,POINT (145.107647 -37.836209),True
17000398,"34 Boisdale Street Surrey, Hills, VIC 3127",145.102199,-37.83552,POINT (145.102199 -37.83552),True
17000758,"34 Boisdale Street Surrey, Hills, VIC 3127",145.102199,-37.83552,POINT (145.102199 -37.83552),True
17012174,"Riversdale Road Surrey, Hills, VIC 3127",145.09513,-37.828253,POINT (145.09513 -37.828253),True
17013544,"Balmoral Crescent Surrey, Hills, VIC 3127",145.104513,-37.825355,POINT (145.104513 -37.825355),True
17015270,"Pine Street Surrey, Hills, VIC 3127",145.107511,-37.833176,POINT (145.107511 -37.833176),True
17017080,"22 Beech Street Surrey, Hills, VIC 3127",145.109072,-37.833033,POINT (145.109072 -37.833033),True
17017102,"22 Beech Street Surrey, Hills, VIC 3127",145.109072,-37.833033,POINT (145.109072 -37.833033),True
17020032,"Chester Street Surrey, Hills, VIC 3127",145.100338,-37.833576,POINT (145.100338 -37.833576),True
17021499,"Boisdale Street Surrey, Hills, VIC 3127",145.10187,-37.835315,POINT (145.10187 -37.835315),True
17021805,"Boisdale Street Surrey, Hills, VIC 3127",145.10187,-37.835315,POINT (145.10187 -37.835315),True
12790910,"Kialla Lakes Drive, Kialla, VIC 3631",145.392471,-36.413736,POINT (145.392471 -36.413736),True
15849830,"Coorong Court, Kialla, VIC 3631",145.404051,-36.424516,POINT (145.404051 -36.424516),True
16014860,"25 Hart Street, Euroa, VIC 3666",145.569826,-36.755531,POINT (145.569826 -36.755531),True
16506335,"White Street, Euroa, VIC 3666",145.579099,-36.759275,POINT (145.579099 -36.759275),True
17033644,"Bury Street, Euroa, VIC 3666",145.567513,-36.755286,POINT (145.567513 -36.755286),True
17101054,"Inverness, Kialla, VIC 3631",145.386012,-36.422731,POINT (145.386012 -36.422731),True
17102961,"Needlewood Rd, Kialla, VIC 3631",145.388438,-36.443026,POINT (145.388438 -36.443026),True
17106396,"21 Balmoral Street, Kialla, VIC 3631",145.387231,-36.417727,POINT (145.387231 -36.417727),True
17110296,"38 Vickers Street, Kialla, VIC 3631",145.384862,-36.418529,POINT (145.384862 -36.418529),True
17117677,"Coorong Court, Kialla, VIC 3631",145.404051,-36.424516,POINT (145.404051 -36.424516),True
17119435,"Kerang Avenue, Kialla, VIC 3631",145.402934,-36.424425,POINT (145.402934 -36.424425),True
17123809,"Lewis Street, Euroa, VIC 3666",145.567166,-36.756324,POINT (145.567166 -36.756324),True
17125487,"Gilmour Cres, Kialla, VIC 3631",145.394068,-36.433739,POINT (145.394068 -36.433739),True
14367534,"Carrington Boulevard, Thomastown, VIC 3074",144.986385,-37.681819,POINT (144.986385 -37.681819),True
16114402,"3 Pleasant Road, Thomastown, VIC 3074",145.013482,-37.677447,POINT (145.013482 -37.677447),True
16431857,"Lantana Avenue, Thomastown, VIC 3074",145.00601,-37.680705,POINT (145.00601 -37.680705),True
17025417,"Owen Court, Thomastown, VIC 3074",145.036011,-37.681533,POINT (145.036011 -37.681533),True
17049598,"The Boulevard, Thomastown, VIC 3074",145.033032,-37.675483,POINT (145.033032 -37.675483),True
17096100,"Charles Street, Thomastown, VIC 3074",145.017912,-37.681673,POINT (145.017912 -37.681673),True
17098140,"French Street, Thomastown, VIC 3074",145.0185,-37.67723,POINT (145.0185 -37.67723),True
17100504,"Queenscliff Road, Thomastown, VIC 3074",144.99586,-37.673906,POINT (144.99586 -37.673906),True
17100567,"1 Lansell Court, Thomastown, VIC 3074",145.023156,-37.682716,POINT (145.023156 -37.682716),True
17106362,"36a Westall Street, Thomastown, VIC 3074",145.011126,-37.675064,POINT (145.011126 -37.675064),True
17106863,"Spring Street, Thomastown, VIC 3074",145.008484,-37.682204,POINT (145.008484 -37.682204),True
17108251,"14 Geoffrey Street, Thomastown, VIC 3074",145.016752,-37.681107,POINT (145.016752 -37.681107),True
17112205,"Main Street, Thomastown, VIC 3074",144.991513,-37.678042,POINT (144.991513 -37.678042),True
17113602,"Senna Court, Thomastown, VIC 3074",145.004053,-37.675033,POINT (145.004053 -37.675033),True
17114354,"29 Poplar Street, Thomastown, VIC 3074",145.026844,-37.679101,POINT (145.026844 -37.679101),True
17116877,"Alfred Avenue, Thomastown, VIC 3074",145.033112,-37.679906,POINT (145.033112 -37.679906),True
17118560,"14 Pine Street, Thomastown, VIC 3074",145.024871,-37.676562,POINT (145.024871 -37.676562),True
17119052,"Glenburn Street, Thomastown, VIC 3074",144.986405,-37.676358,POINT (144.986405 -37.676358),True
17124475,"29 Mount View Road, Thomastown, VIC 3074",145.009555,-37.677635,POINT (145.009555 -37.677635),True
17126296,"Quandong Street, Thomastown, VIC 3074",145.01634,-37.676284,POINT (145.01634 -37.676284),True
15228071,"California Crescent Ferntree, Gully, VIC 3156",145.266667,-37.869908,POINT (145.266667 -37.869908),True
15843788,"Elmstead Court Ferntree, Gully, VIC 3156",145.274764,-37.877175,POINT (145.274764 -37.877175),True
15901773,"Windermere Drive Ferntree, Gully, VIC 3156",145.260603,-37.89816,POINT (145.260603 -37.89816),True
16994000,"27 The Glen Ferntree, Gully, VIC 3156",145.302632,-37.882416,POINT (145.302632 -37.882416),True
16995524,"Elizabeth Street Ferntree, Gully, VIC 3156",145.291915,-37.887168,POINT (145.291915 -37.887168),True
16997255,"1846 Ferntree Gully Road Ferntree, Gully, VIC 3156",145.272106,-37.883942,POINT (145.272106 -37.883942),True
17002978,"Parkview Drive Ferntree, Gully, VIC 3156",145.286359,-37.891569,POINT (145.286359 -37.891569),True
17005907,"87 Underwood Road Ferntree, Gully, VIC 3156",145.29111,-37.872938,POINT (145.29111 -37.872938),True
17009741,"10 Alvina Street Ferntree, Gully, VIC 3156",145.289053,-37.878801,POINT (145.289053 -37.878801),True
17010210,"Bursaria Avenue Ferntree, Gully, VIC 3156",145.26692,-37.876458,POINT (145.26692 -37.876458),True
17013573,"38 Lording Street Ferntree, Gully, VIC 3156",145.294656,-37.873605,POINT (145.294656 -37.873605),True
17016541,"28 Francis Crescent Ferntree, Gully, VIC 3156",145.292266,-37.878956,POINT (145.292266 -37.878956),True
17016871,"25 Clyde Street Ferntree, Gully, VIC 3156",145.268318,-37.88252,POINT (145.268318 -37.88252),True
17017674,"Johnson Drive Ferntree, Gully, VIC 3156",145.264975,-37.872294,POINT (145.264975 -37.872294),True
17019156,"5 Kate Place Ferntree, Gully, VIC 3156",145.26081,-37.894719,POINT (145.26081 -37.894719),True
17019279,"Austin Street Ferntree, Gully, VIC 3156",145.285824,-37.883726,POINT (145.285824 -37.883726),True
16691008,"Mitchell Road, Lilydale, VIC 3140",145.36905,-37.770333,POINT (145.36905 -37.770333),True
17021284,"Bastow Road, Lilydale, VIC 3140",145.367276,-37.758686,POINT (145.367276 -37.758686),True
17024286,"Cowles Crescent, Lilydale, VIC 3140",145.358312,-37.753322,POINT (145.358312 -37.753322),True
17058910,"Achillies Court, Lilydale, VIC 3140",145.358312,-37.753322,POINT (145.358312 -37.753322),True
17061343,"36 Kidgell Street, Lilydale, VIC 3140",145.340253,-37.751514,POINT (145.340253 -37.751514),True
17065133,"Anderson Street, Lilydale, VIC 3140",145.354461,-37.758642,POINT (145.354461 -37.758642),True
17075448,"50 Anderson Street, Lilydale, VIC 3140",145.355519,-37.756591,POINT (145.355519 -37.756591),True
17080458,"2 Summit Road, Lilydale, VIC 3140",145.362369,-37.759967,POINT (145.362369 -37.759967),True
17083705,"23 Rouke Street, Lilydale, VIC 3140",145.337337,-37.754602,POINT (145.337337 -37.754602),True
17089885,"Wilsons Lane, Lilydale, VIC 3140",145.337954,-37.755282,POINT (145.337954 -37.755282),True
17101412,"Helena Road, Lilydale, VIC 3140",145.361959,-37.757502,POINT (145.361959 -37.757502),True
17105207,"Conlan Way, Lilydale, VIC 3140",145.339876,-37.746725,POINT (145.339876 -37.746725),True
17108958,"17 Rouke Street, Lilydale, VIC 3140",145.338133,-37.754372,POINT (145.338133 -37.754372),True
17111840,"17 Blair Street, Lilydale, VIC 3140",145.337805,-37.751067,POINT (145.337805 -37.751067),True
15236365,"Stoddarts Road, Warragul, VIC 3820",145.938955,-38.141924,POINT (145.938955 -38.141924),True
15932188,"Roseleigh Street, Warragul, VIC 3820",145.914532,-38.162343,POINT (145.914532 -38.162343),True
16516491,"Pandanus Court, Warragul, VIC 3820",145.954817,-38.151886,POINT (145.954817 -38.151886),True
16977989,"Bellamy Close, Warragul, VIC 3820",145.918736,-38.173698,POINT (145.918736 -38.173698),True
17004610,"105 Victoria Street, Warragul, VIC 3820",145.930556,-38.156517,POINT (145.930556 -38.156517),True
17005307,"Murdie Road, Warragul, VIC 3820",145.925354,-38.184231,POINT (145.925354 -38.184231),True
17009244,"Dollarburn Road, Warragul, VIC 3820",145.908097,-38.129622,POINT (145.908097 -38.129622),True
17019113,"Tambo Drive, Warragul, VIC 3820",145.906614,-38.144029,POINT (145.906614 -38.144029),True
17025677,"Kensington Drive, Warragul, VIC 3820",145.947138,-38.140093,POINT (145.947138 -38.140093),True
17034251,"Hillandale Road, Warragul, VIC 3820",145.937243,-38.144028,POINT (145.937243 -38.144028),True
17043948,"137 Brandy Creek Road, Warragul, VIC 3820",145.937655,-38.140668,POINT (145.937655 -38.140668),True
17044020,"Hart Drive, Warragul, VIC 3820",145.934879,-38.161766,POINT (145.934879 -38.161766),True
17044253,"Buckland Drive, Warragul, VIC 3820",145.911252,-38.152995,POINT (145.911252 -38.152995),True
17047069,"2b Koroit Street, Warragul, VIC 3820",145.926075,-38.158047,POINT (145.926075 -38.158047),True
17051863,"102 Albert Street, Warragul, VIC 3820",145.939202,-38.161552,POINT (145.939202 -38.161552),True
17052287,"Hickory Street, Warragul, VIC 3820",145.908736,-38.146151,POINT (145.908736 -38.146151),True
17056742,"87 Brandy Creek Road, Warragul, VIC 3820",145.937744,-38.145122,POINT (145.937744 -38.145122),True
17057399,"Skyline Drive, Warragul, VIC 3820",145.90935,-38.145537,POINT (145.90935 -38.145537),True
17059345,"Koroit Street, Warragul, VIC 3820",145.925785,-38.158621,POINT (145.925785 -38.158621),True
15699878,"Samara Grove Gladstone, Park, VIC 3043",144.888263,-37.697074,POINT (144.888263 -37.697074),True
16248632,"Alvie Court, Westmeadows, VIC 3049",144.907019,-37.669967,POINT (144.907019 -37.669967),True
16337659,"Walsh Street, Broadmeadows, VIC 3047",144.922091,-37.69103,POINT (144.922091 -37.69103),True
16991123,"220 Wright Street, Westmeadows, VIC 3049",144.872177,-37.679595,POINT (144.872177 -37.679595),True
17071501,"299a Mickleham Road, Westmeadows, VIC 3049",144.883673,-37.67845,POINT (144.883673 -37.67845),True
17075377,"Hallcroft Road, Greenvale, VIC 3059",144.874294,-37.641802,POINT (144.874294 -37.641802),True
17085653,"Finningley Drive, Tullamarine, VIC 3043",144.88412,-37.696411,POINT (144.88412 -37.696411),True
17089510,"43 Coopers Hill Drive, Westmeadows, VIC 3049",144.888544,-37.6786,POINT (144.888544 -37.6786),True
17102047,"63 Eumarella Street, Tullamarine, VIC 3043",144.878129,-37.702393,POINT (144.878129 -37.702393),True
17102548,"Palmaston Drive, Greenvale, VIC 3059",144.87252,-37.645929,POINT (144.87252 -37.645929),True
17107267,"2 Evans Court, Broadmeadows, VIC 3047",144.926978,-37.692814,POINT (144.926978 -37.692814),True
17108888,"266 Melrose Drive, Tullamarine, VIC 3043",144.875388,-37.693811,POINT (144.875388 -37.693811),True
17108890,"266 Melrose Drive, Tullamarine, VIC 3043",144.875388,-37.693811,POINT (144.875388 -37.693811),True
17111664,"Katunga Crescent, Broadmeadows, VIC 3047",144.915251,-37.675351,POINT (144.915251 -37.675351),True
15439012,"Bird Street, Inverloch, VIC 3996",145.712151,-38.635834,POINT (145.712151 -38.635834),True
15860884,"John Street, Inverloch, VIC 3996",145.728566,-38.628178,POINT (145.728566 -38.628178),True
17038059,"Inverloch Parade, Inverloch, VIC 3996",145.737534,-38.628524,POINT (145.737534 -38.628524),True
17052340,"Jenkin Avenue, Wonthaggi, VIC 3995",145.591516,-38.610785,POINT (145.591516 -38.610785),True
17052903,"Merrin Crescent, Wonthaggi, VIC 3995",145.591293,-38.614909,POINT (145.591293 -38.614909),True
17060319,"Pymble Avenue, Inverloch, VIC 3996",145.736492,-38.631147,POINT (145.736492 -38.631147),True
17070729,"Cuttriss Street, Inverloch, VIC 3996",145.740404,-38.6301,POINT (145.740404 -38.6301),True
17071451,"33 Dunn Street, Wonthaggi, VIC 3995",145.589362,-38.613324,POINT (145.589362 -38.613324),True
15389169,"Jacksons Creek, Gisborne, VIC 3437",144.603529,-37.485215,POINT (144.603529 -37.485215),True
15943215,"25 Worcester Road, Gisborne, VIC 3437",144.594892,-37.495391,POINT (144.594892 -37.495391),True
15990277,"9 Simpson Street, Kyneton, VIC 3444",144.451963,-37.250253,POINT (144.451963 -37.250253),True
16508455,"Hamilton Street, Gisborne, VIC 3437",144.58268,-37.486902,POINT (144.58268 -37.486902),True
16744897,"Kilteely Street, Gisborne, VIC 3437",144.594533,-37.491718,POINT (144.594533 -37.491718),True
17018560,"Taylors Court, Kyneton, VIC 3444",144.481991,-37.249401,POINT (144.481991 -37.249401),True
17035128,"Russell Ave, Woodend, VIC 3442",144.537966,-37.353665,POINT (144.537966 -37.353665),True
17038918,"Mcgeorge Road, Gisborne, VIC 3437",144.607268,-37.52245,POINT (144.607268 -37.52245),True
17039423,"Morrow Road, Gisborne, VIC 3437",144.594556,-37.475705,POINT (144.594556 -37.475705),True
17049579,"Ebden Street, Kyneton, VIC 3444",144.45015,-37.252115,POINT (144.45015 -37.252115),True
17049839,"Lauriston Street, Kyneton, VIC 3444",144.4559,-37.247919,POINT (144.4559 -37.247919),True
17050387,"Mountain View Ave, Woodend, VIC 3442",144.540286,-37.362142,POINT (144.540286 -37.362142),True
17051704,"46 Urquhart Street, Woodend, VIC 3442",144.530475,-37.358592,POINT (144.530475 -37.358592),True
17054380,"Neal St, Gisborne, VIC 3437",144.58416,-37.486169,POINT (144.58416 -37.486169),True
17054394,"Hamilton St, Gisborne, VIC 3437",144.58268,-37.486902,POINT (144.58268 -37.486902),True
17056636,"4a Anslow Street, Woodend, VIC 3442",144.51981,-37.354453,POINT (144.51981 -37.354453),True
17057457,"Duffy Street, Woodend, VIC 3442",144.522164,-37.355117,POINT (144.522164 -37.355117),True
17057708,"14 Corinella Road, Woodend, VIC 3442",144.524692,-37.359753,POINT (144.524692 -37.359753),True
17060496,"Lidderdale Drive, Gisborne, VIC 3437",144.594533,-37.491718,POINT (144.594533 -37.491718),True
17009810,"Brown Street, Trafalgar, VIC 3824",146.160339,-38.208019,POINT (146.160339 -38.208019),True
16292884,"86 Stafford Street, Abbotsford, VIC 3067",144.996781,-37.800807,POINT (144.996781 -37.800807),True
16867174,"219 Nicholson St, Abbotsford, VIC 3067",144.997181,-37.801491,POINT (144.997181 -37.801491),True
16876075,"20 Shamrock Street, Abbotsford, VIC 3067",145.008213,-37.810154,POINT (145.008213 -37.810154),True
16876837,"11 Shamrock Street, Abbotsford, VIC 3067",145.007942,-37.811123,POINT (145.007942 -37.811123),True
16882243,"84 Trenerry Crescent, Abbotsford, VIC 3067",144.998184,-37.79793,POINT (144.998184 -37.79793),True
16885551,"Church Street, Abbotsford, VIC 3067",145.000823,-37.809608,POINT (145.000823 -37.809608),True
16887765,"627 Victoria Street, Abbotsford, VIC 3067",145.009655,-37.811201,POINT (145.009655 -37.811201),True
16888156,"1002a, Abbotsford, VIC 3067",144.999762,-37.804598,POINT (144.999762 -37.804598),True
16890198,"8 Grosvenor Street, Abbotsford, VIC 3067",145.0067,-37.811003,POINT (145.0067 -37.811003),True
16890572,"80 Trenerry Crescent, Abbotsford, VIC 3067",144.998184,-37.79793,POINT (144.998184 -37.79793),True
16893968,"11 Flockhart Street, Abbotsford, VIC 3067",145.0067,-37.811003,POINT (145.0067 -37.811003),True
16894498,"Yarra St, Abbotsford, VIC 3067",144.997277,-37.802305,POINT (144.997277 -37.802305),True
16896767,"Maugie St, Abbotsford, VIC 3067",144.99668,-37.796349,POINT (144.99668 -37.796349),True
16898142,"609 Victoria Street, Abbotsford, VIC 3067",145.007942,-37.811123,POINT (145.007942 -37.811123),True
16898604,"St Philips Street, Abbotsford, VIC 3067",144.996886,-37.801583,POINT (144.996886 -37.801583),True
16899074,"316 Johnston Street, Abbotsford, VIC 3067",144.995994,-37.799975,POINT (144.995994 -37.799975),True
16899293,"631 Victoria Street, Abbotsford, VIC 3067",145.007942,-37.811123,POINT (145.007942 -37.811123),True
16900464,"631 Victoria Street, Abbotsford, VIC 3067",145.007942,-37.811123,POINT (145.007942 -37.811123),True
16900921,"Studley Street, Abbotsford, VIC 3067",144.995133,-37.801421,POINT (144.995133 -37.801421),True
16903050,"4 Acacia Place, Abbotsford, VIC 3067",145.014143,-37.811772,POINT (145.014143 -37.811772),True
13720073,"Egret Dr, Kialla, VIC 3631",145.384485,-36.432278,POINT (145.384485 -36.432278),True
15069070,"Mansfield Road, Euroa, VIC 3666",145.575383,-36.760393,POINT (145.575383 -36.760393),True
16039054,"Toolondo Court, Kialla, VIC 3631",145.403956,-36.416501,POINT (145.403956 -36.416501),True
16105838,"Caspian St, Kialla, VIC 3631",145.388128,-36.410222,POINT (145.388128 -36.410222),True
16218636,"89 Sanctuary Drive, Kialla, VIC 3631",145.395781,-36.434923,POINT (145.395781 -36.434923),True
16782785,"Cabernet Street, Kialla, VIC 3631",145.405137,-36.428629,POINT (145.405137 -36.428629),True
16832072,"Lonsdale Square, Kialla, VIC 3631",145.397934,-36.414686,POINT (145.397934 -36.414686),True
16850223,"Mokoan Avenue, Kialla, VIC 3631",145.40663,-36.418006,POINT (145.40663 -36.418006),True
16871261,"Foy Street, Euroa, VIC 3666",145.576229,-36.752592,POINT (145.576229 -36.752592),True
16873575,"Wendouree Drive, Kialla, VIC 3631",145.401783,-36.434914,POINT (145.401783 -36.434914),True
16874624,"Church Lane, Euroa, VIC 3666",145.571994,-36.752357,POINT (145.571994 -36.752357),True
16883847,"Burns Avenue, Euroa, VIC 3666",145.57581,-36.758566,POINT (145.57581 -36.758566),True
16886557,"Anderson Street, Euroa, VIC 3666",145.574399,-36.757282,POINT (145.574399 -36.757282),True
16887246,"Fairmaid Rd, Kialla, VIC 3631",145.436422,-36.45139,POINT (145.436422 -36.45139),True
16887577,"Sunbird Way, Kialla, VIC 3631",145.433736,-36.457213,POINT (145.433736 -36.457213),True
16892898,"Prospect Crescent, Kialla, VIC 3631",145.398633,-36.42801,POINT (145.398633 -36.42801),True
15686007,"Moody Court, Seymour, VIC 3660",145.151067,-37.034584,POINT (145.151067 -37.034584),True
15881826,"Hanley Crescent, Seymour, VIC 3660",145.14498,-37.01776,POINT (145.14498 -37.01776),True
16069524,"221 Anzac Ave, Seymour, VIC 3660",145.155489,-37.035212,POINT (145.155489 -37.035212),True
16331870,"39 Sutherland Street, Euroa, VIC 3666",145.565632,-36.743834,POINT (145.565632 -36.743834),True
16358218,"Butler Street, Seymour, VIC 3660",145.137587,-37.021645,POINT (145.137587 -37.021645),True
16595327,"34 Abdullah Road, Seymour, VIC 3660",145.14639,-37.026005,POINT (145.14639 -37.026005),True
16878188,"7 Dragonfly Drive, Seymour, VIC 3660",145.155534,-37.016642,POINT (145.155534 -37.016642),True
16884052,"Conductor Street, Seymour, VIC 3660",145.14639,-37.026005,POINT (145.14639 -37.026005),True
16896440,"Loco Street, Seymour, VIC 3660",145.141559,-37.029056,POINT (145.141559 -37.029056),True
16897703,"Hanley Crescent, Seymour, VIC 3660",145.14498,-37.01776,POINT (145.14498 -37.01776),True
16898850,"Schoolhouse Lane, Seymour, VIC 3660",145.14639,-37.026005,POINT (145.14639 -37.026005),True
16898963,"Mccormack Crescent, Seymour, VIC 3660",145.151296,-37.032252,POINT (145.151296 -37.032252),True
16904528,"Guild Street, Seymour, VIC 3660",145.135801,-37.027482,POINT (145.135801 -37.027482),True
15493494,"Maud Street, Benalla, VIC 3672",145.978969,-36.558395,POINT (145.978969 -36.558395),True
16014256,"39d William Street North, Benalla, VIC 3672",145.967656,-36.545888,POINT (145.967656 -36.545888),True
16062963,"Ironbark Drive, Benalla, VIC 3672",145.999881,-36.558872,POINT (145.999881 -36.558872),True
16088176,"Ross Court, Benalla, VIC 3672",145.965265,-36.550147,POINT (145.965265 -36.550147),True
16158375,"1 Rivergum Avenue, Benalla, VIC 3672",145.994526,-36.54653,POINT (145.994526 -36.54653),True
16172734,"1 Mary Street, Benalla, VIC 3672",145.996339,-36.546163,POINT (145.996339 -36.546163),True
16247619,"13 Weary Dunlop Drive, Benalla, VIC 3672",145.968159,-36.565843,POINT (145.968159 -36.565843),True
16383552,"Hakea Court, Benalla, VIC 3672",145.975046,-36.562223,POINT (145.975046 -36.562223),True
16612247,"Livingston Bvd, Benalla, VIC 3672",145.994526,-36.54653,POINT (145.994526 -36.54653),True
16796879,"Esperanto St, Benalla, VIC 3672",145.959121,-36.556328,POINT (145.959121 -36.556328),True
16804702,"Midland Hwy Nalinga, Benalla, VIC 3672",145.71667,-36.41667,POINT (145.71667 -36.41667),True
16889003,"Bridge Street West, Benalla, VIC 3672",145.979814,-36.553178,POINT (145.979814 -36.553178),True
15304823,"Mair Street Ballarat, Central, VIC 3350",143.855191,-37.559466,POINT (143.855191 -37.559466),True
15704795,"306 Sturt Street Ballarat, Central, VIC 3350",143.856006,-37.561425,POINT (143.856006 -37.561425),True
15795719,"Errard Street South Ballarat, Central, VIC 3350",143.847768,-37.567097,POINT (143.847768 -37.567097),True
16792588,"403 Pleasant Street South Ballarat, Central, VIC 3350",143.837617,-37.568861,POINT (143.837617 -37.568861),True
16796961,"4 Lyons Street South Ballarat, Central, VIC 3350",143.85144,-37.562238,POINT (143.85144 -37.562238),True
16799631,"Talbot Street South Ballarat, Central, VIC 3350",143.842705,-37.561403,POINT (143.842705 -37.561403),True
16808038,"Windermere Street Ballarat, Central, VIC 3350",143.844639,-37.567966,POINT (143.844639 -37.567966),True
16842724,"Errard Street South Ballarat, Central, VIC 3350",143.847768,-37.567097,POINT (143.847768 -37.567097),True
16855385,"4 Doveton Street South Ballarat, Central, VIC 3350",143.854438,-37.562251,POINT (143.854438 -37.562251),True
16871309,"Dana Street Ballarat, Central, VIC 3350",143.856611,-37.564098,POINT (143.856611 -37.564098),True
16883857,"20 Sturt Street Ballarat, Central, VIC 3350",143.860049,-37.561895,POINT (143.860049 -37.561895),True
16886501,"Dana Street Ballarat, Central, VIC 3350",143.856611,-37.564098,POINT (143.856611 -37.564098),True
16889382,"901 Gregory Street Ballarat, Central, VIC 3350",143.852395,-37.563892,POINT (143.852395 -37.563892),True
16889635,"Dawson Street South Ballarat, Central, VIC 3350",143.8519,-37.569037,POINT (143.8519 -37.569037),True
16890912,"Raglan Street Ballarat, Central, VIC 3350",143.85038,-37.561102,POINT (143.85038 -37.561102),True
16891537,"Lyons Street North Ballarat, Central, VIC 3350",143.852738,-37.555579,POINT (143.852738 -37.555579),True
16896972,"Talbot Street Ballarat, Central, VIC 3350",143.842915,-37.560229,POINT (143.842915 -37.560229),True
16898827,"Loch Avenue Ballarat, Central, VIC 3350",143.851739,-37.552334,POINT (143.851739 -37.552334),True
16902590,"603a Sturt Street Ballarat, Central, VIC 3350",143.851567,-37.561588,POINT (143.851567 -37.561588),True
16904871,"South Street Ballarat, Central, VIC 3350",143.851237,-37.569743,POINT (143.851237 -37.569743),True
11284104,"Sky Court, Werribee, VIC 3030",144.642207,-37.890672,POINT (144.642207 -37.890672),True
15463560,"Amaroo Walk, Werribee, VIC 3030",144.661343,-37.89479,POINT (144.661343 -37.89479),True
15611910,"Folkestone Road, Werribee, VIC 3030",144.661343,-37.89479,POINT (144.661343 -37.89479),True
15768417,"11 Market Road, Werribee, VIC 3030",144.662009,-37.89723,POINT (144.662009 -37.89723),True
16023464,"Mccormack Road, Maddingley, VIC 3340",144.438676,-37.688023,POINT (144.438676 -37.688023),True
16382298,"Golden Avenue, Werribee, VIC 3030",144.654666,-37.893409,POINT (144.654666 -37.893409),True
16885889,"Amaroo Walk, Werribee, VIC 3030",144.661343,-37.89479,POINT (144.661343 -37.89479),True
16888836,"Buckland Circuit, Werribee, VIC 3030",144.661343,-37.89479,POINT (144.661343 -37.89479),True
16893555,"Loddon Court, Werribee, VIC 3030",144.657645,-37.885078,POINT (144.657645 -37.885078),True
16895595,"11b Advent Road, Werribee, VIC 3030",144.661343,-37.89479,POINT (144.661343 -37.89479),True
16897363,"33 Quay Boulevard Werribee, South, VIC 3030",144.706796,-37.965179,POINT (144.706796 -37.965179),True
16902623,"Gilded Road, Werribee, VIC 3030",144.661343,-37.89479,POINT (144.661343 -37.89479),True
16902629,"Shanti Circuit, Werribee, VIC 3030",144.661343,-37.89479,POINT (144.661343 -37.89479),True
16902742,"59 Gilded Road, Werribee, VIC 3030",144.661343,-37.89479,POINT (144.661343 -37.89479),True
16902834,"59 Gilded Road, Werribee, VIC 3030",144.661343,-37.89479,POINT (144.661343 -37.89479),True
16903802,"Kalamundra Drive, Werribee, VIC 3030",144.661343,-37.89479,POINT (144.661343 -37.89479),True
16904249,"Canopy Way, Werribee, VIC 3030",144.661343,-37.89479,POINT (144.661343 -37.89479),True
16904271,"Gellibrand Street, Werribee, VIC 3030",144.661343,-37.89479,POINT (144.661343 -37.89479),True
16904313,"Aldinga Avenue Point, Cook, VIC 3030",144.7882,-37.914903,POINT (144.7882 -37.914903),True
16905175,"Melia Court, Werribee, VIC 3030",144.66478,-37.886153,POINT (144.66478 -37.886153),True
14059138,"10 Severn Street Balwyn, North, VIC 3104",145.069814,-37.793875,POINT (145.069814 -37.793875),True
16479807,"Balwyn Road Balwyn, North, VIC 3104",145.084861,-37.794675,POINT (145.084861 -37.794675),True
16790108,"1a Kelvinside Street Balwyn, North, VIC 3104",145.093093,-37.783095,POINT (145.093093 -37.783095),True
16814329,"Yeneda Street Balwyn, North, VIC 3104",145.100796,-37.801315,POINT (145.100796 -37.801315),True
16843243,"Mcshane Street Balwyn, North, VIC 3104",145.089031,-37.797536,POINT (145.089031 -37.797536),True
16845480,"Dempster Avenue Balwyn, North, VIC 3104",145.093652,-37.795681,POINT (145.093652 -37.795681),True
16847254,"Madden Street Balwyn, North, VIC 3104",145.088846,-37.797217,POINT (145.088846 -37.797217),True
16856184,"Cityview Road Balwyn, North, VIC 3104",145.079604,-37.785637,POINT (145.079604 -37.785637),True
16870503,"Kawarren Street Balwyn, North, VIC 3104",145.092268,-37.784009,POINT (145.092268 -37.784009),True
16889070,"Carrington Street Balwyn, North, VIC 3104",145.08517,-37.802771,POINT (145.08517 -37.802771),True
16891544,"1074 Burke Road Balwyn, North, VIC 3104",145.063018,-37.799429,POINT (145.063018 -37.799429),True
16897185,"Ajana Street Balwyn, North, VIC 3104",145.098461,-37.802976,POINT (145.098461 -37.802976),True
16899394,"Cityview Road Balwyn, North, VIC 3104",145.079604,-37.785637,POINT (145.079604 -37.785637),True
16906669,"Greythorn Road Balwyn, North, VIC 3104",145.098429,-37.79686,POINT (145.098429 -37.79686),True
16907561,"Greythorn Road Balwyn, North, VIC 3104",145.098429,-37.79686,POINT (145.098429 -37.79686),True
16907873,"Tannock Street Balwyn, North, VIC 3104",145.095074,-37.787535,POINT (145.095074 -37.787535),True
16908588,"6a St Bridgets Rise Balwyn, North, VIC 3104",145.084249,-37.791879,POINT (145.084249 -37.791879),True
16908621,"6a St Bridgets Rise Balwyn, North, VIC 3104",145.084249,-37.791879,POINT (145.084249 -37.791879),True
16908751,"42 Bulleen Road Balwyn, North, VIC 3104",145.073252,-37.789848,POINT (145.073252 -37.789848),True
16909562,"Sunburst Avenue Balwyn, North, VIC 3104",145.074961,-37.7912,POINT (145.074961 -37.7912),True
16846123,"Wren Court, Echuca, VIC 3564",144.721828,-36.150244,POINT (144.721828 -36.150244),True
16881754,"Wilkinson Drive, Echuca, VIC 3564",144.724384,-36.142436,POINT (144.724384 -36.142436),True
16883368,"Mitiamo Road, Echuca, VIC 3564",144.750017,-36.129592,POINT (144.750017 -36.129592),True
16883767,"140 Bowen Street, Echuca, VIC 3564",144.765648,-36.130152,POINT (144.765648 -36.130152),True
16884059,"Ogilvie Avenue, Echuca, VIC 3564",144.735373,-36.140415,POINT (144.735373 -36.140415),True
16887852,"Eyre Street, Echuca, VIC 3564",144.759763,-36.133653,POINT (144.759763 -36.133653),True
16889663,"Fleming Street, Echuca, VIC 3564",144.749509,-36.142097,POINT (144.749509 -36.142097),True
16894972,"Mckinlay Street, Echuca, VIC 3564",144.748623,-36.132872,POINT (144.748623 -36.132872),True
10220273,"Lucerne Crescent, Frankston, VIC 3199",145.170093,-38.147576,POINT (145.170093 -38.147576),True
15378703,"Joy Street, Frankston, VIC 3199",145.132044,-38.144567,POINT (145.132044 -38.144567),True
16859801,"390 Nepean Highway, Frankston, VIC 3199",145.123467,-38.137178,POINT (145.123467 -38.137178),True
16915500,"28 Thomas Street, Baxter, VIC 3911",145.158687,-38.193613,POINT (145.158687 -38.193613),True
16915501,"28 Thomas Street, Baxter, VIC 3911",145.158687,-38.193613,POINT (145.158687 -38.193613),True
16930130,"Frome Avenue, Frankston, VIC 3199",145.126369,-38.15584,POINT (145.126369 -38.15584),True
16940777,"Baxter Tooradin Road, Baxter, VIC 3911",145.152657,-38.194552,POINT (145.152657 -38.194552),True
16944587,"21 Fairway Street, Frankston, VIC 3199",145.134876,-38.136114,POINT (145.134876 -38.136114),True
16953622,"Blaxland Ave Frankston, South, VIC 3199",145.133693,-38.168218,POINT (145.133693 -38.168218),True
16957448,"Roborough Avenue Mount, Eliza, VIC 3930",145.088174,-38.190733,POINT (145.088174 -38.190733),True
16962523,"Moorooduc Highway Mount, Eliza, VIC 3930",145.123974,-38.202071,POINT (145.123974 -38.202071),True
16963340,"35a Baden Powell Drive Frankston, South, VIC 3199",145.113005,-38.16359,POINT (145.113005 -38.16359),True
16963941,"Bonito Street Mount, Eliza, VIC 3930",145.082238,-38.198726,POINT (145.082238 -38.198726),True
16965560,"114 Kars Street Frankston, South, VIC 3199",145.115067,-38.160937,POINT (145.115067 -38.160937),True
16966861,"25 Fairway Street, Frankston, VIC 3199",145.135459,-38.136257,POINT (145.135459 -38.136257),True
16967383,"Thornton Rd Mount, Eliza, VIC 3930",145.104533,-38.172166,POINT (145.104533 -38.172166),True
16968667,"Tyers Court, Frankston, VIC 3199",145.155433,-38.148274,POINT (145.155433 -38.148274),True
16968770,"Teri Street, Frankston, VIC 3199",145.156764,-38.145156,POINT (145.156764 -38.145156),True
16969018,"325 Nepean Highway, Frankston, VIC 3199",145.124949,-38.132809,POINT (145.124949 -38.132809),True
16969118,"3 Lardner Road, Frankston, VIC 3199",145.136254,-38.157087,POINT (145.136254 -38.157087),True
14453387,"Golf Links Drive, Beveridge, VIC 3753",144.938768,-37.474715,POINT (144.938768 -37.474715),True
14774463,"Plenty View, Beveridge, VIC 3753",144.954701,-37.467889,POINT (144.954701 -37.467889),True
15615996,"Mandalay Circuit, Beveridge, VIC 3753",144.946277,-37.480614,POINT (144.946277 -37.480614),True
16313808,"Nankeen Loop, Beveridge, VIC 3753",144.98333,-37.48333,POINT (144.98333 -37.48333),True
16413031,"Platypus Chase, Beveridge, VIC 3753",144.98333,-37.48333,POINT (144.98333 -37.48333),True
16511745,"Stewart Street, Beveridge, VIC 3753",144.984473,-37.47605,POINT (144.984473 -37.47605),True
16511917,"Stewart Street, Beveridge, VIC 3753",144.984473,-37.47605,POINT (144.984473 -37.47605),True
16516007,"Siren Street, Beveridge, VIC 3753",144.943276,-37.475341,POINT (144.943276 -37.475341),True
16725110,"Constable Street, Beveridge, VIC 3753",144.967474,-37.474806,POINT (144.967474 -37.474806),True
16899452,"Mandalay Cct, Beveridge, VIC 3753",144.946277,-37.480614,POINT (144.946277 -37.480614),True
16913492,"Mandalay Circuit, Beveridge, VIC 3753",144.946277,-37.480614,POINT (144.946277 -37.480614),True
16932128,"Sunflower Drive, Beveridge, VIC 3753",144.960793,-37.478946,POINT (144.960793 -37.478946),True
16957542,"Paganica Street, Beveridge, VIC 3753",144.98333,-37.48333,POINT (144.98333 -37.48333),True
16959530,"Pandorea Street, Beveridge, VIC 3753",144.98333,-37.48333,POINT (144.98333 -37.48333),True
16960526,"Leadbeater Circuit, Beveridge, VIC 3753",144.958166,-37.481925,POINT (144.958166 -37.481925),True
16965972,"Ringtail Place, Beveridge, VIC 3753",144.959318,-37.480028,POINT (144.959318 -37.480028),True
16970407,"Whiteside Street, Beveridge, VIC 3753",144.963652,-37.477097,POINT (144.963652 -37.477097),True
16972076,"Galah Chase, Beveridge, VIC 3753",144.98333,-37.48333,POINT (144.98333 -37.48333),True
16976295,"Zenith Road, Beveridge, VIC 3753",144.948289,-37.476461,POINT (144.948289 -37.476461),True
16984139,"Silvereye Circuit, Beveridge, VIC 3753",144.96387,-37.472219,POINT (144.96387 -37.472219),True
16653610,"178 Johnson Street, Maffra, VIC 3860",146.980121,-37.968445,POINT (146.980121 -37.968445),True
16872113,"King Street, Maffra, VIC 3860",146.981038,-37.963396,POINT (146.981038 -37.963396),True
16873444,"Stratford Maffra Road, Maffra, VIC 3860",146.984053,-37.971538,POINT (146.984053 -37.971538),True
16890897,"Powerscourt Street, Maffra, VIC 3860",146.986134,-37.960511,POINT (146.986134 -37.960511),True
16891604,"5a Powerscourt Street, Maffra, VIC 3860",146.983978,-37.970016,POINT (146.983978 -37.970016),True
16858826,"Warriston Street, Brighton, VIC 3186",145.007029,-37.906837,POINT (145.007029 -37.906837),True
16868707,"Waterloo Street, Brighton, VIC 3186",145.001887,-37.915252,POINT (145.001887 -37.915252),True
16877611,"Bay Street, Brighton, VIC 3186",144.998838,-37.90503,POINT (144.998838 -37.90503),True
16880482,"886a Hampton Street, Brighton, VIC 3186",145.007981,-37.909244,POINT (145.007981 -37.909244),True
16881829,"2b Hamilton Street, Brighton, VIC 3186",145.002192,-37.896784,POINT (145.002192 -37.896784),True
16883436,"15 Sussex Street, Brighton, VIC 3186",144.990429,-37.917762,POINT (144.990429 -37.917762),True
16883699,"142 New Street, Brighton, VIC 3186",144.992933,-37.917959,POINT (144.992933 -37.917959),True
16884913,"16b Alverna Grove, Brighton, VIC 3186",145.003507,-37.913459,POINT (145.003507 -37.913459),True
16887926,"55 Bay Street, Brighton, VIC 3186",144.991668,-37.904019,POINT (144.991668 -37.904019),True
16892309,"19 New Street, Brighton, VIC 3186",144.993549,-37.929779,POINT (144.993549 -37.929779),True
16892313,"307 New Street, Brighton, VIC 3186",144.992751,-37.905406,POINT (144.992751 -37.905406),True
16895094,"344 New Street, Brighton, VIC 3186",144.993755,-37.902339,POINT (144.993755 -37.902339),True
16895489,"16 Warriston Street, Brighton, VIC 3186",145.007181,-37.906774,POINT (145.007181 -37.906774),True
16898028,"Durrant Street, Brighton, VIC 3186",145.004727,-37.910402,POINT (145.004727 -37.910402),True
16898067,"St James Park Drive, Brighton, VIC 3186",144.996047,-37.901911,POINT (144.996047 -37.901911),True
16901849,"Mary Street, Brighton, VIC 3186",144.997865,-37.9128,POINT (144.997865 -37.9128),True
16902113,"10 St Andrew Street, Brighton, VIC 3186",144.996841,-37.907571,POINT (144.996841 -37.907571),True
16902641,"14 Carpenter Street, Brighton, VIC 3186",144.993275,-37.915423,POINT (144.993275 -37.915423),True
16904323,"26 Missouri Avenue, Brighton, VIC 3186",145.002885,-37.894823,POINT (145.002885 -37.894823),True
15222103,"20 Adam Street, Burnley, VIC 3121",145.007692,-37.828759,POINT (145.007692 -37.828759),True
15842923,"7 Claremont Street South, Yarra, VIC 3141",144.993551,-37.838291,POINT (144.993551 -37.838291),True
16963227,"Gibdon St, Burnley, VIC 3121",145.010061,-37.831701,POINT (145.010061 -37.831701),True
16975897,"Cremorne St, Cremorne, VIC 3121",144.990227,-37.830354,POINT (144.990227 -37.830354),True
16976879,"10 Daly Street South, Yarra, VIC 3141",144.994691,-37.83777,POINT (144.994691 -37.83777),True
16977035,"Campbell Street, Richmond, VIC 3121",145.013304,-37.823121,POINT (145.013304 -37.823121),True
16977047,"Grange Road, Toorak, VIC 3142",145.011012,-37.839892,POINT (145.011012 -37.839892),True
16977338,"Melville Street, Hawthorn, VIC 3122",145.023801,-37.815544,POINT (145.023801 -37.815544),True
16977418,"41 Evansdale Road, Hawthorn, VIC 3122",145.023482,-37.823053,POINT (145.023482 -37.823053),True
16977430,"43 Park Street, Hawthorn, VIC 3122",145.03892,-37.819987,POINT (145.03892 -37.819987),True
16977434,"1 St Georges Road, Toorak, VIC 3142",145.0183,-37.841893,POINT (145.0183 -37.841893),True
16977527,"Hawksburn Road South, Yarra, VIC 3141",145.001778,-37.842245,POINT (145.001778 -37.842245),True
16977891,"59 Coppin Street, Richmond, VIC 3121",145.00381,-37.820096,POINT (145.00381 -37.820096),True
16977931,"205 Auburn Road, Hawthorn, VIC 3122",145.044388,-37.827183,POINT (145.044388 -37.827183),True
16978127,"Barnsbury Road South, Yarra, VIC 3141",145.001342,-37.845314,POINT (145.001342 -37.845314),True
16978890,"1 Power Ave, Hawthorn, VIC 3122",145.025307,-37.824325,POINT (145.025307 -37.824325),True
16978983,"24 Hawksburn Rd South, Yarra, VIC 3141",145.00182,-37.842997,POINT (145.00182 -37.842997),True
16979069,"2 Claremont Street South, Yarra, VIC 3141",144.993804,-37.838629,POINT (144.993804 -37.838629),True
16979126,"200 Burwood Road, Hawthorn, VIC 3122",145.043915,-37.823643,POINT (145.043915 -37.823643),True
16979172,"379 Toorak Road, Toorak, VIC 3142",145.030733,-37.843736,POINT (145.030733 -37.843736),True
16515195,"553 Burke Road, Camberwell, VIC 3124",145.073681,-37.840615,POINT (145.073681 -37.840615),True
16909240,"195 Wattle Valley Road Extension, Camberwell, VIC 3124",145.079324,-37.84666,POINT (145.079324 -37.84666),True
16913947,"George Street, Camberwell, VIC 3124",145.076449,-37.846394,POINT (145.076449 -37.846394),True
16930606,"Toorak Road, Camberwell, VIC 3124",145.066147,-37.847062,POINT (145.066147 -37.847062),True
16956517,"6 Gilmour Road, Camberwell, VIC 3124",145.091004,-37.84126,POINT (145.091004 -37.84126),True
16957555,"143 Through Road, Camberwell, VIC 3124",145.093033,-37.838842,POINT (145.093033 -37.838842),True
16959637,"Darling Avenue, Camberwell, VIC 3124",145.094619,-37.848887,POINT (145.094619 -37.848887),True
16960762,"34 Alma Rd, Camberwell, VIC 3124",145.057156,-37.836433,POINT (145.057156 -37.836433),True
16961496,"Monde Street, Camberwell, VIC 3124",145.087888,-37.841066,POINT (145.087888 -37.841066),True
16963290,"Prospect Hill Road, Camberwell, VIC 3124",145.059011,-37.828361,POINT (145.059011 -37.828361),True
16963297,"Prospect Hill Road, Camberwell, VIC 3124",145.059011,-37.828361,POINT (145.059011 -37.828361),True
16968648,"10 Braeside Avenue, Camberwell, VIC 3124",145.094647,-37.847431,POINT (145.094647 -37.847431),True
16976713,"Seymour Grove, Camberwell, VIC 3124",145.057692,-37.835641,POINT (145.057692 -37.835641),True
16980664,"11 Seymour Grove, Camberwell, VIC 3124",145.059923,-37.836084,POINT (145.059923 -37.836084),True
16981255,"9 High Road, Camberwell, VIC 3124",145.05705,-37.844706,POINT (145.05705 -37.844706),True
16982043,"Burke Road, Camberwell, VIC 3124",145.073681,-37.840615,POINT (145.073681 -37.840615),True
16982341,"565 Camberwell Road, Camberwell, VIC 3124",145.072003,-37.844521,POINT (145.072003 -37.844521),True
16983590,"728 Burke Road, Camberwell, VIC 3124",145.05795,-37.82592,POINT (145.05795 -37.82592),True
16983835,"1101 Toorak Road, Camberwell, VIC 3124",145.074981,-37.847877,POINT (145.074981 -37.847877),True
16984285,"597 Burke Road, Camberwell, VIC 3124",145.073681,-37.840615,POINT (145.073681 -37.840615),True
15612990,"111 Kinross Avenue, Edithvale, VIC 3196",145.116896,-38.033132,POINT (145.116896 -38.033132),True
16932634,"28 Nepean Highway, Aspendale, VIC 3195",145.090807,-38.013682,POINT (145.090807 -38.013682),True
16936030,"65 Woodbine Grove, Chelsea, VIC 3196",145.125361,-38.0524,POINT (145.125361 -38.0524),True
16949818,"Alameda Street, Parkdale, VIC 3195",145.074596,-37.993273,POINT (145.074596 -37.993273),True
16949915,"17 Melrose Street, Mordialloc, VIC 3195",145.085399,-37.999227,POINT (145.085399 -37.999227),True
16949950,"Stephens Street, Carrum, VIC 3197",145.120583,-38.073849,POINT (145.120583 -38.073849),True
16950322,"Bank Road, Edithvale, VIC 3196",145.108124,-38.039414,POINT (145.108124 -38.039414),True
16953640,"Kubis Avenue, Aspendale, VIC 3195",145.103116,-38.020782,POINT (145.103116 -38.020782),True
16955114,"81b Field Avenue, Edithvale, VIC 3196",145.117072,-38.03474,POINT (145.117072 -38.03474),True
16955456,"39 Parkers Road, Parkdale, VIC 3195",145.076103,-37.996081,POINT (145.076103 -37.996081),True
16959038,"Waratah Dr Dandenong, North, VIC 3175",145.204405,-37.959543,POINT (145.204405 -37.959543),True
16962269,"80 Cheltenham Road, Dandenong, VIC 3175",145.203924,-37.990474,POINT (145.203924 -37.990474),True
16962786,"259 Nepean Highway, Parkdale, VIC 3195",145.081199,-37.989561,POINT (145.081199 -37.989561),True
16964306,"11 Lawrence Avenue, Aspendale, VIC 3195",145.103115,-38.025918,POINT (145.103115 -38.025918),True
16966997,"34 Valetta Street, Carrum, VIC 3197",145.124221,-38.074572,POINT (145.124221 -38.074572),True
16967026,"11 Manikato Avenue, Mordialloc, VIC 3195",145.095135,-38.001098,POINT (145.095135 -38.001098),True
16967165,"160 Beach Road, Parkdale, VIC 3195",145.077219,-38.000727,POINT (145.077219 -38.000727),True
16533464,"Mcinnes Cres, Churchill, VIC 3842",146.415911,-38.309251,POINT (146.415911 -38.309251),True
16748530,"Dunbar Grove, Churchill, VIC 3842",146.417052,-38.316441,POINT (146.417052 -38.316441),True
16792111,"Box Court, Churchill, VIC 3842",146.411767,-38.30471,POINT (146.411767 -38.30471),True
16825241,"Firmin Road, Churchill, VIC 3842",146.412771,-38.30996,POINT (146.412771 -38.30996),True
16835405,"Omaru Court, Churchill, VIC 3842",146.426371,-38.322438,POINT (146.426371 -38.322438),True
16839372,"Walker Parade, Churchill, VIC 3842",146.416414,-38.318267,POINT (146.416414 -38.318267),True
16843592,"Maple Crescent, Churchill, VIC 3842",146.414685,-38.304462,POINT (146.414685 -38.304462),True
16848165,"Elonera Court, Churchill, VIC 3842",146.423787,-38.323605,POINT (146.423787 -38.323605),True
16860461,"Walker Parade, Churchill, VIC 3842",146.416414,-38.318267,POINT (146.416414 -38.318267),True
16862527,"Sheoke Grove, Churchill, VIC 3842",146.417047,-38.302472,POINT (146.417047 -38.302472),True
16862941,"32 Auchterlonie Crescent, Churchill, VIC 3842",146.413092,-38.31775,POINT (146.413092 -38.31775),True
16865954,"Kelly St, Morwell, VIC 3840",146.417984,-38.228596,POINT (146.417984 -38.228596),True
16876331,"The Boulevard, Morwell, VIC 3840",146.425802,-38.231169,POINT (146.425802 -38.231169),True
16876862,"18 Mcdonald Street, Morwell, VIC 3840",146.405801,-38.236641,POINT (146.405801 -38.236641),True
16877143,"24b The Avenue, Morwell, VIC 3840",146.431426,-38.229399,POINT (146.431426 -38.229399),True
16880176,"4 Park Avenue, Morwell, VIC 3840",146.432982,-38.231226,POINT (146.432982 -38.231226),True
16883442,"Latrobe Road, Morwell, VIC 3840",146.395856,-38.229316,POINT (146.395856 -38.229316),True
16884134,"Amaroo Drive, Churchill, VIC 3842",146.419481,-38.321398,POINT (146.419481 -38.321398),True
16887758,"Firmin Road, Churchill, VIC 3842",146.412771,-38.30996,POINT (146.412771 -38.30996),True
16889275,"Mary Street, Morwell, VIC 3840",146.396266,-38.233817,POINT (146.396266 -38.233817),True
8478352,"1728 Dandenong Road, Clayton, VIC 3168",145.124255,-37.913018,POINT (145.124255 -37.913018),True
8584713,"1728 Dandenong Road, Clayton, VIC 3168",145.124255,-37.913018,POINT (145.124255 -37.913018),True
13769898,"Moriah Street, Clayton, VIC 3168",145.12923,-37.928055,POINT (145.12923 -37.928055),True
13789345,"112 Wellington Road, Clayton, VIC 3168",145.142177,-37.917131,POINT (145.142177 -37.917131),True
14404463,"29 Bettina Street, Clayton, VIC 3168",145.13899,-37.919107,POINT (145.13899 -37.919107),True
14860429,"87 Kanooka Grove, Clayton, VIC 3168",145.125298,-37.924757,POINT (145.125298 -37.924757),True
15603138,"1806 Dandenong Road, Clayton, VIC 3168",145.132131,-37.917922,POINT (145.132131 -37.917922),True
15664323,"40 Bettina Street, Clayton, VIC 3168",145.139289,-37.919541,POINT (145.139289 -37.919541),True
16781986,"37 Stockdale Avenue, Clayton, VIC 3168",145.125437,-37.910104,POINT (145.125437 -37.910104),True
16894911,"139 Moriah Street, Clayton, VIC 3168",145.128879,-37.928905,POINT (145.128879 -37.928905),True
16926839,"237 Clayton Rd, Clayton, VIC 3168",145.120891,-37.91797,POINT (145.120891 -37.91797),True
16927158,"55 Manton Road, Clayton, VIC 3168",145.115766,-37.914881,POINT (145.115766 -37.914881),True
16941390,"66 Margaret Street, Clayton, VIC 3168",145.11752,-37.917644,POINT (145.11752 -37.917644),True
16942635,"83 Jaguar Drive, Clayton, VIC 3168",145.130797,-37.929537,POINT (145.130797 -37.929537),True
16949039,"22 Alice Street, Clayton, VIC 3168",145.11422,-37.917913,POINT (145.11422 -37.917913),True
16962604,"2 Greenfield Drive, Clayton, VIC 3168",145.128623,-37.923182,POINT (145.128623 -37.923182),True
16963086,"Scotsburn Avenue, Clayton, VIC 3168",145.132561,-37.917603,POINT (145.132561 -37.917603),True
16963918,"51 Evelyn Street, Clayton, VIC 3168",145.130248,-37.921792,POINT (145.130248 -37.921792),True
16964482,"Thompson St, Clayton, VIC 3168",145.114351,-37.918763,POINT (145.114351 -37.918763),True
16965350,"864 Blackburn Road, Clayton, VIC 3168",145.140017,-37.92202,POINT (145.140017 -37.92202),True
16832150,"Adelaide Street Gol, Gol, NSW 2738",142.221213,-34.17991,POINT (142.221213 -34.17991),True
16862241,"26 William Street Gol, Gol, NSW 2738",142.221973,-34.178766,POINT (142.221973 -34.178766),True
16863593,"26 William Street Gol, Gol, NSW 2738",142.221973,-34.178766,POINT (142.221973 -34.178766),True
16883573,"Wood Street Gol, Gol, NSW 2738",142.219514,-34.177187,POINT (142.219514 -34.177187),True
16875650,"Mcadam Street, Maffra, VIC 3860",146.987777,-37.96585,POINT (146.987777 -37.96585),True
15882095,"Evans Road Cranbourne, West, VIC 3977",145.254448,-38.099454,POINT (145.254448 -38.099454),True
16547858,"Bridport Street Cranbourne, West, VIC 3977",145.250119,-38.100707,POINT (145.250119 -38.100707),True
16712996,"Powell Way Cranbourne, West, VIC 3977",145.252562,-38.090997,POINT (145.252562 -38.090997),True
16832404,"Hemingway Grove Cranbourne, West, VIC 3977",145.250837,-38.097135,POINT (145.250837 -38.097135),True
16838650,"Eros Crescent Cranbourne, West, VIC 3977",145.235542,-38.109385,POINT (145.235542 -38.109385),True
16858054,"Morningside Boulevard Cranbourne, West, VIC 3977",145.250152,-38.095889,POINT (145.250152 -38.095889),True
16869117,"Fusion Circuit Cranbourne, West, VIC 3977",145.250187,-38.095746,POINT (145.250187 -38.095746),True
16874237,"Colchester Ave Cranbourne, West, VIC 3977",145.247832,-38.094541,POINT (145.247832 -38.094541),True
16874852,"Verve Circuit Cranbourne, West, VIC 3977",145.250599,-38.110372,POINT (145.250599 -38.110372),True
16876386,"Avonbury Circuit Cranbourne, West, VIC 3977",145.24873,-38.098422,POINT (145.24873 -38.098422),True
16876945,"Fusion Circuit Cranbourne, West, VIC 3977",145.250187,-38.095746,POINT (145.250187 -38.095746),True
16876980,"Fusion Circuit Cranbourne, West, VIC 3977",145.250187,-38.095746,POINT (145.250187 -38.095746),True
16878072,"Fishburn Place Cranbourne, West, VIC 3977",145.260876,-38.109716,POINT (145.260876 -38.109716),True
16878150,"Elysian Place Cranbourne, West, VIC 3977",145.246221,-38.111274,POINT (145.246221 -38.111274),True
16883637,"Cultura Walk Cranbourne, West, VIC 3977",145.250187,-38.095746,POINT (145.250187 -38.095746),True
16886905,"Fusion Circuit Cranbourne, West, VIC 3977",145.250187,-38.095746,POINT (145.250187 -38.095746),True
16887213,"Eminence Dr Cranbourne, West, VIC 3977",145.252868,-38.100651,POINT (145.252868 -38.100651),True
16887834,"101 Breens Road Cranbourne, West, VIC 3977",145.266982,-38.08883,POINT (145.266982 -38.08883),True
16888226,"Maidenhair Walk Cranbourne, West, VIC 3977",145.250187,-38.095746,POINT (145.250187 -38.095746),True
16891157,"Maidenhair Walk Cranbourne, West, VIC 3977",145.250187,-38.095746,POINT (145.250187 -38.095746),True
16453737,"464 Collins Street, Melbourne, VIC 3000",144.95864,-37.817567,POINT (144.95864 -37.817567),True
16563018,"77 Queens Road, Melbourne, VIC 3004",144.979412,-37.852817,POINT (144.979412 -37.852817),True
16598841,"81 Abeckett Street, Melbourne, VIC 3000",144.961206,-37.809374,POINT (144.961206 -37.809374),True
16887766,"Blanche Street, Cremorne, VIC 3121",144.989728,-37.826933,POINT (144.989728 -37.826933),True
16888378,"273 Williams Road South, Yarra, VIC 3141",145.00462,-37.839884,POINT (145.00462 -37.839884),True
16888593,"3 Davidson Street South, Yarra, VIC 3141",144.988503,-37.832461,POINT (144.988503 -37.832461),True
16889328,"20 Bank Place, Melbourne, VIC 3000",144.960449,-37.816429,POINT (144.960449 -37.816429),True
16889330,"15 Queens Road, Melbourne, VIC 3000",144.974497,-37.839323,POINT (144.974497 -37.839323),True
16889459,"65 Richmond Terrace, Richmond, VIC 3121",144.993452,-37.821758,POINT (144.993452 -37.821758),True
16889666,"568 St Kilda Road, Melbourne, VIC 3004",144.979023,-37.847024,POINT (144.979023 -37.847024),True
16889834,"Adam Street, Richmond, VIC 3121",145.003879,-37.819635,POINT (145.003879 -37.819635),True
16889938,"33 Judd Street, Richmond, VIC 3121",144.995284,-37.817774,POINT (144.995284 -37.817774),True
16890014,"Wall St, Richmond, VIC 3121",145.003883,-37.822742,POINT (145.003883 -37.822742),True
16890862,"15 Cromwell Road South, Yarra, VIC 3141",144.999647,-37.84536,POINT (144.999647 -37.84536),True
16890982,"408 Lonsdale Street, Melbourne, VIC 3000",144.960402,-37.812598,POINT (144.960402 -37.812598),True
16891874,"7 Claremont Street South, Yarra, VIC 3141",144.993551,-37.838291,POINT (144.993551 -37.838291),True
16891905,"Lennox St, Richmond, VIC 3121",144.995416,-37.813491,POINT (144.995416 -37.813491),True
16892565,"632 St Kilda Road, Melbourne, VIC 3004",144.981649,-37.854232,POINT (144.981649 -37.854232),True
16892872,"Oxford Street South, Yarra, VIC 3141",144.995145,-37.840379,POINT (144.995145 -37.840379),True
16892886,"26 Union Street, Richmond, VIC 3121",144.993304,-37.818749,POINT (144.993304 -37.818749),True
13468495,"Sabine Avenue Dandenong, North, VIC 3175",145.205163,-37.955548,POINT (145.205163 -37.955548),True
15015598,"Warbla Street Dandenong, North, VIC 3175",145.201103,-37.966808,POINT (145.201103 -37.966808),True
15787735,"Morris Court Dandenong, North, VIC 3175",145.213698,-37.955268,POINT (145.213698 -37.955268),True
16183679,"Barbara Avenue Dandenong, North, VIC 3175",145.197535,-37.965076,POINT (145.197535 -37.965076),True
16240157,"14 Koonalda Grove Dandenong, North, VIC 3175",145.200908,-37.967656,POINT (145.200908 -37.967656),True
16560240,"Buldah Street Dandenong, North, VIC 3175",145.214795,-37.942716,POINT (145.214795 -37.942716),True
16560275,"Waranga Street Dandenong, North, VIC 3175",145.214233,-37.941487,POINT (145.214233 -37.941487),True
16777300,"1435 Heatherton Road Dandenong, North, VIC 3175",145.208772,-37.969141,POINT (145.208772 -37.969141),True
16820722,"Chifley Crescent Dandenong, North, VIC 3175",145.20758,-37.967402,POINT (145.20758 -37.967402),True
16868675,"Brott Court Dandenong, North, VIC 3175",145.21746,-37.955624,POINT (145.21746 -37.955624),True
16872543,"15 Leonard Avenue Noble, Park, VIC 3174",145.176072,-37.968956,POINT (145.176072 -37.968956),True
16883092,"Brady Road Dandenong, North, VIC 3175",145.212266,-37.954019,POINT (145.212266 -37.954019),True
16889110,"Halton Road Dandenong, North, VIC 3175",145.204571,-37.956268,POINT (145.204571 -37.956268),True
16892283,"Howe Avenue Dandenong, North, VIC 3175",145.210343,-37.947143,POINT (145.210343 -37.947143),True
16898773,"Neasham Drive Dandenong, North, VIC 3175",145.201766,-37.94559,POINT (145.201766 -37.94559),True
16902320,"Carlton Road Dandenong, North, VIC 3175",145.221578,-37.961,POINT (145.221578 -37.961),True
16903457,"Gladstone Road Dandenong, North, VIC 3175",145.210596,-37.939696,POINT (145.210596 -37.939696),True
16904922,"13a Irving Street Dandenong, North, VIC 3175",145.214686,-37.955949,POINT (145.214686 -37.955949),True
16276751,"Greenhalghs Road, Delacombe, VIC 3356",143.80724,-37.584482,POINT (143.80724 -37.584482),True
16822624,"Edgewood Court, Delacombe, VIC 3356",143.808608,-37.58834,POINT (143.808608 -37.58834),True
16862108,"Deakin Drive, Delacombe, VIC 3356",143.822738,-37.592954,POINT (143.822738 -37.592954),True
16862707,"Cumberland Boulevard Winter, Valley, VIC 3358",143.794181,-37.568871,POINT (143.794181 -37.568871),True
16872694,"Merino Drive, Alfredton, VIC 3350",143.795526,-37.558037,POINT (143.795526 -37.558037),True
16887238,"7 Woolway Court, Delacombe, VIC 3356",143.81721,-37.586659,POINT (143.81721 -37.586659),True
16896724,"Jade Close, Delacombe, VIC 3356",143.823499,-37.585392,POINT (143.823499 -37.585392),True
16903138,"Greenhalghs Road, Delacombe, VIC 3356",143.80724,-37.584482,POINT (143.80724 -37.584482),True
16903303,"Ripon Street South, Redan, VIC 3350",143.838721,-37.57447,POINT (143.838721 -37.57447),True
16904521,"Chandler Street Smythes, Creek, VIC 3351",143.767256,-37.598512,POINT (143.767256 -37.598512),True
16904640,"Kingsley Court Ballarat, East, VIC 3350",143.880179,-37.568085,POINT (143.880179 -37.568085),True
16904689,"Bond Street Golden, Point, VIC 3350",143.8577,-37.572006,POINT (143.8577 -37.572006),True
16905104,"14 Canterbury St Brown, Hill, VIC 3350",143.887911,-37.555745,POINT (143.887911 -37.555745),True
16905150,"Chifley Drive, Delacombe, VIC 3356",143.821963,-37.594924,POINT (143.821963 -37.594924),True
16905266,"Balanada Close, Alfredton, VIC 3350",143.795483,-37.548032,POINT (143.795483 -37.548032),True
16859408,"8 Mccrae Street, Docklands, VIC 3008",144.950875,-37.821663,POINT (144.950875 -37.821663),True
16910252,"39 Caravel Lane, Docklands, VIC 3008",144.940796,-37.814751,POINT (144.940796 -37.814751),True
16910892,"8 Waterview Walk, Docklands, VIC 3008",144.947845,-37.819472,POINT (144.947845 -37.819472),True
16919663,"80 Lorimer Street, Docklands, VIC 3008",144.945021,-37.82486,POINT (144.945021 -37.82486),True
16938452,"103 South Wharf Drive, Docklands, VIC 3008",144.937588,-37.822459,POINT (144.937588 -37.822459),True
16940238,"50 Lorimer Street, Docklands, VIC 3008",144.947645,-37.824934,POINT (144.947645 -37.824934),True
16940467,"677 La Trobe Street, Docklands, VIC 3008",144.947263,-37.81487,POINT (144.947263 -37.81487),True
16945421,"60 Lorimer Street, Docklands, VIC 3008",144.946926,-37.824968,POINT (144.946926 -37.824968),True
16949712,"94 River Esplanade, Docklands, VIC 3008",144.947642,-37.823666,POINT (144.947642 -37.823666),True
16949794,"43 Waterfront Way, Docklands, VIC 3008",144.939234,-37.813683,POINT (144.939234 -37.813683),True
16971181,"8 Pearl River Road, Docklands, VIC 3008",144.938008,-37.815334,POINT (144.938008 -37.815334),True
16976330,"80 Lorimer Street, Docklands, VIC 3008",144.945021,-37.82486,POINT (144.945021 -37.82486),True
16979248,"Leven Avenue, Docklands, VIC 3008",144.937374,-37.815578,POINT (144.937374 -37.815578),True
16979709,"628 Flinders Street, Docklands, VIC 3008",144.953512,-37.821284,POINT (144.953512 -37.821284),True
16979714,"628 Flinders Street, Docklands, VIC 3008",144.953512,-37.821284,POINT (144.953512 -37.821284),True
16979906,"8 Marmion Place, Docklands, VIC 3008",144.942452,-37.813526,POINT (144.942452 -37.813526),True
16981587,"387 Docklands Drive, Docklands, VIC 3008",144.940754,-37.813882,POINT (144.940754 -37.813882),True
16983404,"453 Docklands Drive, Docklands, VIC 3008",144.940067,-37.814143,POINT (144.940067 -37.814143),True
16983561,"100 Harbour Esplanade, Docklands, VIC 3008",144.946966,-37.818305,POINT (144.946966 -37.818305),True
16984490,"8 Marmion Place, Docklands, VIC 3008",144.942452,-37.813526,POINT (144.942452 -37.813526),True
15813126,"17 Bowe Street, Shepparton, VIC 3630",145.398929,-36.372719,POINT (145.398929 -36.372719),True
16412751,"88 Orr Street, Shepparton, VIC 3630",145.403216,-36.374654,POINT (145.403216 -36.374654),True
16884426,"110 Swallow Street, Shepparton, VIC 3630",145.403808,-36.387677,POINT (145.403808 -36.387677),True
16885006,"Caulfield Court, Shepparton, VIC 3630",145.373568,-36.362129,POINT (145.373568 -36.362129),True
16885737,"Orchard Circuit, Shepparton, VIC 3630",145.408336,-36.359981,POINT (145.408336 -36.359981),True
16887390,"Mcdonald Street, Shepparton, VIC 3630",145.414268,-36.391295,POINT (145.414268 -36.391295),True
16888971,"Nightingale Way, Shepparton, VIC 3630",145.413766,-36.360129,POINT (145.413766 -36.360129),True
16890148,"St Andrews Road, Shepparton, VIC 3630",145.408634,-36.391758,POINT (145.408634 -36.391758),True
16890973,"Fitzgerald Street, Shepparton, VIC 3630",145.411644,-36.360683,POINT (145.411644 -36.360683),True
16891094,"Nook Place, Shepparton, VIC 3630",145.406836,-36.36548,POINT (145.406836 -36.36548),True
16891121,"Nook Place, Shepparton, VIC 3630",145.406836,-36.36548,POINT (145.406836 -36.36548),True
16891584,"17 Menzies Crescent, Shepparton, VIC 3630",145.381186,-36.354988,POINT (145.381186 -36.354988),True
16892571,"Fryers St, Shepparton, VIC 3630",145.398107,-36.378749,POINT (145.398107 -36.378749),True
16892637,"Redwood Lane, Shepparton, VIC 3630",145.416777,-36.367418,POINT (145.416777 -36.367418),True
16893170,"Macintosh Street, Shepparton, VIC 3630",145.407741,-36.39384,POINT (145.407741 -36.39384),True
16893424,"The Boulevard, Shepparton, VIC 3630",145.379074,-36.363367,POINT (145.379074 -36.363367),True
16893513,"53 Edward Street, Shepparton, VIC 3630",145.406723,-36.378738,POINT (145.406723 -36.378738),True
16897177,"Sali Dr, Shepparton, VIC 3630",145.404047,-36.35578,POINT (145.404047 -36.35578),True
16198817,"39 Sherwood Avenue, Chelsea, VIC 3196",145.122163,-38.052061,POINT (145.122163 -38.052061),True
16862744,"Ormond Street, Mordialloc, VIC 3195",145.089961,-38.00258,POINT (145.089961 -38.00258),True
16868893,"20 Randall Avenue, Edithvale, VIC 3196",145.120306,-38.039149,POINT (145.120306 -38.039149),True
16869111,"195 Station Street, Edithvale, VIC 3196",145.107134,-38.034996,POINT (145.107134 -38.034996),True
16870402,"Elsie Grove, Edithvale, VIC 3196",145.117983,-38.043175,POINT (145.117983 -38.043175),True
16875184,"Munro Avenue, Edithvale, VIC 3196",145.117085,-38.04035,POINT (145.117085 -38.04035),True
16876241,"119 Mcdonald Street, Mordialloc, VIC 3195",145.098213,-38.000975,POINT (145.098213 -38.000975),True
16879472,"20 Barkly St, Mordialloc, VIC 3195",145.087018,-38.000482,POINT (145.087018 -38.000482),True
16884463,"19 Ivy Street, Parkdale, VIC 3195",145.084696,-37.986004,POINT (145.084696 -37.986004),True
16889174,"111 Kinross Avenue, Edithvale, VIC 3196",145.116896,-38.033132,POINT (145.116896 -38.033132),True
16893280,"37 Patterson Street, Bonbeach, VIC 3196",145.122673,-38.06743,POINT (145.122673 -38.06743),True
16896220,"Nepean Hwy, Edithvale, VIC 3196",145.114919,-38.037468,POINT (145.114919 -38.037468),True
16896608,"75 Barkly Street, Mordialloc, VIC 3195",145.089702,-38.005112,POINT (145.089702 -38.005112),True
16898076,"8 Clydebank Road, Edithvale, VIC 3196",145.108209,-38.034559,POINT (145.108209 -38.034559),True
16899888,"Balaka Avenue, Aspendale, VIC 3195",145.105338,-38.020616,POINT (145.105338 -38.020616),True
16899958,"3 Glenbrook Avenue, Chelsea, VIC 3196",145.126884,-38.055266,POINT (145.126884 -38.055266),True
16900160,"8 York Street, Bonbeach, VIC 3196",145.121375,-38.061654,POINT (145.121375 -38.061654),True
16900755,"Field Avenue, Edithvale, VIC 3196",145.116396,-38.035106,POINT (145.116396 -38.035106),True
16903263,"14a Edith Street, Mordialloc, VIC 3195",145.090058,-38.001291,POINT (145.090058 -38.001291),True
13965128,"254 Buckley Street, Essendon, VIC 3040",144.906105,-37.75565,POINT (144.906105 -37.75565),True
14043855,"1 Queen Street, Essendon, VIC 3040",144.909268,-37.74539,POINT (144.909268 -37.74539),True
16749366,"17 Cooper Street, Essendon, VIC 3040",144.896559,-37.752751,POINT (144.896559 -37.752751),True
16942445,"22 Fletcher Street, Essendon, VIC 3040",144.92388,-37.755227,POINT (144.92388 -37.755227),True
16947485,"43 Raleigh Street, Essendon, VIC 3040",144.921443,-37.753516,POINT (144.921443 -37.753516),True
16969349,"1050 Mt Alexander Road, Essendon, VIC 3040",144.913381,-37.74841,POINT (144.913381 -37.74841),True
16970710,"225 Buckley Street, Essendon, VIC 3040",144.907691,-37.756202,POINT (144.907691 -37.756202),True
16975330,"1046 Mt Alexander Road, Essendon, VIC 3040",144.913598,-37.748725,POINT (144.913598 -37.748725),True
16975776,"29 Raleigh St, Essendon, VIC 3040",144.922822,-37.753684,POINT (144.922822 -37.753684),True
16978559,"32 Napier Street, Essendon, VIC 3040",144.918203,-37.754075,POINT (144.918203 -37.754075),True
16979206,"134 Ogilvie St, Essendon, VIC 3040",144.894179,-37.743718,POINT (144.894179 -37.743718),True
16979941,"Richardson Street, Essendon, VIC 3040",144.912704,-37.750932,POINT (144.912704 -37.750932),True
16981161,"24 Leake Street, Essendon, VIC 3040",144.910173,-37.746468,POINT (144.910173 -37.746468),True
16982063,"26 Winifred Street, Essendon, VIC 3040",144.912089,-37.744066,POINT (144.912089 -37.744066),True
16982183,"1 Forbes Street, Essendon, VIC 3040",144.9211,-37.756817,POINT (144.9211 -37.756817),True
16982839,"17 Winifred Street, Essendon, VIC 3040",144.911096,-37.744217,POINT (144.911096 -37.744217),True
16983097,"89 Tennyson Street, Essendon, VIC 3040",144.929875,-37.757196,POINT (144.929875 -37.757196),True
16983691,"43 Albion Street, Essendon, VIC 3040",144.933014,-37.756847,POINT (144.933014 -37.756847),True
16983992,"142 Hoffmans Road, Essendon, VIC 3040",144.892237,-37.739154,POINT (144.892237 -37.739154),True
11841766,"170 Kerr Street, Fitzroy, VIC 3065",144.981587,-37.797213,POINT (144.981587 -37.797213),True
16326789,"98 Leicester Street, Fitzroy, VIC 3065",144.980132,-37.795476,POINT (144.980132 -37.795476),True
16499012,"183 Kerr Street, Fitzroy, VIC 3065",144.981565,-37.796877,POINT (144.981565 -37.796877),True
16816341,"363 George Street, Fitzroy, VIC 3065",144.981753,-37.798308,POINT (144.981753 -37.798308),True
16854137,"185 Rose St, Fitzroy, VIC 3065",144.983948,-37.796368,POINT (144.983948 -37.796368),True
16865890,"150 Kerr Street, Fitzroy, VIC 3065",144.980421,-37.797088,POINT (144.980421 -37.797088),True
16871779,"176 Fitzroy Street, Fitzroy, VIC 3065",144.976546,-37.803905,POINT (144.976546 -37.803905),True
16872106,"Leicester Street, Fitzroy, VIC 3065",144.980132,-37.795476,POINT (144.980132 -37.795476),True
16874935,"231 Moor Street, Fitzroy, VIC 3065",144.983528,-37.802015,POINT (144.983528 -37.802015),True
16875418,"Argyle Street, Fitzroy, VIC 3065",144.979758,-37.797662,POINT (144.979758 -37.797662),True
16875519,"Fitzroy Street, Fitzroy, VIC 3065",144.976986,-37.800668,POINT (144.976986 -37.800668),True
16877672,"192 Argyle Street, Fitzroy, VIC 3065",144.982558,-37.798082,POINT (144.982558 -37.798082),True
16879275,"Napier Street, Fitzroy, VIC 3065",144.980373,-37.800753,POINT (144.980373 -37.800753),True
16882974,"416 Gore Street, Fitzroy, VIC 3065",144.983632,-37.796705,POINT (144.983632 -37.796705),True
16884796,"2 King William Street, Fitzroy, VIC 3065",144.975262,-37.802261,POINT (144.975262 -37.802261),True
16885123,"185 Rose Street, Fitzroy, VIC 3065",144.983948,-37.796368,POINT (144.983948 -37.796368),True
16885477,"Kerr Street, Fitzroy, VIC 3065",144.98279,-37.797178,POINT (144.98279 -37.797178),True
16886721,"George Street, Fitzroy, VIC 3065",144.982621,-37.794388,POINT (144.982621 -37.794388),True
16887956,"40 Moor Street, Fitzroy, VIC 3065",144.983159,-37.802124,POINT (144.983159 -37.802124),True
16888691,"237 Napier Street, Fitzroy, VIC 3065",144.980157,-37.800612,POINT (144.980157 -37.800612),True
16053733,"Magnolia Court, Frankston, VIC 3199",145.134978,-38.162106,POINT (145.134978 -38.162106),True
16722783,"Lucerne Crescent, Frankston, VIC 3199",145.170093,-38.147576,POINT (145.170093 -38.147576),True
16884145,"7b Omaroo Road, Frankston, VIC 3199",145.150578,-38.144349,POINT (145.150578 -38.144349),True
16884354,"21 Reservoir Road, Frankston, VIC 3199",145.142353,-38.150083,POINT (145.142353 -38.150083),True
16885441,"Nepean Highway, Frankston, VIC 3199",145.113771,-38.151187,POINT (145.113771 -38.151187),True
16885450,"25 Addicott Street, Frankston, VIC 3199",145.138287,-38.142306,POINT (145.138287 -38.142306),True
16889447,"392 Nepean Highway, Frankston, VIC 3199",145.123302,-38.137577,POINT (145.123302 -38.137577),True
16889597,"9b Mcalister Street, Frankston, VIC 3199",145.134852,-38.14249,POINT (145.134852 -38.14249),True
16889660,"Parva Avenue, Frankston, VIC 3199",145.124221,-38.15923,POINT (145.124221 -38.15923),True
16893722,"11 Mcalister Avenue, Frankston, VIC 3199",145.146311,-38.148005,POINT (145.146311 -38.148005),True
16894740,"337a Nepean Highway, Frankston, VIC 3199",145.124772,-38.133646,POINT (145.124772 -38.133646),True
16897014,"Williams Street, Frankston, VIC 3199",145.125372,-38.152571,POINT (145.125372 -38.152571),True
16897766,"17 Fairway Street, Frankston, VIC 3199",145.134566,-38.136044,POINT (145.134566 -38.136044),True
16898451,"Bokissa Drive, Frankston, VIC 3199",145.148888,-38.136382,POINT (145.148888 -38.136382),True
16900072,"Finlay Street, Frankston, VIC 3199",145.131631,-38.140278,POINT (145.131631 -38.140278),True
16900101,"16 Clyde Street, Frankston, VIC 3199",145.125177,-38.142194,POINT (145.125177 -38.142194),True
16900113,"13 Royle Street, Frankston, VIC 3199",145.138914,-38.143543,POINT (145.138914 -38.143543),True
16900266,"52 Williams Street, Frankston, VIC 3199",145.122109,-38.152156,POINT (145.122109 -38.152156),True
16900712,"42 Lardner Road, Frankston, VIC 3199",145.138214,-38.15426,POINT (145.138214 -38.15426),True
15145360,"123 Grange Road Glen, Huntly, VIC 3163",145.044767,-37.890219,POINT (145.044767 -37.890219),True
15306491,"31 Rosstown Road, Carnegie, VIC 3163",145.054323,-37.884854,POINT (145.054323 -37.884854),True
15513993,"13 Waratah Avenue Glen, Huntly, VIC 3163",145.044372,-37.891817,POINT (145.044372 -37.891817),True
15702075,"2 Clarence Street Malvern, East, VIC 3145",145.041903,-37.874605,POINT (145.041903 -37.874605),True
16084811,"115 Neerim Road Glen, Huntly, VIC 3163",145.041909,-37.88786,POINT (145.041909 -37.88786),True
16297207,"2c Waratah Avenue Glen, Huntly, VIC 3163",145.042945,-37.892204,POINT (145.042945 -37.892204),True
16875744,"1164 Glen Huntly Road Glen, Huntly, VIC 3163",145.04292,-37.889678,POINT (145.04292 -37.889678),True
16892957,"15 Rosedale Avenue Glen, Huntly, VIC 3163",145.04422,-37.890661,POINT (145.04422 -37.890661),True
16894468,"Patterson Road, Bentleigh, VIC 3204",145.032633,-37.925335,POINT (145.032633 -37.925335),True
16894714,"Field Street, Bentleigh, VIC 3204",145.039255,-37.924061,POINT (145.039255 -37.924061),True
16894763,"Malvern Road Malvern, East, VIC 3145",145.063578,-37.872968,POINT (145.063578 -37.872968),True
16895001,"332 Neerim Rd, Carnegie, VIC 3163",145.060655,-37.889472,POINT (145.060655 -37.889472),True
16895033,"19 Bowen Street Malvern, East, VIC 3145",145.077252,-37.884579,POINT (145.077252 -37.884579),True
16895414,"848 Glen Huntly Road Caulfield, South, VIC 3162",145.024353,-37.887411,POINT (145.024353 -37.887411),True
16895681,"Heath Drive Glen, Huntly, VIC 3163",145.041686,-37.887775,POINT (145.041686 -37.887775),True
16895871,"375 Neerim Road, Carnegie, VIC 3163",145.063385,-37.890077,POINT (145.063385 -37.890077),True
16896005,"810 Warrigal Road Malvern, East, VIC 3145",145.08816,-37.891951,POINT (145.08816 -37.891951),True
16897100,"48 Rosanna Street, Carnegie, VIC 3163",145.061833,-37.899378,POINT (145.061833 -37.899378),True
16897179,"1100 Dandenong Road, Carnegie, VIC 3163",145.059316,-37.884515,POINT (145.059316 -37.884515),True
15051875,"Parsons Avenue Glen, Waverley, VIC 3150",145.17829,-37.867612,POINT (145.17829 -37.867612),True
16100827,"81 Avonhurst Drive Glen, Waverley, VIC 3150",145.149872,-37.90087,POINT (145.149872 -37.90087),True
16932678,"25 O Sullivan Road Glen, Waverley, VIC 3150",145.165853,-37.877899,POINT (145.165853 -37.877899),True
16956586,"Jordan Grove Glen, Waverley, VIC 3150",145.167455,-37.887382,POINT (145.167455 -37.887382),True
16972788,"Kinnoull Grove Glen, Waverley, VIC 3150",145.15524,-37.880556,POINT (145.15524 -37.880556),True
16976299,"4 Batten Street Glen, Waverley, VIC 3150",145.160817,-37.88578,POINT (145.160817 -37.88578),True
16976355,"54a Lincoln Avenue Glen, Waverley, VIC 3150",145.162247,-37.884746,POINT (145.162247 -37.884746),True
16977172,"Springvale Road Glen, Waverley, VIC 3150",145.168192,-37.867914,POINT (145.168192 -37.867914),True
16978043,"Glen Court Glen, Waverley, VIC 3150",145.171931,-37.881946,POINT (145.171931 -37.881946),True
16978480,"1 Browning Drive Glen, Waverley, VIC 3150",145.175075,-37.864653,POINT (145.175075 -37.864653),True
16978933,"35 Angus Drive Glen, Waverley, VIC 3150",145.163223,-37.871065,POINT (145.163223 -37.871065),True
16979278,"Brazilia Drive Glen, Waverley, VIC 3150",145.174566,-37.884103,POINT (145.174566 -37.884103),True
16979694,"Strand Close Glen, Waverley, VIC 3150",145.185823,-37.886053,POINT (145.185823 -37.886053),True
16980069,"Plymouth Street Glen, Waverley, VIC 3150",145.174334,-37.864445,POINT (145.174334 -37.864445),True
16980518,"Kirstina Road Glen, Waverley, VIC 3150",145.166597,-37.890177,POINT (145.166597 -37.890177),True
16980812,"11 York Street Glen, Waverley, VIC 3150",145.174042,-37.868085,POINT (145.174042 -37.868085),True
16980817,"Utah Road Glen, Waverley, VIC 3150",145.151132,-37.869219,POINT (145.151132 -37.869219),True
16980853,"High Street Road Glen, Waverley, VIC 3150",145.188465,-37.876746,POINT (145.188465 -37.876746),True
16981360,"6 Garrisson Drive Glen, Waverley, VIC 3150",145.172677,-37.878761,POINT (145.172677 -37.878761),True
16982269,"Herriotts Boulevard Glen, Waverley, VIC 3150",145.153359,-37.898263,POINT (145.153359 -37.898263),True
16409842,"31 Kinkora Road, Hawthorn, VIC 3122",145.032986,-37.816685,POINT (145.032986 -37.816685),True
16946131,"41 Riversdale Road, Hawthorn, VIC 3122",145.029594,-37.828037,POINT (145.029594 -37.828037),True
16959395,"157 Burwood Rd, Hawthorn, VIC 3122",145.028275,-37.821209,POINT (145.028275 -37.821209),True
16960079,"506 Glenferrie Rd, Hawthorn, VIC 3122",145.034043,-37.830779,POINT (145.034043 -37.830779),True
16960989,"39 Riversdale Road, Hawthorn, VIC 3122",145.02925,-37.828012,POINT (145.02925 -37.828012),True
16962246,"516 Glenferrie Road, Hawthorn, VIC 3122",145.034263,-37.829602,POINT (145.034263 -37.829602),True
16964767,"Urquhart Street, Hawthorn, VIC 3122",145.040858,-37.827034,POINT (145.040858 -37.827034),True
16966758,"2a Berkeley Street, Hawthorn, VIC 3122",145.036833,-37.82969,POINT (145.036833 -37.82969),True
16967096,"416 Auburn Road, Hawthorn, VIC 3122",145.042386,-37.835716,POINT (145.042386 -37.835716),True
16970114,"506 Glenferrie Rd, Hawthorn, VIC 3122",145.034043,-37.830779,POINT (145.034043 -37.830779),True
16970425,"5 Denham St, Hawthorn, VIC 3122",145.017043,-37.818571,POINT (145.017043 -37.818571),True
16970647,"1 Coppin Grove, Hawthorn, VIC 3122",145.017542,-37.820707,POINT (145.017542 -37.820707),True
16971158,"Barkers Rd, Hawthorn, VIC 3122",145.031704,-37.822814,POINT (145.031704 -37.822814),True
16972016,"29 Elphin Grove, Hawthorn, VIC 3122",145.0423,-37.818319,POINT (145.0423 -37.818319),True
16974341,"Haines Street, Hawthorn, VIC 3122",145.041134,-37.817417,POINT (145.041134 -37.817417),True
15390648,"58 Myrtle Street, Ivanhoe, VIC 3079",145.04281,-37.765211,POINT (145.04281 -37.765211),True
16029869,"145 Cape Street, Heidelberg, VIC 3084",145.067511,-37.752974,POINT (145.067511 -37.752974),True
16858501,"Lachlan Grange, Bulleen, VIC 3105",145.089281,-37.759471,POINT (145.089281 -37.759471),True
16879422,"443 Upper Heidelberg Road, Ivanhoe, VIC 3079",145.050189,-37.761482,POINT (145.050189 -37.761482),True
16885262,"76 Darebin Street, Heidelberg, VIC 3084",145.061194,-37.753434,POINT (145.061194 -37.753434),True
16888334,"Cuthbert Street, Bulleen, VIC 3105",145.092326,-37.772812,POINT (145.092326 -37.772812),True
16889378,"294 Bell St Heidelberg, West, VIC 3081",145.043121,-37.750032,POINT (145.043121 -37.750032),True
16890424,"294 Bell Street Heidelberg, West, VIC 3081",145.043121,-37.750032,POINT (145.043121 -37.750032),True
16890849,"294 Bell Street Heidelberg, West, VIC 3081",145.043121,-37.750032,POINT (145.043121 -37.750032),True
16893854,"45 Rosanna Road, Heidelberg, VIC 3084",145.069932,-37.753717,POINT (145.069932 -37.753717),True
16896178,"68 Yarra Street, Heidelberg, VIC 3084",145.06361,-37.757585,POINT (145.06361 -37.757585),True
16896223,"Cartmell Street, Heidelberg, VIC 3084",145.066081,-37.755118,POINT (145.066081 -37.755118),True
16896270,"83 Yarra Street, Heidelberg, VIC 3084",145.061026,-37.757905,POINT (145.061026 -37.757905),True
16897097,"15 Livingstone Street, Ivanhoe, VIC 3079",145.041011,-37.767162,POINT (145.041011 -37.767162),True
16897134,"11 Dalveen Road, Ivanhoe, VIC 3079",145.034868,-37.758252,POINT (145.034868 -37.758252),True
16898239,"129 Waiora Road Heidelberg, Heights, VIC 3081",145.059368,-37.737263,POINT (145.059368 -37.737263),True
16899297,"164 Hawdon Street, Heidelberg, VIC 3084",145.066371,-37.750346,POINT (145.066371 -37.750346),True
16900003,"Oakhurst Ave, Heidelberg, VIC 3084",145.064507,-37.748079,POINT (145.064507 -37.748079),True
16900211,"91 Darebin Street, Heidelberg, VIC 3084",145.059276,-37.753496,POINT (145.059276 -37.753496),True
16306456,"21 Willesden Road, Hughesdale, VIC 3166",145.077672,-37.894511,POINT (145.077672 -37.894511),True
16414376,"Federation Walk, Hughesdale, VIC 3166",145.079482,-37.891253,POINT (145.079482 -37.891253),True
16673050,"1330 Dandenong Road, Hughesdale, VIC 3166",145.080699,-37.888603,POINT (145.080699 -37.888603),True
16743265,"Canterbury Street, Hughesdale, VIC 3166",145.080987,-37.90399,POINT (145.080987 -37.90399),True
16815557,"3a Willesden Road, Hughesdale, VIC 3166",145.077081,-37.894249,POINT (145.077081 -37.894249),True
16816124,"34b Poath Rd, Hughesdale, VIC 3166",145.077662,-37.892201,POINT (145.077662 -37.892201),True
16854500,"21 Camden Road, Hughesdale, VIC 3166",145.082406,-37.899833,POINT (145.082406 -37.899833),True
16862274,"5 Camden Rd, Hughesdale, VIC 3166",145.082633,-37.89865,POINT (145.082633 -37.89865),True
16872404,"Dallas Avenue, Hughesdale, VIC 3166",145.083345,-37.905255,POINT (145.083345 -37.905255),True
16876433,"Calembeena Avenue, Hughesdale, VIC 3166",145.082662,-37.906161,POINT (145.082662 -37.906161),True
16876484,"Federation Walk, Hughesdale, VIC 3166",145.079482,-37.891253,POINT (145.079482 -37.891253),True
16881257,"34 Maroo Street, Hughesdale, VIC 3166",145.081712,-37.891147,POINT (145.081712 -37.891147),True
16882183,"1 Bletchley Road, Hughesdale, VIC 3166",145.082132,-37.892856,POINT (145.082132 -37.892856),True
16882932,"5 Camden Road, Hughesdale, VIC 3166",145.082633,-37.89865,POINT (145.082633 -37.89865),True
16887326,"Kangaroo Road, Hughesdale, VIC 3166",145.085374,-37.900847,POINT (145.085374 -37.900847),True
16888295,"95a Atherton Road, Oakleigh, VIC 3166",145.094489,-37.899218,POINT (145.094489 -37.899218),True
16888734,"1100 Dandenong Road, Carnegie, VIC 3163",145.059316,-37.884515,POINT (145.059316 -37.884515),True
16889730,"14 Ardyne Street, Murrumbeena, VIC 3163",145.06868,-37.892417,POINT (145.06868 -37.892417),True
16889796,"839 Dandenong Rd Malvern, East, VIC 3145",145.040769,-37.874853,POINT (145.040769 -37.874853),True
16890276,"103 Atherton Road, Oakleigh, VIC 3166",145.095016,-37.899296,POINT (145.095016 -37.899296),True
9446160,"74 South Street, Wodonga, VIC 3690",146.87996,-36.116011,POINT (146.87996 -36.116011),True
16270873,"4 Skipton Court, Wodonga, VIC 3690",146.907367,-36.128712,POINT (146.907367 -36.128712),True
16875884,"211 Lawrence Street, Wodonga, VIC 3690",146.882109,-36.123894,POINT (146.882109 -36.123894),True
16881864,"Gayview Drive, Wodonga, VIC 3690",146.89372,-36.127609,POINT (146.89372 -36.127609),True
16888882,"Axford Boulevard, Wodonga, VIC 3690",146.901402,-36.140503,POINT (146.901402 -36.140503),True
16890525,"113 Marshall Street, Wodonga, VIC 3690",146.89372,-36.127609,POINT (146.89372 -36.127609),True
16890600,"7 Grace Court, Wodonga, VIC 3690",146.89372,-36.127609,POINT (146.89372 -36.127609),True
16890654,"Mayfair Drive, Wodonga, VIC 3690",146.89372,-36.127609,POINT (146.89372 -36.127609),True
16893604,"Dalgleish Street, Wodonga, VIC 3690",146.870501,-36.119851,POINT (146.870501 -36.119851),True
16894934,"Klim Street, Killara, VIC 3691",145.5,-37.75,POINT (145.5 -37.75),True
16898711,"12 Emery Court, Wodonga, VIC 3690",146.89372,-36.127609,POINT (146.89372 -36.127609),True
16898959,"45 Kingfisher Drive, Wodonga, VIC 3690",146.89372,-36.127609,POINT (146.89372 -36.127609),True
16900392,"19 Thorneycroft Avenue, Wodonga, VIC 3690",146.912664,-36.124118,POINT (146.912664 -36.124118),True
16900488,"Brunswick Court West, Wodonga, VIC 3690",146.851067,-36.125888,POINT (146.851067 -36.125888),True
16901912,"Mossgrove Way, Beechworth, VIC 3747",146.700108,-36.354804,POINT (146.700108 -36.354804),True
16902763,"14 Mcewen Crescent, Wodonga, VIC 3690",146.89372,-36.127609,POINT (146.89372 -36.127609),True
16902805,"Rosemont Court, Wodonga, VIC 3690",146.906234,-36.133232,POINT (146.906234 -36.133232),True
14434769,"443 Upper Heidelberg Road, Ivanhoe, VIC 3079",145.050189,-37.761482,POINT (145.050189 -37.761482),True
14625991,"443 Upper Heidelberg Road, Ivanhoe, VIC 3079",145.050189,-37.761482,POINT (145.050189 -37.761482),True
16942397,"125 Bell Street, Ivanhoe, VIC 3079",145.04281,-37.765211,POINT (145.04281 -37.765211),True
16954169,"82 Marshall Street, Ivanhoe, VIC 3079",145.04713,-37.7705,POINT (145.04713 -37.7705),True
16955419,"49 Locksley Road, Ivanhoe, VIC 3079",145.048159,-37.7705,POINT (145.048159 -37.7705),True
16955882,"45 Linden Avenue, Ivanhoe, VIC 3079",145.04281,-37.765211,POINT (145.04281 -37.765211),True
16955909,"45 Linden Avenue, Ivanhoe, VIC 3079",145.04281,-37.765211,POINT (145.04281 -37.765211),True
16955923,"45 Linden Avenue, Ivanhoe, VIC 3079",145.04281,-37.765211,POINT (145.04281 -37.765211),True
16955939,"45 Linden Avenue, Ivanhoe, VIC 3079",145.04281,-37.765211,POINT (145.04281 -37.765211),True
16956102,"131 Bell Street, Ivanhoe, VIC 3079",145.04281,-37.765211,POINT (145.04281 -37.765211),True
16956606,"69 Marshall Street, Ivanhoe, VIC 3079",145.04639,-37.771641,POINT (145.04639 -37.771641),True
16956648,"29 Myrtle Street, Ivanhoe, VIC 3079",145.04281,-37.765211,POINT (145.04281 -37.765211),True
16956954,"3 Abbotsford Grove, Ivanhoe, VIC 3079",145.040229,-37.770758,POINT (145.040229 -37.770758),True
16958036,"26 Ford Street, Ivanhoe, VIC 3079",145.040834,-37.76477,POINT (145.040834 -37.76477),True
16960597,"32 Green Street, Ivanhoe, VIC 3079",145.03969,-37.764776,POINT (145.03969 -37.764776),True
16962025,"13 Livingstone Street, Ivanhoe, VIC 3079",145.041308,-37.767295,POINT (145.041308 -37.767295),True
16962236,"Mabel Street, Ivanhoe, VIC 3079",145.029373,-37.76228,POINT (145.029373 -37.76228),True
16962498,"1023 Heidelberg Road, Ivanhoe, VIC 3079",145.038208,-37.775531,POINT (145.038208 -37.775531),True
16962607,"91 Beatty Street, Ivanhoe, VIC 3079",145.035258,-37.75911,POINT (145.035258 -37.75911),True
16965271,"Waterdale Road, Ivanhoe, VIC 3079",145.042688,-37.769144,POINT (145.042688 -37.769144),True
16770162,"Dimora Avenue, Camperdown, VIC 3260",143.13794,-38.235298,POINT (143.13794 -38.235298),True
16863349,"69 Fergusson Street, Camperdown, VIC 3260",143.144424,-38.229529,POINT (143.144424 -38.229529),True
16888267,"Fenton Street, Camperdown, VIC 3260",143.138392,-38.23939,POINT (143.138392 -38.23939),True
16897045,"Fenton Street, Camperdown, VIC 3260",143.138392,-38.23939,POINT (143.138392 -38.23939),True
16974353,"Arlington Court, Corinella, VIC 3984",145.428165,-38.412494,POINT (145.428165 -38.412494),True
14716772,"Hillman St, Laverton, VIC 3028",144.777412,-37.851704,POINT (144.777412 -37.851704),True
14819448,"High Street, Laverton, VIC 3028",144.773988,-37.864003,POINT (144.773988 -37.864003),True
16780158,"27 Heffernan Street, Laverton, VIC 3028",144.767291,-37.863636,POINT (144.767291 -37.863636),True
16823706,"Thomson Avenue, Laverton, VIC 3028",144.774163,-37.850876,POINT (144.774163 -37.850876),True
16825016,"Bladin Street, Laverton, VIC 3028",144.775648,-37.851822,POINT (144.775648 -37.851822),True
16827761,"Cole Street, Laverton, VIC 3028",144.772698,-37.853055,POINT (144.772698 -37.853055),True
16833902,"31 Tyquin Street, Laverton, VIC 3028",144.77956,-37.848908,POINT (144.77956 -37.848908),True
16834980,"Evans Crescent Street, Laverton, VIC 3028",144.774018,-37.857378,POINT (144.774018 -37.857378),True
16836306,"13 Thomas Street, Laverton, VIC 3028",144.771846,-37.860469,POINT (144.771846 -37.860469),True
16838322,"Eades Street, Laverton, VIC 3028",144.777152,-37.856012,POINT (144.777152 -37.856012),True
16848155,"15 Barwise Street, Laverton, VIC 3028",144.7749,-37.853218,POINT (144.7749 -37.853218),True
16850123,"15 Thomas Street, Laverton, VIC 3028",144.771089,-37.861247,POINT (144.771089 -37.861247),True
16859845,"Burke Court, Laverton, VIC 3028",144.768278,-37.862654,POINT (144.768278 -37.862654),True
16860932,"Butcher Crescent, Laverton, VIC 3028",144.771955,-37.851604,POINT (144.771955 -37.851604),True
16861804,"Armstrong Street, Laverton, VIC 3028",144.772524,-37.860453,POINT (144.772524 -37.860453),True
16862613,"15 Thomas Street, Laverton, VIC 3028",144.771089,-37.861247,POINT (144.771089 -37.861247),True
16866493,"Cobby Street, Laverton, VIC 3028",144.767381,-37.85928,POINT (144.767381 -37.85928),True
16867122,"Goble Street, Laverton, VIC 3028",144.768599,-37.862957,POINT (144.768599 -37.862957),True
16577477,", Maidstone, VIC 3012",144.85898,-37.803234,POINT (144.85898 -37.803234),True
16909765,"22 Scovell Crescent, Maidstone, VIC 3012",144.879236,-37.783413,POINT (144.879236 -37.783413),True
16929101,"22 Churchill Avenue, Maidstone, VIC 3012",144.868032,-37.784112,POINT (144.868032 -37.784112),True
16929239,"15a Dunedin Street, Maidstone, VIC 3012",144.869023,-37.78093,POINT (144.869023 -37.78093),True
16930721,"Scovell Crescent, Maidstone, VIC 3012",144.879019,-37.784052,POINT (144.879019 -37.784052),True
16931165,"101 Ballarat Road, Maidstone, VIC 3012",144.876871,-37.786296,POINT (144.876871 -37.786296),True
16937621,"Holland Court, Maidstone, VIC 3012",144.868427,-37.785819,POINT (144.868427 -37.785819),True
16940327,"1a Burns Street, Maidstone, VIC 3012",144.878696,-37.787656,POINT (144.878696 -37.787656),True
16943363,"Rooney Street, Maidstone, VIC 3012",144.870309,-37.784485,POINT (144.870309 -37.784485),True
16949263,"1b Carlyle Street, Maidstone, VIC 3012",144.878262,-37.790715,POINT (144.878262 -37.790715),True
16950198,"25 Jackson Street, Maidstone, VIC 3012",144.872925,-37.785962,POINT (144.872925 -37.785962),True
16951381,"12 Crefden Street, Maidstone, VIC 3012",144.873327,-37.778575,POINT (144.873327 -37.778575),True
16955235,"Lindenow Street, Maidstone, VIC 3012",144.882505,-37.779099,POINT (144.882505 -37.779099),True
16956628,"119 Mitchell Street, Maidstone, VIC 3012",144.876682,-37.782468,POINT (144.876682 -37.782468),True
16956630,"119 Mitchell Street, Maidstone, VIC 3012",144.876682,-37.782468,POINT (144.876682 -37.782468),True
16963450,"Kanooka Drive, Maidstone, VIC 3012",144.872445,-37.776777,POINT (144.872445 -37.776777),True
16963528,"12 Crefden Street, Maidstone, VIC 3012",144.873327,-37.778575,POINT (144.873327 -37.778575),True
16967042,"Orchid St, Maidstone, VIC 3012",144.874148,-37.782381,POINT (144.874148 -37.782381),True
16967215,"Churchill Avenue, Maidstone, VIC 3012",144.865056,-37.786586,POINT (144.865056 -37.786586),True
16970458,"4 Spurling Street, Maidstone, VIC 3012",144.876281,-37.784607,POINT (144.876281 -37.784607),True
10457861,"160 Wattletree Road, Malvern, VIC 3144",145.034681,-37.863189,POINT (145.034681 -37.863189),True
15638888,"22 Hunter Street, Malvern, VIC 3144",145.035188,-37.867684,POINT (145.035188 -37.867684),True
16398071,"14a Ethel Street, Malvern, VIC 3144",145.038038,-37.848058,POINT (145.038038 -37.848058),True
16853549,"Derril Ave, Malvern, VIC 3144",145.03514,-37.862262,POINT (145.03514 -37.862262),True
16931996,"112 Wattletree Road, Malvern, VIC 3144",145.034681,-37.863189,POINT (145.034681 -37.863189),True
16933851,"59 Cawkwell Street, Malvern, VIC 3144",145.040611,-37.85395,POINT (145.040611 -37.85395),True
16934420,"64 Cawkwell Street, Malvern, VIC 3144",145.041039,-37.853669,POINT (145.041039 -37.853669),True
16944020,"Talbot Crescent, Malvern, VIC 3144",145.034939,-37.857461,POINT (145.034939 -37.857461),True
16949998,"Eva Street, Malvern, VIC 3144",145.037508,-37.856463,POINT (145.037508 -37.856463),True
16950769,"8 Gordon Grove, Malvern, VIC 3144",145.02911,-37.863719,POINT (145.02911 -37.863719),True
16957763,"70 Horace Street, Malvern, VIC 3144",145.040154,-37.858764,POINT (145.040154 -37.858764),True
16960078,"13 Dixon Street, Malvern, VIC 3144",145.037012,-37.861946,POINT (145.037012 -37.861946),True
16960208,"16 Elizabeth Street, Malvern, VIC 3144",145.036164,-37.851208,POINT (145.036164 -37.851208),True
16960718,"Jordan Street, Malvern, VIC 3144",145.038767,-37.859122,POINT (145.038767 -37.859122),True
16962324,"1331 High Street, Malvern, VIC 3144",145.039169,-37.857756,POINT (145.039169 -37.857756),True
16964818,"248 Wattletree Road, Malvern, VIC 3144",145.038087,-37.86383,POINT (145.038087 -37.86383),True
16965183,"61a Horace Street, Malvern, VIC 3144",145.039559,-37.859911,POINT (145.039559 -37.859911),True
16965799,"23a Glenferrie Road, Malvern, VIC 3144",145.027817,-37.865589,POINT (145.027817 -37.865589),True
16336242,"Ord Street St, Leonards, VIC 3223",144.708991,-38.191728,POINT (144.708991 -38.191728),True
16524983,"Hilltop Drive, Curlewis, VIC 3222",144.548176,-38.164085,POINT (144.548176 -38.164085),True
16755596,"Felix St St, Leonards, VIC 3223",144.713247,-38.171711,POINT (144.713247 -38.171711),True
16851041,"Kabiri Terrace St, Leonards, VIC 3223",144.713247,-38.171711,POINT (144.713247 -38.171711),True
16891214,"Dunoon Avenue Clifton, Springs, VIC 3222",144.575625,-38.151605,POINT (144.575625 -38.151605),True
16891256,"14 Dunoon Avenue Clifton, Springs, VIC 3222",144.575625,-38.151605,POINT (144.575625 -38.151605),True
16893544,"Jetty Road Clifton, Springs, VIC 3222",144.575625,-38.151605,POINT (144.575625 -38.151605),True
16896932,"Fenwick Street, Portarlington, VIC 3223",144.657829,-38.116809,POINT (144.657829 -38.116809),True
16897416,"56 Parrakoola Drive Clifton, Springs, VIC 3222",144.565714,-38.163342,POINT (144.565714 -38.163342),True
16900225,"Coolangatta Drive Clifton, Springs, VIC 3222",144.578822,-38.146202,POINT (144.578822 -38.146202),True
16900850,"423a The Esplanade St, Leonards, VIC 3223",144.71558,-38.157246,POINT (144.71558 -38.157246),True
16901815,"Flagstaff Drive, Portarlington, VIC 3223",144.65322,-38.123256,POINT (144.65322 -38.123256),True
16901985,"165 Newcombe Street, Portarlington, VIC 3223",144.66322,-38.116066,POINT (144.66322 -38.116066),True
16901990,"Denver Drive, Portarlington, VIC 3223",144.637529,-38.122176,POINT (144.637529 -38.122176),True
16902245,"Thornton Avenue St, Leonards, VIC 3223",144.713247,-38.171711,POINT (144.713247 -38.171711),True
16902323,"Harrington Terrace St, Leonards, VIC 3223",144.713247,-38.171711,POINT (144.713247 -38.171711),True
16902781,"Kawana Court Clifton, Springs, VIC 3222",144.556678,-38.16114,POINT (144.556678 -38.16114),True
16903431,"Countess Drive St, Leonards, VIC 3223",144.713247,-38.171711,POINT (144.713247 -38.171711),True
16904218,"80 Queenscliff Road, Portarlington, VIC 3223",144.654006,-38.12713,POINT (144.654006 -38.12713),True
16905269,"Ward Street St, Leonards, VIC 3223",144.709816,-38.177044,POINT (144.709816 -38.177044),True
7976939,"500 Flinders Street, Melbourne, VIC 3000",144.957827,-37.820019,POINT (144.957827 -37.820019),True
16912986,"394 Collins Street, Melbourne, VIC 3000",144.960737,-37.816442,POINT (144.960737 -37.816442),True
16913100,"582 St Kilda Road, Melbourne, VIC 3000",144.97982,-37.849209,POINT (144.97982 -37.849209),True
16913317,"7 Katherine Place, Melbourne, VIC 3000",144.95649,-37.82042,POINT (144.95649 -37.82042),True
16913581,"5 Sutherland Street, Melbourne, VIC 3000",144.960847,-37.811458,POINT (144.960847 -37.811458),True
16913993,"333 Exhibition Street, Melbourne, VIC 3000",144.96834,-37.807831,POINT (144.96834 -37.807831),True
16914318,"555 Flinders Street, Melbourne, VIC 3000",144.956595,-37.820854,POINT (144.956595 -37.820854),True
16914436,"1 William Street, Melbourne, VIC 3000",144.959639,-37.819396,POINT (144.959639 -37.819396),True
16914439,"115 Swanston Street, Melbourne, VIC 3000",144.966028,-37.814996,POINT (144.966028 -37.814996),True
16914819,"243 Franklin St, Melbourne, VIC 3000",144.95662,-37.80955,POINT (144.95662 -37.80955),True
16915202,"462 Elizabeth Street, Melbourne, VIC 3000",144.960511,-37.807871,POINT (144.960511 -37.807871),True
16915367,"33 Mackenzie Street, Melbourne, VIC 3000",144.966831,-37.807682,POINT (144.966831 -37.807682),True
16916292,"442 Elizabeth Street, Melbourne, VIC 3000",144.96073,-37.808345,POINT (144.96073 -37.808345),True
16916564,"101 Therry St, Melbourne, VIC 3000",144.959239,-37.807122,POINT (144.959239 -37.807122),True
16916566,"101 Therry St, Melbourne, VIC 3000",144.959239,-37.807122,POINT (144.959239 -37.807122),True
16916567,"101 Therry St, Melbourne, VIC 3000",144.959239,-37.807122,POINT (144.959239 -37.807122),True
16918363,"318 Little Lonsdale Street, Melbourne, VIC 3000",144.960332,-37.811612,POINT (144.960332 -37.811612),True
16918794,"135 A Beckett Street, Melbourne, VIC 3000",144.978682,-37.825071,POINT (144.978682 -37.825071),True
16918826,"441 Lonsdale Street, Melbourne, VIC 3000",144.959379,-37.813345,POINT (144.959379 -37.813345),True
16919079,"200 Spencer Street, Melbourne, VIC 3000",144.953168,-37.8163,POINT (144.953168 -37.8163),True
15572037,"12 Queens Road, Melbourne, VIC 3004",144.974302,-37.838789,POINT (144.974302 -37.838789),True
16942210,"74 Queens Road, Melbourne, VIC 3004",144.979224,-37.852299,POINT (144.979224 -37.852299),True
16946723,"568 St Kilda Road, Melbourne, VIC 3004",144.979023,-37.847024,POINT (144.979023 -37.847024),True
16947895,"539 St Kilda Road, Melbourne, VIC 3004",144.979414,-37.845582,POINT (144.979414 -37.845582),True
16953982,"594 Saint Kilda Road, Melbourne, VIC 3004",144.979963,-37.849604,POINT (144.979963 -37.849604),True
16956841,"9 Commercial Road, Melbourne, VIC 3004",144.979414,-37.845582,POINT (144.979414 -37.845582),True
16959839,"539 St Kilda Road, Melbourne, VIC 3004",144.979414,-37.845582,POINT (144.979414 -37.845582),True
16962476,"228 La Trobe Street, Melbourne, VIC 3004",144.96245,-37.80978,POINT (144.96245 -37.80978),True
16966214,"82 Queens Road, Melbourne, VIC 3004",144.980007,-37.854065,POINT (144.980007 -37.854065),True
16967506,"350 St Kilda Road, Melbourne, VIC 3004",144.970946,-37.83108,POINT (144.970946 -37.83108),True
16969925,"23 Queens Road, Melbourne, VIC 3004",144.97518,-37.841206,POINT (144.97518 -37.841206),True
16970820,"2 Albert Road, Melbourne, VIC 3004",144.971933,-37.834663,POINT (144.971933 -37.834663),True
16972691,"350 St Kilda Road, Melbourne, VIC 3004",144.970946,-37.83108,POINT (144.970946 -37.83108),True
16972887,"83 Queens Road, Melbourne, VIC 3004",144.980433,-37.854443,POINT (144.980433 -37.854443),True
16974807,"568 St Kilda Road, Melbourne, VIC 3004",144.979023,-37.847024,POINT (144.979023 -37.847024),True
16977657,"55 Queens Road, Melbourne, VIC 3004",144.977604,-37.847866,POINT (144.977604 -37.847866),True
16977704,"610 St Kilda Road, Melbourne, VIC 3004",144.980815,-37.851937,POINT (144.980815 -37.851937),True
16978469,"594 St Kilda Road, Melbourne, VIC 3004",144.979963,-37.849604,POINT (144.979963 -37.849604),True
16979245,"572 St Kilda Rd, Melbourne, VIC 3004",144.979237,-37.847612,POINT (144.979237 -37.847612),True
13151520,"Bridgewater Ave, Kialla, VIC 3631",145.402927,-36.433973,POINT (145.402927 -36.433973),True
14539972,"Kialla Lakes Dr, Kialla, VIC 3631",145.392471,-36.413736,POINT (145.392471 -36.413736),True
15229271,"14b Reserve St, Kialla, VIC 3631",145.390526,-36.41882,POINT (145.390526 -36.41882),True
15246444,"Lapwing Street, Kialla, VIC 3631",145.385974,-36.42564,POINT (145.385974 -36.42564),True
16516009,"Sanctuary Drive, Kialla, VIC 3631",145.40712,-36.431674,POINT (145.40712 -36.431674),True
16927783,"Binney Street, Euroa, VIC 3666",145.570041,-36.750021,POINT (145.570041 -36.750021),True
16934880,"Nelson Street, Euroa, VIC 3666",145.567457,-36.751763,POINT (145.567457 -36.751763),True
16943261,"17 Buckworth St, Kialla, VIC 3631",145.391485,-36.410731,POINT (145.391485 -36.410731),True
16950679,"Railway Street, Euroa, VIC 3666",145.571417,-36.747039,POINT (145.571417 -36.747039),True
