property_id,address,longitude,latitude,coordinates,geocode_success
16041844,"14 Michelsen Street, Bendigo, VIC 3550",144.27957,-36.757608,POINT (144.27957 -36.757608),True
16043434,"Withers Street, Huntly, VIC 3551",144.311397,-36.652837,POINT (144.311397 -36.652837),True
16043773,"1 Cliff Avenue, Strathdale, VIC 3550",144.310027,-36.755704,POINT (144.310027 -36.755704),True
16044307,"Clydebank Court, Strathfieldsaye, VIC 3551",144.3557,-36.810002,POINT (144.3557 -36.810002),True
16044710,"23 Smith Street North, Bendigo, VIC 3550",144.281745,-36.744556,POINT (144.281745 -36.744556),True
16045307,"Station Street, Epsom, VIC 3551",144.322669,-36.696377,POINT (144.322669 -36.696377),True
16046044,"Cloverfields Cres, Epsom, VIC 3551",144.320627,-36.699698,POINT (144.320627 -36.699698),True
16046289,"25a Havlin Street, Bendigo, VIC 3550",144.29026,-36.76075,POINT (144.29026 -36.76075),True
16046363,"Weatherall St California, Gully, VIC 3556",144.260218,-36.734435,POINT (144.260218 -36.734435),True
16046395,"18a Lobb St North, Bendigo, VIC 3550",144.280278,-36.742126,POINT (144.280278 -36.742126),True
11667791,"1 Grant Street Malvern, East, VIC 3145",145.050219,-37.870899,POINT (145.050219 -37.870899),True
14568616,"Cairnes Crescent Malvern, East, VIC 3145",145.064371,-37.872357,POINT (145.064371 -37.872357),True
14612861,"1810 Malvern Road Malvern, East, VIC 3145",145.060049,-37.868893,POINT (145.060049 -37.868893),True
15749951,"Argyll Street Malvern, East, VIC 3145",145.085444,-37.875017,POINT (145.085444 -37.875017),True
15902441,"Dandenong Road Malvern, East, VIC 3145",145.062902,-37.884489,POINT (145.062902 -37.884489),True
15984100,"Emo Road Malvern, East, VIC 3145",145.051667,-37.877637,POINT (145.051667 -37.877637),True
15987238,"65 Paxton St Malvern, East, VIC 3145",145.05692,-37.870953,POINT (145.05692 -37.870953),True
15988264,"52 Tennyson Street Malvern, East, VIC 3145",145.051396,-37.872513,POINT (145.051396 -37.872513),True
15993185,"Tennyson Street Malvern, East, VIC 3145",145.050705,-37.875241,POINT (145.050705 -37.875241),True
15999086,"Wattletree Road Malvern, East, VIC 3145",145.05727,-37.874914,POINT (145.05727 -37.874914),True
16000175,"Karma Avenue Malvern, East, VIC 3145",145.065139,-37.881304,POINT (145.065139 -37.881304),True
16017395,"92 Waverley Road Malvern, East, VIC 3145",145.047481,-37.876055,POINT (145.047481 -37.876055),True
16018686,"881 Dandenong Road Malvern, East, VIC 3145",145.042111,-37.875075,POINT (145.042111 -37.875075),True
16020012,"606 Waverley Road Malvern, East, VIC 3145",145.079165,-37.87866,POINT (145.079165 -37.87866),True
16024885,"Malvern Road Malvern, East, VIC 3145",145.063578,-37.872968,POINT (145.063578 -37.872968),True
16025660,"36 Burke Rd Malvern, East, VIC 3145",145.048541,-37.875145,POINT (145.048541 -37.875145),True
16026425,"Vickery Street Malvern, East, VIC 3145",145.049721,-37.874101,POINT (145.049721 -37.874101),True
16027691,"74 Paxton Street Malvern, East, VIC 3145",145.057272,-37.871285,POINT (145.057272 -37.871285),True
16029163,"Brunel St Malvern, East, VIC 3145",145.055009,-37.869951,POINT (145.055009 -37.869951),True
16032542,"1d Wilmot Street Malvern, East, VIC 3145",145.052813,-37.882784,POINT (145.052813 -37.882784),True
13671355,"300 Swanston Street, Melbourne, VIC 3000",144.96458,-37.810609,POINT (144.96458 -37.810609),True
14868152,"33 Wills Street, Melbourne, VIC 3000",144.956909,-37.810778,POINT (144.956909 -37.810778),True
16036247,"500 Elizabeth Street, Melbourne, VIC 3000",144.96022,-37.807236,POINT (144.96022 -37.807236),True
16049128,"5 Sutherland Street, Melbourne, VIC 3000",144.960847,-37.811458,POINT (144.960847 -37.811458),True
16063063,"8 Sutherland Street, Melbourne, VIC 3000",144.961017,-37.811408,POINT (144.961017 -37.811408),True
16067459,"220 Spencer Street, Melbourne, VIC 3000",144.953074,-37.815584,POINT (144.953074 -37.815584),True
16067649,"81 Queens Road, Melbourne, VIC 3004",144.979797,-37.853796,POINT (144.979797 -37.853796),True
16068286,"250 St Kilda Road, Melbourne, VIC 3004",144.97982,-37.849209,POINT (144.97982 -37.849209),True
16069309,"200 Spencer St, Melbourne, VIC 3000",144.953168,-37.8163,POINT (144.953168 -37.8163),True
16071284,"499 St Kilda Road, Melbourne, VIC 3004",144.978621,-37.843426,POINT (144.978621 -37.843426),True
16071337,"9 Commercial Road, Melbourne, VIC 3004",144.979414,-37.845582,POINT (144.979414 -37.845582),True
16071670,"220 Spencer Street, Melbourne, VIC 3000",144.953074,-37.815584,POINT (144.953074 -37.815584),True
16071806,"9 Bligh Place, Melbourne, VIC 3000",144.96371,-37.817317,POINT (144.96371 -37.817317),True
16071839,"408 Lonsdale Street, Melbourne, VIC 3000",144.960402,-37.812598,POINT (144.960402 -37.812598),True
16072122,"27 Flinders Lane, Melbourne, VIC 3000",144.973365,-37.814732,POINT (144.973365 -37.814732),True
16072582,"380 Little Lonsdale Street, Melbourne, VIC 3000",144.958177,-37.81222,POINT (144.958177 -37.81222),True
16073449,"481 St Kilda Road, Melbourne, VIC 3004",144.97818,-37.842278,POINT (144.97818 -37.842278),True
16073870,"200 Spencer Street, Melbourne, VIC 3000",144.953168,-37.8163,POINT (144.953168 -37.8163),True
16073890,"368 St Kilda Road, Melbourne, VIC 3000",144.971114,-37.831815,POINT (144.971114 -37.831815),True
16074279,"11 Rose Lane, Melbourne, VIC 3000",144.954081,-37.815452,POINT (144.954081 -37.815452),True
16074877,"15 Queens Road, Melbourne, VIC 3004",144.974497,-37.839323,POINT (144.974497 -37.839323),True
14868147,"489 St Kilda Road, Melbourne, VIC 3004",144.97833,-37.842626,POINT (144.97833 -37.842626),True
14918269,"572 St Kilda Road, Melbourne, VIC 3004",144.979237,-37.847612,POINT (144.979237 -37.847612),True
15977153,"469 St Kilda Road, Melbourne, VIC 3004",144.977905,-37.841458,POINT (144.977905 -37.841458),True
15987830,"35 Albert Road, Melbourne, VIC 3004",144.971933,-37.834663,POINT (144.971933 -37.834663),True
15990663,"368 St Kilda Road, Melbourne, VIC 3004",144.971114,-37.831815,POINT (144.971114 -37.831815),True
15991633,"572 St Kilda Road, Melbourne, VIC 3004",144.979237,-37.847612,POINT (144.979237 -37.847612),True
15999162,"77 Queens Road, Melbourne, VIC 3004",144.979412,-37.852817,POINT (144.979412 -37.852817),True
16010509,"1 Albert Road, Melbourne, VIC 3004",144.972794,-37.833958,POINT (144.972794 -37.833958),True
16012349,"505 St Kilda Road, Melbourne, VIC 3004",144.978756,-37.843799,POINT (144.978756 -37.843799),True
16015388,"582 St Kilda Road, Melbourne, VIC 3004",144.97982,-37.849209,POINT (144.97982 -37.849209),True
16016862,"1 Albert Road, Melbourne, VIC 3004",144.972794,-37.833958,POINT (144.972794 -37.833958),True
16020842,"635 St Kilda Rd, Melbourne, VIC 3004",144.97553,-37.836613,POINT (144.97553 -37.836613),True
16022749,"598 St Kilda Road, Melbourne, VIC 3004",144.98011,-37.850066,POINT (144.98011 -37.850066),True
16022921,"539 St Kilda Road, Melbourne, VIC 3004",144.979414,-37.845582,POINT (144.979414 -37.845582),True
16026394,"8 Bowen Crescent, Melbourne, VIC 3004",144.972487,-37.83547,POINT (144.972487 -37.83547),True
16028023,"Arnold Street, Melbourne, VIC 3004",144.978682,-37.825071,POINT (144.978682 -37.825071),True
16030421,"485 St Kilda Road, Melbourne, VIC 3004",144.97833,-37.842626,POINT (144.97833 -37.842626),True
16031358,"405 St Kilda Road, Melbourne, VIC 3004",144.970946,-37.83108,POINT (144.970946 -37.83108),True
16032045,"8 Bowen Crescent, Melbourne, VIC 3004",144.972487,-37.83547,POINT (144.972487 -37.83547),True
16033913,"12 Queens Road, Melbourne, VIC 3004",144.974302,-37.838789,POINT (144.974302 -37.838789),True
14881002,"Melrose Street Mont Albert, North, VIC 3129",145.112584,-37.810913,POINT (145.112584 -37.810913),True
15132854,"9 Strabane Avenue Mont Albert, North, VIC 3129",145.114197,-37.807675,POINT (145.114197 -37.807675),True
15727062,"3 Inglisby Road Mont Albert, North, VIC 3129",145.11106,-37.803536,POINT (145.11106 -37.803536),True
15838637,"56 Belgravia Avenue Mont Albert, North, VIC 3129",145.106974,-37.796884,POINT (145.106974 -37.796884),True
15882758,"406 Belmore Road Mont Albert, North, VIC 3129",145.108712,-37.801717,POINT (145.108712 -37.801717),True
15974016,"Elgar Road Mont Albert, North, VIC 3129",145.118346,-37.798687,POINT (145.118346 -37.798687),True
15998116,"42 Strabane Avenue Mont Albert, North, VIC 3129",145.11114,-37.806443,POINT (145.11114 -37.806443),True
15999011,"410 Belmore Road Mont Albert, North, VIC 3129",145.109174,-37.801698,POINT (145.109174 -37.801698),True
16000602,"Williamson Road Mont Albert, North, VIC 3129",145.110295,-37.799052,POINT (145.110295 -37.799052),True
16017517,"495 Elgar Road Mont Albert, North, VIC 3129",145.115295,-37.812214,POINT (145.115295 -37.812214),True
16018552,"Kenmare Street Mont Albert, North, VIC 3129",145.104551,-37.81099,POINT (145.104551 -37.81099),True
16028833,"6 Arnott Street Mont Albert, North, VIC 3129",145.111163,-37.80317,POINT (145.111163 -37.80317),True
16042909,"94 Relowe Crescent Mont Albert, North, VIC 3129",145.110275,-37.802106,POINT (145.110275 -37.802106),True
16042977,"Lincoln Avenue Mont Albert, North, VIC 3129",145.110599,-37.796252,POINT (145.110599 -37.796252),True
16044326,"1072 Whitehorse Road Box, Hill, VIC 3128",145.13072,-37.81925,POINT (145.13072 -37.81925),True
16046223,"Marilyn Street, Doncaster, VIC 3108",145.105871,-37.774939,POINT (145.105871 -37.774939),True
16046501,"Strabane Ave Mont Albert, North, VIC 3129",145.104075,-37.806933,POINT (145.104075 -37.806933),True
16048651,"31 Guildford Road Surrey, Hills, VIC 3127",145.089834,-37.82164,POINT (145.089834 -37.82164),True
15673025,"2 Genoa Street, Moorabbin, VIC 3189",145.055214,-37.942925,POINT (145.055214 -37.942925),True
15782047,"Marrbridge Road, Moorabbin, VIC 3189",145.059524,-37.9397,POINT (145.059524 -37.9397),True
15921899,"1057b Nepean Highway, Moorabbin, VIC 3189",145.041077,-37.941426,POINT (145.041077 -37.941426),True
15946423,"146 Rowans Road, Moorabbin, VIC 3189",145.05514,-37.939282,POINT (145.05514 -37.939282),True
15978570,"1 Franklin St, Moorabbin, VIC 3189",145.05325,-37.939979,POINT (145.05325 -37.939979),True
15998062,"42 Clay Street, Moorabbin, VIC 3189",145.046608,-37.936246,POINT (145.046608 -37.936246),True
16001400,"121 Chapel Road, Moorabbin, VIC 3189",145.048911,-37.935286,POINT (145.048911 -37.935286),True
16010832,"15b Rosebud Avenue, Moorabbin, VIC 3189",145.049895,-37.940193,POINT (145.049895 -37.940193),True
16011307,"11 Central Avenue, Moorabbin, VIC 3189",145.037771,-37.934851,POINT (145.037771 -37.934851),True
16032863,"20a Horsmunden Road, Moorabbin, VIC 3189",145.047286,-37.939905,POINT (145.047286 -37.939905),True
16033303,"Rica Street, Moorabbin, VIC 3189",145.055922,-37.941218,POINT (145.055922 -37.941218),True
16034233,"17 Central Ave, Moorabbin, VIC 3189",145.03963,-37.935073,POINT (145.03963 -37.935073),True
16036615,"Harlow Court, Moorabbin, VIC 3189",145.049216,-37.945031,POINT (145.049216 -37.945031),True
16038267,"16a Baker Street, Moorabbin, VIC 3189",145.048701,-37.935844,POINT (145.048701 -37.935844),True
16038652,"88 Chapel Rd, Moorabbin, VIC 3189",145.048789,-37.937679,POINT (145.048789 -37.937679),True
16039051,"Isabella Street, Moorabbin, VIC 3189",145.05105,-37.942871,POINT (145.05105 -37.942871),True
16039600,"Central Ave, Moorabbin, VIC 3189",145.03873,-37.935109,POINT (145.03873 -37.935109),True
16044056,"25 Genoa St, Moorabbin, VIC 3189",145.058666,-37.942871,POINT (145.058666 -37.942871),True
9645230,"Ardent Court, Hastings, VIC 3915",145.175591,-38.29557,POINT (145.175591 -38.29557),True
15912517,"Pleasant View Court Mount, Martha, VIC 3934",145.003369,-38.271883,POINT (145.003369 -38.271883),True
15939670,"Ailsa Street Mount, Martha, VIC 3934",145.022185,-38.269668,POINT (145.022185 -38.269668),True
15940703,"Dominion Road Mount, Martha, VIC 3934",145.011456,-38.268868,POINT (145.011456 -38.268868),True
15957808,"Forest Dr Mount, Martha, VIC 3934",145.002296,-38.298826,POINT (145.002296 -38.298826),True
15991030,"19 Seaview Avenue, Mornington, VIC 3931",145.042728,-38.233993,POINT (145.042728 -38.233993),True
15998249,"Moore Street Mount, Martha, VIC 3934",145.019621,-38.269058,POINT (145.019621 -38.269058),True
16011987,"10a Franklin Place, Mornington, VIC 3931",145.039858,-38.216907,POINT (145.039858 -38.216907),True
16020013,"b30 Berth Martha Cove Marina Safety, Beach, VIC 3936",145.008537,-38.306306,POINT (145.008537 -38.306306),True
16025994,"Palmerston Avenue, Dromana, VIC 3936",144.972925,-38.337137,POINT (144.972925 -38.337137),True
16026721,"Summerfield Drive, Mornington, VIC 3931",145.065831,-38.248015,POINT (145.065831 -38.248015),True
16027848,"Richardson Drive, Mornington, VIC 3931",145.053937,-38.229987,POINT (145.053937 -38.229987),True
16028596,"Iris Street, Dromana, VIC 3936",144.975863,-38.342647,POINT (144.975863 -38.342647),True
16030697,"Bayview Rd, Mornington, VIC 3931",145.041978,-38.23487,POINT (145.041978 -38.23487),True
16030723,"Melaleuca Road Mount, Martha, VIC 3934",145.039066,-38.249208,POINT (145.039066 -38.249208),True
16031317,"13a Alameda Avenue, Mornington, VIC 3931",145.039412,-38.235763,POINT (145.039412 -38.235763),True
16031961,"11 Hodgins Road, Hastings, VIC 3915",145.188855,-38.300114,POINT (145.188855 -38.300114),True
16032591,"27a Mitchell St, Mornington, VIC 3931",145.035763,-38.234174,POINT (145.035763 -38.234174),True
13320922,"Ferdinand Street, Nunawading, VIC 3131",145.184796,-37.803787,POINT (145.184796 -37.803787),True
14361954,"31 Mcculloch St, Nunawading, VIC 3131",145.180482,-37.814747,POINT (145.180482 -37.814747),True
14880655,"Betula Avenue, Nunawading, VIC 3131",145.176287,-37.817359,POINT (145.176287 -37.817359),True
15097709,"46 Lorikeet Street, Nunawading, VIC 3131",145.185469,-37.828162,POINT (145.185469 -37.828162),True
15898343,"94 Mount Pleasant Rd, Nunawading, VIC 3131",145.179724,-37.82933,POINT (145.179724 -37.82933),True
15968426,"17 Mount Peasant Rd, Nunawading, VIC 3131",145.176287,-37.817359,POINT (145.176287 -37.817359),True
15978483,"Nott Street, Nunawading, VIC 3131",145.185781,-37.82878,POINT (145.185781 -37.82878),True
15990537,"81 Springvale Road, Nunawading, VIC 3131",145.177045,-37.813902,POINT (145.177045 -37.813902),True
15990752,"46 Lorikeet Street, Nunawading, VIC 3131",145.185469,-37.828162,POINT (145.185469 -37.828162),True
15995643,"25 Koroit Street, Nunawading, VIC 3131",145.169599,-37.81694,POINT (145.169599 -37.81694),True
16000679,"11 Haros Avenue, Nunawading, VIC 3131",145.176363,-37.826374,POINT (145.176363 -37.826374),True
16013480,"18 Worrell Street, Nunawading, VIC 3131",145.180018,-37.805413,POINT (145.180018 -37.805413),True
16016464,"Springfield Road, Nunawading, VIC 3131",145.176287,-37.817359,POINT (145.176287 -37.817359),True
16016900,"Springvale Road, Nunawading, VIC 3131",145.177258,-37.809521,POINT (145.177258 -37.809521),True
16017988,"18 O Shannessy Street, Nunawading, VIC 3131",145.176287,-37.817359,POINT (145.176287 -37.817359),True
16022671,"Abelia Street, Nunawading, VIC 3131",145.181838,-37.831291,POINT (145.181838 -37.831291),True
16023612,"3 Luckie Street, Nunawading, VIC 3131",145.175336,-37.815922,POINT (145.175336 -37.815922),True
16030598,"Luke Avenue, Blackburn, VIC 3130",145.165557,-37.815967,POINT (145.165557 -37.815967),True
16031340,"Brazeel Street Blackburn, South, VIC 3130",145.154377,-37.838482,POINT (145.154377 -37.838482),True
16034947,"300 Springfield Road, Nunawading, VIC 3131",145.173706,-37.813009,POINT (145.173706 -37.813009),True
8233991,"85 Park Drive, Parkville, VIC 3052",144.954252,-37.795634,POINT (144.954252 -37.795634),True
13814750,"91 Galada, Parkville, VIC 3052",144.939152,-37.778836,POINT (144.939152 -37.778836),True
14983269,"96 Flemington Road, Parkville, VIC 3052",144.941773,-37.788613,POINT (144.941773 -37.788613),True
15211194,"91 Galada Avenue, Parkville, VIC 3052",144.939152,-37.778836,POINT (144.939152 -37.778836),True
15546900,"91 Galada Avenue, Parkville, VIC 3052",144.939152,-37.778836,POINT (144.939152 -37.778836),True
15853526,"283 Royal Parade, Parkville, VIC 3052",144.958684,-37.786844,POINT (144.958684 -37.786844),True
15912140,"14 Yates Lane, Parkville, VIC 3052",144.941554,-37.786295,POINT (144.941554 -37.786295),True
15980240,"517 Royal Parade, Parkville, VIC 3052",144.959499,-37.780333,POINT (144.959499 -37.780333),True
15982108,"495 Royal Parade, Parkville, VIC 3052",144.959397,-37.781143,POINT (144.959397 -37.781143),True
15992266,"51 Galada Avenue, Parkville, VIC 3052",144.939749,-37.780314,POINT (144.939749 -37.780314),True
16001502,"88 Cade Way, Parkville, VIC 3052",144.938529,-37.778005,POINT (144.938529 -37.778005),True
16002920,"90 Cade Way, Parkville, VIC 3052",144.938529,-37.778005,POINT (144.938529 -37.778005),True
16003451,"459 Royal Parade, Parkville, VIC 3052",144.959243,-37.78223,POINT (144.959243 -37.78223),True
16004473,"94 Cade Way, Parkville, VIC 3052",144.938979,-37.778358,POINT (144.938979 -37.778358),True
16029443,"88 Cade Way, Parkville, VIC 3052",144.938529,-37.778005,POINT (144.938529 -37.778005),True
16030682,"90 The Avenue, Parkville, VIC 3052",144.957158,-37.786177,POINT (144.957158 -37.786177),True
16034343,"35 Morrah Street, Parkville, VIC 3052",144.956336,-37.795833,POINT (144.956336 -37.795833),True
16039772,"94 Cade Way, Parkville, VIC 3052",144.938979,-37.778358,POINT (144.938979 -37.778358),True
16040365,"91 Galada Avenue, Parkville, VIC 3052",144.939152,-37.778836,POINT (144.939152 -37.778836),True
16042481,"91 Galada Avenue, Parkville, VIC 3052",144.939152,-37.778836,POINT (144.939152 -37.778836),True
16004477,"Bay Street Port, Melbourne, VIC 3207",144.938198,-37.843192,POINT (144.938198 -37.843192),True
16005137,"99 Nott Street Port, Melbourne, VIC 3207",144.938539,-37.840516,POINT (144.938539 -37.840516),True
16014905,"130 Bay Street Port, Melbourne, VIC 3207",144.940783,-37.84064,POINT (144.940783 -37.84064),True
16019465,"Albert Street Port, Melbourne, VIC 3207",144.93393,-37.836584,POINT (144.93393 -37.836584),True
16025808,"The Crescent Port, Melbourne, VIC 3207",144.929216,-37.839214,POINT (144.929216 -37.839214),True
16025883,"25 Pickles Street Port, Melbourne, VIC 3207",144.944488,-37.843908,POINT (144.944488 -37.843908),True
16029813,"101 Bay Street Port, Melbourne, VIC 3207",144.940025,-37.840795,POINT (144.940025 -37.840795),True
16029852,"Bridge Street Port, Melbourne, VIC 3207",144.944606,-37.837266,POINT (144.944606 -37.837266),True
16030387,"55 Johnston Street Port, Melbourne, VIC 3207",144.943451,-37.843379,POINT (144.943451 -37.843379),True
16034335,"52 Ross Street Port, Melbourne, VIC 3207",144.936269,-37.83645,POINT (144.936269 -37.83645),True
16034547,"455 Graham Street Port, Melbourne, VIC 3207",144.93583,-37.836588,POINT (144.93583 -37.836588),True
16038242,"15 Beach Street Port, Melbourne, VIC 3207",144.939816,-37.84259,POINT (144.939816 -37.84259),True
16038756,"4 Seisman Pl Port, Melbourne, VIC 3207",144.945587,-37.84137,POINT (144.945587 -37.84137),True
16039800,"Evans Street Port, Melbourne, VIC 3207",144.94278,-37.833063,POINT (144.94278 -37.833063),True
16040691,"Esplanade West Port, Melbourne, VIC 3207",144.940706,-37.843688,POINT (144.940706 -37.843688),True
16041018,"Bridge Street Port, Melbourne, VIC 3207",144.944606,-37.837266,POINT (144.944606 -37.837266),True
16041306,"52 Nott Street Port, Melbourne, VIC 3207",144.938559,-37.841023,POINT (144.938559 -37.841023),True
16041481,"2 Rouse Street Port, Melbourne, VIC 3207",144.943719,-37.844328,POINT (144.943719 -37.844328),True
16043329,"42 Princes Street Port, Melbourne, VIC 3207",144.935792,-37.840286,POINT (144.935792 -37.840286),True
16046297,"211 Esplanade West Port, Melbourne, VIC 3207",144.94382,-37.83843,POINT (144.94382 -37.83843),True
15978813,"11 Irving Avenue, Prahran, VIC 3181",145.006849,-37.858385,POINT (145.006849 -37.858385),True
15991793,"Lexton Grove, Prahran, VIC 3181",145.008039,-37.858953,POINT (145.008039 -37.858953),True
15992239,"6 Williams Road, Prahran, VIC 3181",145.001676,-37.858432,POINT (145.001676 -37.858432),True
15995682,"26 Wynnstay Road, Prahran, VIC 3181",145.010065,-37.852906,POINT (145.010065 -37.852906),True
16002786,"60a High Street, Prahran, VIC 3181",145.003368,-37.853205,POINT (145.003368 -37.853205),True
16002807,"10 Hillingdon Place, Prahran, VIC 3181",144.994344,-37.851276,POINT (144.994344 -37.851276),True
16008306,"30 Chomley Street, Prahran, VIC 3181",145.005762,-37.857372,POINT (145.005762 -37.857372),True
16008631,"Westbourne Street, Prahran, VIC 3181",145.005223,-37.849516,POINT (145.005223 -37.849516),True
16013307,"1 York Street, Prahran, VIC 3181",144.997839,-37.852005,POINT (144.997839 -37.852005),True
16014802,"Clarke Street, Prahran, VIC 3181",145.000724,-37.849158,POINT (145.000724 -37.849158),True
16015493,"Banole Avenue, Prahran, VIC 3181",145.004899,-37.854354,POINT (145.004899 -37.854354),True
16019603,"6 Percy Place, Prahran, VIC 3181",144.990824,-37.850816,POINT (144.990824 -37.850816),True
16020049,"Bendigo Street, Prahran, VIC 3181",144.997751,-37.848516,POINT (144.997751 -37.848516),True
16020680,"York Street, Prahran, VIC 3181",144.998286,-37.849973,POINT (144.998286 -37.849973),True
16022563,"York Street, Prahran, VIC 3181",144.998286,-37.849973,POINT (144.998286 -37.849973),True
16025153,"14a Aberdeen Road, Prahran, VIC 3181",145.003336,-37.852629,POINT (145.003336 -37.852629),True
16025167,"Florence Street, Prahran, VIC 3181",145.010302,-37.854934,POINT (145.010302 -37.854934),True
16025315,"242 Punt Rd, Prahran, VIC 3181",144.985371,-37.846268,POINT (144.985371 -37.846268),True
16026759,"26 Clarke Street, Prahran, VIC 3181",145.000005,-37.849194,POINT (145.000005 -37.849194),True
16026869,"34 Wynnstay Road, Prahran, VIC 3181",145.01079,-37.852999,POINT (145.01079 -37.852999),True
16028331,"Robinson Street, Prahran, VIC 3181",145.003748,-37.848861,POINT (145.003748 -37.848861),True
10178708,"Marina Berth Martha Cove Waterway Safety, Beach, VIC 3936",145.000666,-38.314306,POINT (145.000666 -38.314306),True
14993222,"27 Davies Street Safety, Beach, VIC 3936",145.000949,-38.31068,POINT (145.000949 -38.31068),True
15602577,"89 Dromana Parade Safety, Beach, VIC 3936",144.983314,-38.323993,POINT (144.983314 -38.323993),True
15749561,"Iluka Street Safety, Beach, VIC 3936",145.00039,-38.308836,POINT (145.00039 -38.308836),True
15965849,"181 Dromana Parade Safety, Beach, VIC 3936",144.98985,-38.318221,POINT (144.98985 -38.318221),True
15978612,"Helm Ave Safety, Beach, VIC 3936",145.002363,-38.305842,POINT (145.002363 -38.305842),True
16013010,"Forbes Street Safety, Beach, VIC 3936",144.981805,-38.328405,POINT (144.981805 -38.328405),True
16015024,"Rymer Avenue Safety, Beach, VIC 3936",145.001893,-38.313468,POINT (145.001893 -38.313468),True
16017184,"Lake View Drive Safety, Beach, VIC 3936",144.993353,-38.323163,POINT (144.993353 -38.323163),True
16022294,"65 Dromana Parade Safety, Beach, VIC 3936",144.981251,-38.324664,POINT (144.981251 -38.324664),True
16023473,"8 Victoria Crescent Safety, Beach, VIC 3936",144.985105,-38.325429,POINT (144.985105 -38.325429),True
16028766,"Cringle Pl Safety, Beach, VIC 3936",145.005958,-38.304067,POINT (145.005958 -38.304067),True
16034036,"Whitsunday Ct Mount, Martha, VIC 3934",145.052075,-38.249782,POINT (145.052075 -38.249782),True
16035967,"Olivia Way, Hastings, VIC 3915",145.172273,-38.310612,POINT (145.172273 -38.310612),True
16036435,"Helm Avenue Safety, Beach, VIC 3936",145.002363,-38.305842,POINT (145.002363 -38.305842),True
12903332,"221 Main Road East St, Albans, VIC 3021",144.815967,-37.74636,POINT (144.815967 -37.74636),True
13331592,"Atheldene Drive St, Albans, VIC 3021",144.788497,-37.731188,POINT (144.788497 -37.731188),True
14188438,"Mcarthur Avenue St, Albans, VIC 3021",144.811709,-37.741874,POINT (144.811709 -37.741874),True
15992517,"Theodore Street St, Albans, VIC 3021",144.800277,-37.730034,POINT (144.800277 -37.730034),True
16004954,"16 Wilpena Court St, Albans, VIC 3021",144.827116,-37.748157,POINT (144.827116 -37.748157),True
16012152,"Vule Street St, Albans, VIC 3021",144.790222,-37.745671,POINT (144.790222 -37.745671),True
16012703,"4 Adelaide Street St, Albans, VIC 3021",144.795284,-37.741362,POINT (144.795284 -37.741362),True
16020113,"45 George Street St, Albans, VIC 3021",144.804675,-37.731936,POINT (144.804675 -37.731936),True
16023474,"55 Ivanhoe Street St, Albans, VIC 3021",144.8071,-37.743656,POINT (144.8071 -37.743656),True
16027386,"Lois Street St, Albans, VIC 3021",144.811615,-37.732604,POINT (144.811615 -37.732604),True
16030198,"149 St Albans Road St, Albans, VIC 3021",144.810927,-37.758506,POINT (144.810927 -37.758506),True
16031886,"St Albans Road St, Albans, VIC 3021",144.803302,-37.748686,POINT (144.803302 -37.748686),True
16033802,"Scott Avenue St, Albans, VIC 3021",144.794803,-37.745565,POINT (144.794803 -37.745565),True
16038155,"55 Ivanhoe Avenue St, Albans, VIC 3021",144.813613,-37.741427,POINT (144.813613 -37.741427),True
16038540,"Blendon Avenue St, Albans, VIC 3021",144.820426,-37.739279,POINT (144.820426 -37.739279),True
16039848,"Albert Crescent St, Albans, VIC 3021",144.795971,-37.742517,POINT (144.795971 -37.742517),True
16039871,"56 Andrew Road St, Albans, VIC 3021",144.783193,-37.735089,POINT (144.783193 -37.735089),True
16040628,"2 Lee Street St, Albans, VIC 3021",144.781335,-37.739377,POINT (144.781335 -37.739377),True
16042044,"Alfrieda Street St, Albans, VIC 3021",144.801097,-37.740662,POINT (144.801097 -37.740662),True
16042635,"Luxford Street St, Albans, VIC 3021",144.813331,-37.73556,POINT (144.813331 -37.73556),True
15948483,"3 Hickory Lane, Creswick, VIC 3363",143.894317,-37.444697,POINT (143.894317 -37.444697),True
15949793,"12a Reed Street, Creswick, VIC 3363",143.887012,-37.42557,POINT (143.887012 -37.42557),True
15959661,"Delaney Drive Miners, Rest, VIC 3352",143.809909,-37.506115,POINT (143.809909 -37.506115),True
16018360,"Antionette Drive, Bonshaw, VIC 3352",143.813312,-37.603313,POINT (143.813312 -37.603313),True
16029212,"Antoinette Ave, Bonshaw, VIC 3352",143.82159,-37.596871,POINT (143.82159 -37.596871),True
16030170,"Jory Street, Creswick, VIC 3363",143.886373,-37.411832,POINT (143.886373 -37.411832),True
16033744,"Dante Crescent, Bonshaw, VIC 3352",143.813312,-37.603313,POINT (143.813312 -37.603313),True
16036243,"Pasco Street, Creswick, VIC 3363",143.886811,-37.40576,POINT (143.886811 -37.40576),True
16042993,"Church Street, Creswick, VIC 3363",143.890962,-37.428291,POINT (143.890962 -37.428291),True
16043514,"Ava Place, Bonshaw, VIC 3352",143.821289,-37.603949,POINT (143.821289 -37.603949),True
16045176,"Barleysheaf Drive Miners, Rest, VIC 3352",143.80107,-37.4808,POINT (143.80107 -37.4808),True
16046314,"Caddy Drive, Creswick, VIC 3363",143.893305,-37.435396,POINT (143.893305 -37.435396),True
16046362,"Berrigan Drive, Bonshaw, VIC 3352",143.823104,-37.595451,POINT (143.823104 -37.595451),True
15208134,"High Street, Kyneton, VIC 3444",144.47022,-37.259363,POINT (144.47022 -37.259363),True
15243719,"31 Baynton Street, Kyneton, VIC 3444",144.449053,-37.24895,POINT (144.449053 -37.24895),True
15942018,"Patterson Drive, Kyneton, VIC 3444",144.470459,-37.250661,POINT (144.470459 -37.250661),True
15995740,"Welsh Street, Kyneton, VIC 3444",144.454698,-37.250716,POINT (144.454698 -37.250716),True
15996086,"14 Welsh Street, Kyneton, VIC 3444",144.454956,-37.250877,POINT (144.454956 -37.250877),True
16001028,"Chisel Avenue, Kyneton, VIC 3444",144.459156,-37.261079,POINT (144.459156 -37.261079),True
16002124,"Warren Street, Kyneton, VIC 3444",144.465374,-37.250689,POINT (144.465374 -37.250689),True
16031957,"26a Piper Street, Kyneton, VIC 3444",144.45106,-37.244245,POINT (144.45106 -37.244245),True
16038691,"Bourke Street, Kyneton, VIC 3444",144.464825,-37.254526,POINT (144.464825 -37.254526),True
16046388,"Yaldwyn St East, Kyneton, VIC 3444",144.45626,-37.246089,POINT (144.45626 -37.246089),True
16047990,"80 Beauchamp Street, Kyneton, VIC 3444",144.450739,-37.241457,POINT (144.450739 -37.241457),True
13740759,"647 Canterbury Road, Vermont, VIC 3133",145.212182,-37.831924,POINT (145.212182 -37.831924),True
14012011,"Aubrey Street, Vermont, VIC 3133",145.207727,-37.834924,POINT (145.207727 -37.834924),True
15367459,"Jolimont Road, Vermont, VIC 3133",145.198967,-37.838232,POINT (145.198967 -37.838232),True
15791304,"Short Street, Vermont, VIC 3133",145.190296,-37.835821,POINT (145.190296 -37.835821),True
15909923,"24 Bond Street, Ringwood, VIC 3134",145.224374,-37.813529,POINT (145.224374 -37.813529),True
15964934,"Betula Avenue, Vermont, VIC 3133",145.184827,-37.831965,POINT (145.184827 -37.831965),True
15988930,"13 Frank Street, Vermont, VIC 3133",145.207905,-37.835677,POINT (145.207905 -37.835677),True
15996259,"Jolimont Rd, Vermont, VIC 3133",145.198967,-37.838232,POINT (145.198967 -37.838232),True
15998394,"19 Colombo Street, Mitcham, VIC 3132",145.192138,-37.817644,POINT (145.192138 -37.817644),True
16005719,"344 Maroondah Highway, Ringwood, VIC 3134",145.217614,-37.817175,POINT (145.217614 -37.817175),True
16009646,"Culbara Drive, Vermont, VIC 3133",145.210944,-37.838591,POINT (145.210944 -37.838591),True
16018896,"Glenburnie Road, Vermont, VIC 3133",145.198967,-37.838232,POINT (145.198967 -37.838232),True
16019516,"517 Mitcham Road, Vermont, VIC 3133",145.195139,-37.831626,POINT (145.195139 -37.831626),True
16020001,"653 Canterbury Road, Vermont, VIC 3133",145.21276,-37.831905,POINT (145.21276 -37.831905),True
16024834,"Betula Avenue, Vermont, VIC 3133",145.184827,-37.831965,POINT (145.184827 -37.831965),True
16025878,"Valkyrie Crescent, Ringwood, VIC 3134",145.256187,-37.788141,POINT (145.256187 -37.788141),True
16028354,"2 Beaumont Street, Vermont, VIC 3133",145.195759,-37.836925,POINT (145.195759 -37.836925),True
16035117,"Maidstone Street, Ringwood, VIC 3134",145.224809,-37.825042,POINT (145.224809 -37.825042),True
15947666,"11b Templeton Street, Wantirna, VIC 3152",145.224879,-37.864218,POINT (145.224879 -37.864218),True
15990423,"Chichester Square, Wantirna, VIC 3152",145.230974,-37.850494,POINT (145.230974 -37.850494),True
16006067,"Ainsdale Avenue, Wantirna, VIC 3152",145.229674,-37.850436,POINT (145.229674 -37.850436),True
16008576,"Brentwood Drive, Wantirna, VIC 3152",145.238984,-37.856971,POINT (145.238984 -37.856971),True
16009370,"Nottingham Square, Wantirna, VIC 3152",145.233596,-37.857484,POINT (145.233596 -37.857484),True
16012336,"Bambara Street, Wantirna, VIC 3152",145.224144,-37.863708,POINT (145.224144 -37.863708),True
16014826,"5 Dunbarton Drive, Wantirna, VIC 3152",145.241074,-37.846048,POINT (145.241074 -37.846048),True
16014952,"Boronia Road, Wantirna, VIC 3152",145.234888,-37.84987,POINT (145.234888 -37.84987),True
16015278,"Dundee Place, Wantirna, VIC 3152",145.243795,-37.848815,POINT (145.243795 -37.848815),True
16015740,"Ainsdale Avenue, Wantirna, VIC 3152",145.229674,-37.850436,POINT (145.229674 -37.850436),True
16025107,"Hoad Court, Wantirna, VIC 3152",145.228735,-37.841256,POINT (145.228735 -37.841256),True
16027127,"741 Boronia Road, Wantirna, VIC 3152",145.22364,-37.846905,POINT (145.22364 -37.846905),True
16029976,"256 Wantirna Road, Wantirna, VIC 3152",145.227161,-37.839639,POINT (145.227161 -37.839639),True
16032101,"261 Wantirna Road, Wantirna, VIC 3152",145.227092,-37.844833,POINT (145.227092 -37.844833),True
16033709,"741 Boronia Road, Wantirna, VIC 3152",145.22364,-37.846905,POINT (145.22364 -37.846905),True
16034431,"765 Boronia Road, Wantirna, VIC 3152",145.221368,-37.84638,POINT (145.221368 -37.84638),True
16036726,"Gresford Road, Wantirna, VIC 3152",145.236312,-37.848135,POINT (145.236312 -37.848135),True
16041897,"745 Boronia Rd, Wantirna, VIC 3152",145.222454,-37.846731,POINT (145.222454 -37.846731),True
15555113,"8 White Rock Road, Warrnambool, VIC 3280",142.453169,-38.364449,POINT (142.453169 -38.364449),True
15689778,"11 Bates Road, Warrnambool, VIC 3280",142.512394,-38.387442,POINT (142.512394 -38.387442),True
15999960,"13 Clifton Street, Warrnambool, VIC 3280",142.519973,-38.38691,POINT (142.519973 -38.38691),True
16001939,"134 Merri Street, Warrnambool, VIC 3280",142.482154,-38.387531,POINT (142.482154 -38.387531),True
16003386,"38 Breton Street, Warrnambool, VIC 3280",142.498282,-38.370705,POINT (142.498282 -38.370705),True
16005758,"Kerr Street, Warrnambool, VIC 3280",142.478727,-38.37739,POINT (142.478727 -38.37739),True
16011519,"30 Hopetoun Road, Warrnambool, VIC 3280",142.47555,-38.368422,POINT (142.47555 -38.368422),True
16015348,"11 Hotham Street, Warrnambool, VIC 3280",142.490912,-38.388294,POINT (142.490912 -38.388294),True
16017487,"26 Caroville Drive, Warrnambool, VIC 3280",142.517984,-38.379649,POINT (142.517984 -38.379649),True
16022976,"69 Koroit Street, Warrnambool, VIC 3280",142.4871,-38.385427,POINT (142.4871 -38.385427),True
16028004,"Boston Drive, Warrnambool, VIC 3280",142.505686,-38.360641,POINT (142.505686 -38.360641),True
16029672,"127 Laverock Road, Warrnambool, VIC 3280",142.469909,-38.359654,POINT (142.469909 -38.359654),True
16032788,"Langley Street, Warrnambool, VIC 3280",142.45991,-38.361126,POINT (142.45991 -38.361126),True
16035371,"33 Selby Road, Warrnambool, VIC 3280",142.519649,-38.386132,POINT (142.519649 -38.386132),True
16035464,"5 King Street, Warrnambool, VIC 3280",142.480989,-38.375577,POINT (142.480989 -38.375577),True
16035701,"30 Hopetoun Road, Warrnambool, VIC 3280",142.47555,-38.368422,POINT (142.47555 -38.368422),True
16036338,"49 Cramer Street, Warrnambool, VIC 3280",142.495479,-38.376726,POINT (142.495479 -38.376726),True
16039026,"164 Skene Street, Warrnambool, VIC 3280",142.490844,-38.380884,POINT (142.490844 -38.380884),True
16039157,"Hyland Street, Warrnambool, VIC 3280",142.474892,-38.372589,POINT (142.474892 -38.372589),True
14386621,"Osmond Crescent, Wollert, VIC 3750",145.004551,-37.607914,POINT (145.004551 -37.607914),True
14989092,"Skye Walk, Wollert, VIC 3750",145.003766,-37.617748,POINT (145.003766 -37.617748),True
15005261,"Catherine Walk, Wollert, VIC 3750",145.007589,-37.613859,POINT (145.007589 -37.613859),True
15231914,"Lucindale Road, Wollert, VIC 3750",145.013149,-37.619585,POINT (145.013149 -37.619585),True
15243370,"Wigan Close, Wollert, VIC 3750",145.023738,-37.617152,POINT (145.023738 -37.617152),True
15265046,"Kobe Crescent, Wollert, VIC 3750",145.00374,-37.616443,POINT (145.00374 -37.616443),True
15904649,"Providence Avenue, Wollert, VIC 3750",144.985296,-37.598917,POINT (144.985296 -37.598917),True
15997555,"Wiseman Walk, Wollert, VIC 3750",145.01552,-37.612286,POINT (145.01552 -37.612286),True
16002952,"Allendale Avenue, Wollert, VIC 3750",145.033138,-37.613727,POINT (145.033138 -37.613727),True
16006822,"Mawbey Way, Wollert, VIC 3750",145.000929,-37.590873,POINT (145.000929 -37.590873),True
16006842,"Mawbey Way, Wollert, VIC 3750",145.000929,-37.590873,POINT (145.000929 -37.590873),True
16010646,"The Burchett, Wollert, VIC 3750",145.015905,-37.608171,POINT (145.015905 -37.608171),True
16010821,"Wimmera Crescent, Wollert, VIC 3750",145.010415,-37.608182,POINT (145.010415 -37.608182),True
16014636,"Totem Street, Wollert, VIC 3750",145.033189,-37.621331,POINT (145.033189 -37.621331),True
16018716,"Freidrich Street, Wollert, VIC 3750",145.000929,-37.590873,POINT (145.000929 -37.590873),True
16026287,"Evolve Esplanade, Wollert, VIC 3750",145.014422,-37.608326,POINT (145.014422 -37.608326),True
16027120,"Highpark Drive, Wollert, VIC 3750",145.021198,-37.61423,POINT (145.021198 -37.61423),True
16027689,"Briscola Crescent, Wollert, VIC 3750",145.000929,-37.590873,POINT (145.000929 -37.590873),True
16029455,"Poppyfield Avenue, Wollert, VIC 3750",145.001563,-37.613901,POINT (145.001563 -37.613901),True
16035901,"Allumba Way, Wollert, VIC 3750",145.020762,-37.612869,POINT (145.020762 -37.612869),True
15295354,"1 Acacia Place, Abbotsford, VIC 3067",145.013796,-37.811419,POINT (145.013796 -37.811419),True
15302378,"16 Trenerry Crescent, Abbotsford, VIC 3067",145.000185,-37.799751,POINT (145.000185 -37.799751),True
15692820,"84 Stafford Street, Abbotsford, VIC 3067",144.996631,-37.800806,POINT (144.996631 -37.800806),True
15932920,"14 Trenerry Crescent, Abbotsford, VIC 3067",145.002003,-37.799639,POINT (145.002003 -37.799639),True
15934559,"Studley Street, Abbotsford, VIC 3067",144.995133,-37.801421,POINT (144.995133 -37.801421),True
15934650,"88 Trenerry Crescent, Abbotsford, VIC 3067",144.998184,-37.79793,POINT (144.998184 -37.79793),True
15935244,"631 Victoria Street, Abbotsford, VIC 3067",145.007942,-37.811123,POINT (145.007942 -37.811123),True
15935425,"4 Acacia Place, Abbotsford, VIC 3067",145.014143,-37.811772,POINT (145.014143 -37.811772),True
15935648,"609 Victoria Street, Abbotsford, VIC 3067",145.007942,-37.811123,POINT (145.007942 -37.811123),True
15936139,"1 Acacia Place, Abbotsford, VIC 3067",145.013796,-37.811419,POINT (145.013796 -37.811419),True
15939405,"631 Victoria Street, Abbotsford, VIC 3067",145.007942,-37.811123,POINT (145.007942 -37.811123),True
15942192,"20 Shamrock Street, Abbotsford, VIC 3067",145.008213,-37.810154,POINT (145.008213 -37.810154),True
15942469,"627 Victoria Street, Abbotsford, VIC 3067",145.009655,-37.811201,POINT (145.009655 -37.811201),True
15943468,"627 Victoria Street, Abbotsford, VIC 3067",145.009655,-37.811201,POINT (145.009655 -37.811201),True
15947166,"4 Acacia Place, Abbotsford, VIC 3067",145.014143,-37.811772,POINT (145.014143 -37.811772),True
15948487,"63 William Street, Abbotsford, VIC 3067",144.997321,-37.807932,POINT (144.997321 -37.807932),True
15949196,"88 Trenerry Crescent, Abbotsford, VIC 3067",144.998184,-37.79793,POINT (144.998184 -37.79793),True
15949860,"13 Acacia Place, Abbotsford, VIC 3067",145.014143,-37.811772,POINT (145.014143 -37.811772),True
15950381,"4 Acacia Place, Abbotsford, VIC 3067",145.014143,-37.811772,POINT (145.014143 -37.811772),True
15956021,"43 Abbotsford Street, Abbotsford, VIC 3067",145.000152,-37.802065,POINT (145.000152 -37.802065),True
15803546,"9 Faussett Street Albert, Park, VIC 3206",144.955302,-37.841676,POINT (144.955302 -37.841676),True
15850223,"Draper Street Albert, Park, VIC 3206",144.96905,-37.844014,POINT (144.96905 -37.844014),True
15914080,"Reed Street Albert, Park, VIC 3206",144.946609,-37.845676,POINT (144.946609 -37.845676),True
15934715,"122 Beaconsfield Parade Albert, Park, VIC 3206",144.950892,-37.848601,POINT (144.950892 -37.848601),True
15934716,"122 Beaconsfield Parade Albert, Park, VIC 3206",144.950892,-37.848601,POINT (144.950892 -37.848601),True
15937254,"Merton Street Albert, Park, VIC 3206",144.954604,-37.843333,POINT (144.954604 -37.843333),True
15942526,"Richardson Street Albert, Park, VIC 3206",144.956499,-37.846759,POINT (144.956499 -37.846759),True
15943923,"Page Street Albert, Park, VIC 3206",144.951612,-37.846447,POINT (144.951612 -37.846447),True
15949757,"105 Merton Street Albert, Park, VIC 3206",144.955435,-37.844591,POINT (144.955435 -37.844591),True
15951887,"176a Victoria Avenue Albert, Park, VIC 3206",144.948413,-37.847164,POINT (144.948413 -37.847164),True
15952515,"122 Beaconsfield Parade Albert, Park, VIC 3206",144.950892,-37.848601,POINT (144.950892 -37.848601),True
15952518,"122 Beaconsfield Parade Albert, Park, VIC 3206",144.950892,-37.848601,POINT (144.950892 -37.848601),True
15952858,"Greig Street Albert, Park, VIC 3206",144.949834,-37.841479,POINT (144.949834 -37.841479),True
15952860,"Greig Street Albert, Park, VIC 3206",144.949834,-37.841479,POINT (144.949834 -37.841479),True
15955431,"Kerferd Place Albert, Park, VIC 3206",144.957546,-37.842142,POINT (144.957546 -37.842142),True
15956770,"Boyd Street Albert, Park, VIC 3206",144.955732,-37.847168,POINT (144.955732 -37.847168),True
15956837,"Draper Street Albert, Park, VIC 3206",144.96905,-37.844014,POINT (144.96905 -37.844014),True
15961597,"Kerferd Road Albert, Park, VIC 3206",144.954658,-37.84598,POINT (144.954658 -37.84598),True
15962807,"Graham Street Albert, Park, VIC 3206",144.94696,-37.843896,POINT (144.94696 -37.843896),True
15962817,"84 Beaconsfield Parade Albert, Park, VIC 3206",144.947874,-37.847125,POINT (144.947874 -37.847125),True
14369114,"Opal Street, Alfredton, VIC 3350",143.819151,-37.552989,POINT (143.819151 -37.552989),True
14470769,"Caligari Way, Alfredton, VIC 3350",143.792856,-37.55456,POINT (143.792856 -37.55456),True
15057611,"41 Longley Street, Alfredton, VIC 3350",143.816898,-37.559813,POINT (143.816898 -37.559813),True
15856381,"Verdale Street, Alfredton, VIC 3350",143.819151,-37.552989,POINT (143.819151 -37.552989),True
15858045,"4 Learmonth Street, Alfredton, VIC 3350",143.812666,-37.554017,POINT (143.812666 -37.554017),True
15864886,"Cuthberts Road, Alfredton, VIC 3350",143.799338,-37.553631,POINT (143.799338 -37.553631),True
15866248,"Cuzens Road, Alfredton, VIC 3350",143.788595,-37.559413,POINT (143.788595 -37.559413),True
15866971,"84 Vale Street, Alfredton, VIC 3350",143.814856,-37.561867,POINT (143.814856 -37.561867),True
15870556,"Topaz Street, Alfredton, VIC 3350",143.792182,-37.558209,POINT (143.792182 -37.558209),True
15871300,"Dublin Street, Alfredton, VIC 3350",143.819151,-37.552989,POINT (143.819151 -37.552989),True
15875783,"Walter Drive, Alfredton, VIC 3350",143.819151,-37.552989,POINT (143.819151 -37.552989),True
15883524,"Mullingar Drive, Alfredton, VIC 3350",143.819151,-37.552989,POINT (143.819151 -37.552989),True
15883682,"Munro Street, Alfredton, VIC 3350",143.814539,-37.555849,POINT (143.814539 -37.555849),True
15883829,"5 Longley Street, Alfredton, VIC 3350",143.817804,-37.556354,POINT (143.817804 -37.556354),True
15885800,"Sienna Street, Alfredton, VIC 3350",143.790048,-37.558384,POINT (143.790048 -37.558384),True
15886886,"Cavan Grove, Alfredton, VIC 3350",143.798196,-37.567398,POINT (143.798196 -37.567398),True
15890691,"Creekstone Drive, Alfredton, VIC 3350",143.788426,-37.556981,POINT (143.788426 -37.556981),True
15892190,"Belltower Avenue, Alfredton, VIC 3350",143.790033,-37.54483,POINT (143.790033 -37.54483),True
15893662,"Whitely Crescent, Alfredton, VIC 3350",143.787908,-37.551465,POINT (143.787908 -37.551465),True
15894529,"Vale Street, Alfredton, VIC 3350",143.816164,-37.554843,POINT (143.816164 -37.554843),True
13016506,"Ararat Street Altona, North, VIC 3025",144.862326,-37.838634,POINT (144.862326 -37.838634),True
14640686,"Cyclamen Avenue Altona, North, VIC 3025",144.852805,-37.828436,POINT (144.852805 -37.828436),True
15019414,"Cyclamen Avenue Altona, North, VIC 3025",144.852805,-37.828436,POINT (144.852805 -37.828436),True
15612294,"16 Mitchell Avenue Altona, North, VIC 3025",144.86139,-37.836473,POINT (144.86139 -37.836473),True
15827113,"62b Second Avenue Altona, North, VIC 3025",144.853612,-37.836867,POINT (144.853612 -37.836867),True
15889107,"85b First Avenue Altona, North, VIC 3025",144.854828,-37.833022,POINT (144.854828 -37.833022),True
15895949,"Marion Street Altona, North, VIC 3025",144.85356,-37.835425,POINT (144.85356 -37.835425),True
15902979,"Shellard Street Altona, North, VIC 3025",144.834706,-37.837835,POINT (144.834706 -37.837835),True
15903616,"Fifth Avenue Altona, North, VIC 3025",144.850692,-37.835223,POINT (144.850692 -37.835223),True
15910325,"5 Little Street Altona, North, VIC 3025",144.858405,-37.838141,POINT (144.858405 -37.838141),True
15919785,"1b Conway Court Altona, North, VIC 3025",144.846955,-37.829668,POINT (144.846955 -37.829668),True
15928107,"10a Freemans Road Altona, North, VIC 3025",144.838973,-37.82909,POINT (144.838973 -37.82909),True
15929283,"Hatherley Grove Altona, North, VIC 3025",144.850834,-37.844687,POINT (144.850834 -37.844687),True
15929617,"90 Second Avenue Altona, North, VIC 3025",144.853811,-37.836138,POINT (144.853811 -37.836138),True
15935313,"Fourth Avenue Altona, North, VIC 3025",144.850814,-37.84054,POINT (144.850814 -37.84054),True
15953249,"9 Langshaw Street Altona, North, VIC 3025",144.8476,-37.826261,POINT (144.8476 -37.826261),True
15953488,"7 Prentice Street Altona, North, VIC 3025",144.862949,-37.841812,POINT (144.862949 -37.841812),True
15958224,"Millers Road Altona, North, VIC 3025",144.845628,-37.845351,POINT (144.845628 -37.845351),True
15960750,"30 Mitchell Avenue Altona, North, VIC 3025",144.86175,-37.835616,POINT (144.86175 -37.835616),True
15960779,"47 Marion Street Altona, North, VIC 3025",144.85505,-37.835755,POINT (144.85505 -37.835755),True
15209100,"5 Beveridge Street, Ararat, VIC 3377",142.929778,-37.276613,POINT (142.929778 -37.276613),True
15385439,"Lowe Street, Ararat, VIC 3377",142.930144,-37.277252,POINT (142.930144 -37.277252),True
15819734,"48 King Street, Ararat, VIC 3377",142.937251,-37.282815,POINT (142.937251 -37.282815),True
15820194,"Grano Street, Ararat, VIC 3377",142.953986,-37.276934,POINT (142.953986 -37.276934),True
15843858,"Moore Street, Ararat, VIC 3377",142.93144,-37.284872,POINT (142.93144 -37.284872),True
15846041,"15a Barkly Street West, Ararat, VIC 3377",142.917845,-37.287408,POINT (142.917845 -37.287408),True
15852398,"Pyrenees Highway, Ararat, VIC 3377",142.931959,-37.281735,POINT (142.931959 -37.281735),True
15861423,"Queen Street, Ararat, VIC 3377",142.934152,-37.28419,POINT (142.934152 -37.28419),True
15862220,"20 Acacia Avenue, Ararat, VIC 3377",142.924493,-37.274453,POINT (142.924493 -37.274453),True
15868742,"130 Lambert Street, Ararat, VIC 3377",142.920954,-37.269328,POINT (142.920954 -37.269328),True
15871420,"355 Barkly Street, Ararat, VIC 3377",142.946095,-37.285139,POINT (142.946095 -37.285139),True
15873427,"9 Scherger Crescent, Ararat, VIC 3377",142.917026,-37.284455,POINT (142.917026 -37.284455),True
15876761,"View Point Street, Ararat, VIC 3377",142.926017,-37.284459,POINT (142.926017 -37.284459),True
15878272,"12a Wilmot Street, Ararat, VIC 3377",142.922916,-37.27882,POINT (142.922916 -37.27882),True
15878337,"Princes Street, Ararat, VIC 3377",142.938772,-37.28766,POINT (142.938772 -37.28766),True
15883623,"8d Temple Street, Ararat, VIC 3377",142.930469,-37.289577,POINT (142.930469 -37.289577),True
15884172,"Barkly Street West, Ararat, VIC 3377",142.934419,-37.284545,POINT (142.934419 -37.284545),True
15885733,"Banksia Street, Ararat, VIC 3377",142.930809,-37.285003,POINT (142.930809 -37.285003),True
15886236,"41 Princes Street, Ararat, VIC 3377",142.939194,-37.283804,POINT (142.939194 -37.283804),True
15892353,"2 Beveridge Street, Ararat, VIC 3377",142.930085,-37.276812,POINT (142.930085 -37.276812),True
15401463,"Munro Avenue, Ashburton, VIC 3147",145.075384,-37.868746,POINT (145.075384 -37.868746),True
15799670,"Chamberlain Street, Ashburton, VIC 3147",145.072361,-37.869537,POINT (145.072361 -37.869537),True
15875187,"Nicholas Street, Ashburton, VIC 3147",145.076267,-37.872263,POINT (145.076267 -37.872263),True
15895716,"Mernda Avenue, Ashburton, VIC 3147",145.080853,-37.867288,POINT (145.080853 -37.867288),True
15916869,"9 Sunderland Avenue, Ashburton, VIC 3147",145.091271,-37.86989,POINT (145.091271 -37.86989),True
15920223,"53a Warner Avenue, Ashburton, VIC 3147",145.085983,-37.870146,POINT (145.085983 -37.870146),True
15925398,"19a Welfare Parade, Ashburton, VIC 3147",145.082522,-37.860741,POINT (145.082522 -37.860741),True
15925650,"Cyril Street, Ashburton, VIC 3147",145.090613,-37.863761,POINT (145.090613 -37.863761),True
15944173,"Boyle Street, Ashburton, VIC 3147",145.07291,-37.86845,POINT (145.07291 -37.86845),True
15949571,"40 Victory Boulevard, Ashburton, VIC 3147",145.082007,-37.868321,POINT (145.082007 -37.868321),True
15950286,"81a Ashburn Grove, Ashburton, VIC 3147",145.079698,-37.870572,POINT (145.079698 -37.870572),True
15951157,"12 Tobruk Road, Ashburton, VIC 3147",145.087328,-37.866412,POINT (145.087328 -37.866412),True
15957427,"Cumming Street, Burwood, VIC 3125",145.112584,-37.85529,POINT (145.112584 -37.85529),True
15957857,"313 High Street, Ashburton, VIC 3147",145.092829,-37.864972,POINT (145.092829 -37.864972),True
15959619,"Solway Street, Ashburton, VIC 3147",145.071216,-37.873793,POINT (145.071216 -37.873793),True
15960938,"Bates Street Malvern, East, VIC 3145",145.043973,-37.873889,POINT (145.043973 -37.873889),True
15961032,"74 Finch Street Malvern, East, VIC 3145",145.043957,-37.869157,POINT (145.043957 -37.869157),True
15799179,"34 Nepean Highway, Aspendale, VIC 3195",145.091814,-38.014476,POINT (145.091814 -38.014476),True
15836728,"Bona Vista Avenue, Aspendale, VIC 3195",145.102677,-38.022243,POINT (145.102677 -38.022243),True
15841211,"Sophia Avenue, Aspendale, VIC 3195",145.099203,-38.024016,POINT (145.099203 -38.024016),True
15865085,"7 Parkview Drive, Aspendale, VIC 3195",145.100928,-38.021462,POINT (145.100928 -38.021462),True
15865496,"125 Station Street, Aspendale, VIC 3195",145.101781,-38.025924,POINT (145.101781 -38.025924),True
15902630,"35 Nepean Highway, Aspendale, VIC 3195",145.091835,-38.014534,POINT (145.091835 -38.014534),True
15918728,"75 Barkly Street, Mordialloc, VIC 3195",145.089702,-38.005112,POINT (145.089702 -38.005112),True
15933125,"34 Nepean Highway, Aspendale, VIC 3195",145.091814,-38.014476,POINT (145.091814 -38.014476),True
15934400,"Marabou Place, Aspendale, VIC 3195",145.104983,-38.027454,POINT (145.104983 -38.027454),True
15935688,"123 Mcdonald St, Mordialloc, VIC 3195",145.098614,-38.000919,POINT (145.098614 -38.000919),True
15941007,"20 Station Street, Aspendale, VIC 3195",145.093342,-38.013905,POINT (145.093342 -38.013905),True
15941219,"Gale Street, Aspendale, VIC 3195",145.09953,-38.017575,POINT (145.09953 -38.017575),True
15948193,"34 Nepean Highway, Aspendale, VIC 3195",145.091814,-38.014476,POINT (145.091814 -38.014476),True
15949381,"113 Nepean Highway, Aspendale, VIC 3195",145.100083,-38.024662,POINT (145.100083 -38.024662),True
15950363,"122 Nepean Highway, Aspendale, VIC 3195",145.100422,-38.025199,POINT (145.100422 -38.025199),True
15951900,"126 Nepean Highway, Aspendale, VIC 3195",145.100628,-38.025599,POINT (145.100628 -38.025599),True
15953231,"7 Governor Road, Mordialloc, VIC 3195",145.093436,-38.009624,POINT (145.093436 -38.009624),True
15953256,"20 Warrigal Road, Parkdale, VIC 3195",145.070352,-37.992322,POINT (145.070352 -37.992322),True
11173543,"27 Elm Grove, Balaclava, VIC 3183",144.996653,-37.875163,POINT (144.996653 -37.875163),True
13296116,"William Street, Balaclava, VIC 3183",144.994023,-37.870698,POINT (144.994023 -37.870698),True
15232931,"Alfred St, Balaclava, VIC 3183",144.992591,-37.867681,POINT (144.992591 -37.867681),True
15386833,"Alfred Street, Balaclava, VIC 3183",144.992591,-37.867681,POINT (144.992591 -37.867681),True
15643796,"Nelson Street, Balaclava, VIC 3183",144.993679,-37.866748,POINT (144.993679 -37.866748),True
15767108,"William Street, Balaclava, VIC 3183",144.994023,-37.870698,POINT (144.994023 -37.870698),True
15793599,"20 Orange Grove, Balaclava, VIC 3183",144.996637,-37.8678,POINT (144.996637 -37.8678),True
15803903,"15 Gourlay Street, Balaclava, VIC 3183",144.99551,-37.872476,POINT (144.99551 -37.872476),True
15831489,"5b The Avenue Avenue, Balaclava, VIC 3183",144.994832,-37.870129,POINT (144.994832 -37.870129),True
15840422,"56 William Street, Balaclava, VIC 3183",144.994156,-37.871668,POINT (144.994156 -37.871668),True
15841496,"40 Gourlay Street, Balaclava, VIC 3183",144.996517,-37.87229,POINT (144.996517 -37.87229),True
15851539,"307 Inkerman Street, Balaclava, VIC 3183",144.994461,-37.865931,POINT (144.994461 -37.865931),True
15866546,"52 William Street, Balaclava, VIC 3183",144.99413,-37.871371,POINT (144.99413 -37.871371),True
15866826,"45 Grosvenor Street, Balaclava, VIC 3183",144.992342,-37.872508,POINT (144.992342 -37.872508),True
15873622,"28 The Avenue, Balaclava, VIC 3183",144.996767,-37.871398,POINT (144.996767 -37.871398),True
15876920,"305 Carlisle Street, Balaclava, VIC 3183",144.998426,-37.869551,POINT (144.998426 -37.869551),True
15879409,"20 Carlisle Avenue, Balaclava, VIC 3183",144.996077,-37.870827,POINT (144.996077 -37.870827),True
15882187,"145a Hotham Street, Balaclava, VIC 3183",144.99849,-37.873247,POINT (144.99849 -37.873247),True
15884901,"Alfred St, Balaclava, VIC 3183",144.992591,-37.867681,POINT (144.992591 -37.867681),True
15886509,"Bowen Street, Balaclava, VIC 3183",144.990853,-37.871541,POINT (144.990853 -37.871541),True
13605923,"Howe Street Miners, Rest, VIC 3352",143.805899,-37.502464,POINT (143.805899 -37.502464),True
15825803,"Dante Crescent, Bonshaw, VIC 3352",143.813312,-37.603313,POINT (143.813312 -37.603313),True
15860409,"Dahlia Street, Bonshaw, VIC 3352",143.820183,-37.596258,POINT (143.820183 -37.596258),True
15868697,"Lowry Crescent Miners, Rest, VIC 3352",143.808824,-37.504233,POINT (143.808824 -37.504233),True
15875404,"Pettett Close Miners, Rest, VIC 3352",143.804569,-37.495534,POINT (143.804569 -37.495534),True
14203388,"414 Norman Street Ballarat, North, VIC 3350",143.865819,-37.537036,POINT (143.865819 -37.537036),True
14767853,"O Shannassy Parade, Lucas, VIC 3350",143.480452,-37.014348,POINT (143.480452 -37.014348),True
15919873,"1120 Havelock Street Ballarat, North, VIC 3350",143.868316,-37.538214,POINT (143.868316 -37.538214),True
15930493,"Pages Court Mount, Clear, VIC 3350",143.869307,-37.598153,POINT (143.869307 -37.598153),True
15936389,"Ripon Street Ballarat, Central, VIC 3350",143.841397,-37.560048,POINT (143.841397 -37.560048),True
15946861,"Ligar Street Ballarat, North, VIC 3350",143.86412,-37.541979,POINT (143.86412 -37.541979),True
15946863,"402 Norman Street Ballarat, North, VIC 3350",143.867111,-37.537191,POINT (143.867111 -37.537191),True
15947789,"Estrella Avenue, Bonshaw, VIC 3352",143.813312,-37.603313,POINT (143.813312 -37.603313),True
15964870,"905 Lydiard Street North Street Ballarat, North, VIC 3350",143.870166,-37.539639,POINT (143.870166 -37.539639),True
15964910,"Margaret Avenue Ballarat, North, VIC 3350",143.875447,-37.542597,POINT (143.875447 -37.542597),True
15966891,"Drummond Street South Ballarat, Central, VIC 3350",143.847238,-37.561867,POINT (143.847238 -37.561867),True
15967617,"Christine Avenue, Alfredton, VIC 3350",143.801938,-37.551366,POINT (143.801938 -37.551366),True
15967620,"5 Penfold Close, Canadian, VIC 3350",143.87617,-37.591245,POINT (143.87617 -37.591245),True
15967657,"Mimosa Avenue, Alfredton, VIC 3350",143.803666,-37.551418,POINT (143.803666 -37.551418),True
15968071,"Eyre Street Ballarat, Central, VIC 3350",143.85041,-37.565463,POINT (143.85041 -37.565463),True
15968224,"Monash Place, Canadian, VIC 3350",143.867726,-37.591505,POINT (143.867726 -37.591505),True
15968265,"Talbot Street South Ballarat, Central, VIC 3350",143.842705,-37.561403,POINT (143.842705 -37.561403),True
15968386,"Kent Street Ballarat, Central, VIC 3350",143.839617,-37.563148,POINT (143.839617 -37.563148),True
15115940,"10 King Street, Balwyn, VIC 3103",145.065839,-37.806253,POINT (145.065839 -37.806253),True
15189539,"362 Belmore Road, Balwyn, VIC 3103",145.103941,-37.802697,POINT (145.103941 -37.802697),True
15297633,"7 Caravan Street, Balwyn, VIC 3103",145.096838,-37.805591,POINT (145.096838 -37.805591),True
15855342,"62 Metung Street, Balwyn, VIC 3103",145.071215,-37.803033,POINT (145.071215 -37.803033),True
15887325,"52 Maud Street, Balwyn, VIC 3103",145.081537,-37.810875,POINT (145.081537 -37.810875),True
15896708,"Yerrin Street, Balwyn, VIC 3103",145.085264,-37.807042,POINT (145.085264 -37.807042),True
15906954,"4 Raynes Street, Balwyn, VIC 3103",145.087768,-37.806267,POINT (145.087768 -37.806267),True
15908221,"188 Whitehorse Road, Balwyn, VIC 3103",145.075864,-37.812351,POINT (145.075864 -37.812351),True
15911958,"Nott Street, Balwyn, VIC 3103",145.077042,-37.806625,POINT (145.077042 -37.806625),True
15913290,"27 Weir Street, Balwyn, VIC 3103",145.083385,-37.81534,POINT (145.083385 -37.81534),True
15921467,"123 Gordon Street, Balwyn, VIC 3103",145.075798,-37.808436,POINT (145.075798 -37.808436),True
15922931,"340 Whitehorse Road, Balwyn, VIC 3103",145.086075,-37.813576,POINT (145.086075 -37.813576),True
15928028,"342 Whitehorse Road, Balwyn, VIC 3103",145.086261,-37.813598,POINT (145.086261 -37.813598),True
15937582,"30 Jersey Street, Balwyn, VIC 3103",145.076851,-37.812923,POINT (145.076851 -37.812923),True
15937771,"2a Brenbeal Street, Balwyn, VIC 3103",145.087109,-37.812802,POINT (145.087109 -37.812802),True
15939664,"188 Whitehorse Road, Balwyn, VIC 3103",145.075864,-37.812351,POINT (145.075864 -37.812351),True
15943745,"12 Yarrbat Avenue, Balwyn, VIC 3103",145.08373,-37.809913,POINT (145.08373 -37.809913),True
15949662,"188 Whitehorse Road, Balwyn, VIC 3103",145.075864,-37.812351,POINT (145.075864 -37.812351),True
15952498,"188 Whitehorse Road, Balwyn, VIC 3103",145.075864,-37.812351,POINT (145.075864 -37.812351),True
15956170,"180 Whitehorse Road, Balwyn, VIC 3103",145.0748,-37.812273,POINT (145.0748 -37.812273),True
13471408,"5a Sweyn Street Balwyn, North, VIC 3104",145.099787,-37.796208,POINT (145.099787 -37.796208),True
14751408,"279 Balwyn Road Balwyn, North, VIC 3104",145.084946,-37.791501,POINT (145.084946 -37.791501),True
15758581,"Lexton Street Balwyn, North, VIC 3104",145.06736,-37.800788,POINT (145.06736 -37.800788),True
15819514,"Longview Road Balwyn, North, VIC 3104",145.078079,-37.787455,POINT (145.078079 -37.787455),True
15838194,"Balwyn Road Balwyn, North, VIC 3104",145.084861,-37.794675,POINT (145.084861 -37.794675),True
15838543,"Cityview Road Balwyn, North, VIC 3104",145.079604,-37.785637,POINT (145.079604 -37.785637),True
15855995,"Kenny Street Balwyn, North, VIC 3104",145.094022,-37.800008,POINT (145.094022 -37.800008),True
15864762,"Maud Street Balwyn, North, VIC 3104",145.065006,-37.794428,POINT (145.065006 -37.794428),True
15871076,"Moule Avenue Balwyn, North, VIC 3104",145.102289,-37.798874,POINT (145.102289 -37.798874),True
15871493,"13 Greythorn Road Balwyn, North, VIC 3104",145.09974,-37.79124,POINT (145.09974 -37.79124),True
15878690,"5 Dumblane Street Balwyn, North, VIC 3104",145.090947,-37.790416,POINT (145.090947 -37.790416),True
15879627,"Kelvinside Street Balwyn, North, VIC 3104",145.094073,-37.783359,POINT (145.094073 -37.783359),True
15885331,"Sutton Street Balwyn, North, VIC 3104",145.082652,-37.795481,POINT (145.082652 -37.795481),True
15887252,"68 Aylmer Street Balwyn, North, VIC 3104",145.067263,-37.799476,POINT (145.067263 -37.799476),True
15888391,"48 Alpha Street Balwyn, North, VIC 3104",145.096039,-37.799297,POINT (145.096039 -37.799297),True
15889223,"Koonung Street Balwyn, North, VIC 3104",145.099509,-37.787427,POINT (145.099509 -37.787427),True
15891410,"Sunburst Avenue Balwyn, North, VIC 3104",145.074961,-37.7912,POINT (145.074961 -37.7912),True
15893523,"7 Maud Street Balwyn, North, VIC 3104",145.065231,-37.794284,POINT (145.065231 -37.794284),True
15899379,"4 Luena Road Balwyn, North, VIC 3104",145.09932,-37.803938,POINT (145.09932 -37.803938),True
11270869,"25 Noble Street Barwon, Heads, VIC 3227",144.489767,-38.275712,POINT (144.489767 -38.275712),True
15785000,"Heron Crescent Barwon, Heads, VIC 3227",144.493002,-38.266629,POINT (144.493002 -38.266629),True
15790840,"Sheepwash Road Barwon, Heads, VIC 3227",144.488564,-38.274283,POINT (144.488564 -38.274283),True
15804294,"38 Reid Street Barwon, Heads, VIC 3227",144.48941,-38.278818,POINT (144.48941 -38.278818),True
15810134,"3 Tremont Court Barwon, Heads, VIC 3227",144.493421,-38.270632,POINT (144.493421 -38.270632),True
15899209,"Bostock Avenue Barwon, Heads, VIC 3227",144.487767,-38.284752,POINT (144.487767 -38.284752),True
15905213,"Golightly Street Barwon, Heads, VIC 3227",144.492437,-38.283113,POINT (144.492437 -38.283113),True
15907014,"Ewing Blyth Drive Barwon, Heads, VIC 3227",144.49352,-38.28307,POINT (144.49352 -38.28307),True
15918350,"Sheepwash Road Barwon, Heads, VIC 3227",144.488564,-38.274283,POINT (144.488564 -38.274283),True
15935319,"22 George Street Barwon, Heads, VIC 3227",144.488344,-38.283782,POINT (144.488344 -38.283782),True
15940168,"2b Clifford Parade Barwon, Heads, VIC 3227",144.491037,-38.280845,POINT (144.491037 -38.280845),True
15945584,"Wattle Bird Crescent Barwon, Heads, VIC 3227",144.493316,-38.265779,POINT (144.493316 -38.265779),True
15945944,"Von Nida Avenue Barwon, Heads, VIC 3227",144.485606,-38.278847,POINT (144.485606 -38.278847),True
15946604,"32 Margate Street Barwon, Heads, VIC 3227",144.493791,-38.276797,POINT (144.493791 -38.276797),True
15947540,"Wattle Bird Crescent Barwon, Heads, VIC 3227",144.493316,-38.265779,POINT (144.493316 -38.265779),True
15951528,"Punt Road Barwon, Heads, VIC 3227",144.490223,-38.27743,POINT (144.490223 -38.27743),True
15959938,"7 Thorn Street Barwon, Heads, VIC 3227",144.491485,-38.276827,POINT (144.491485 -38.276827),True
15960409,"45 Wattlebird Crescent Barwon, Heads, VIC 3227",144.490803,-38.276351,POINT (144.490803 -38.276351),True
15964610,"Sheepwash Road Barwon, Heads, VIC 3227",144.488564,-38.274283,POINT (144.488564 -38.274283),True
14773454,"Mccomb Crescent, Bayswater, VIC 3153",145.270567,-37.852026,POINT (145.270567 -37.852026),True
15802613,"Lemon Grove, Bayswater, VIC 3153",145.257373,-37.843165,POINT (145.257373 -37.843165),True
15848731,"Maple Street, Bayswater, VIC 3153",145.261916,-37.845613,POINT (145.261916 -37.845613),True
15901338,"13 Highmoor Avenue, Bayswater, VIC 3153",145.264409,-37.843825,POINT (145.264409 -37.843825),True
15905549,"45 King Street, Bayswater, VIC 3153",145.264125,-37.836992,POINT (145.264125 -37.836992),True
15914289,"21 King Street, Bayswater, VIC 3153",145.265947,-37.83845,POINT (145.265947 -37.83845),True
15929009,"627 Mountain Highway, Bayswater, VIC 3153",145.258221,-37.84197,POINT (145.258221 -37.84197),True
15932974,"Belot Close, Bayswater, VIC 3153",145.252495,-37.840969,POINT (145.252495 -37.840969),True
15938624,"Grieve Street, Bayswater, VIC 3153",145.257899,-37.850311,POINT (145.257899 -37.850311),True
15941449,"Susan Street, Bayswater, VIC 3153",145.251619,-37.847267,POINT (145.251619 -37.847267),True
15943057,"King Street, Bayswater, VIC 3153",145.266167,-37.838434,POINT (145.266167 -37.838434),True
15946691,"18 View Road, Bayswater, VIC 3153",145.262079,-37.839886,POINT (145.262079 -37.839886),True
15947863,"16 John Street, Bayswater, VIC 3153",145.264089,-37.845961,POINT (145.264089 -37.845961),True
15949335,"411 Boronia Road, Bayswater, VIC 3153",145.253361,-37.855597,POINT (145.253361 -37.855597),True
15949555,"2c Maida Avenue, Bayswater, VIC 3153",145.260673,-37.838847,POINT (145.260673 -37.838847),True
15952244,"3 Jeanette Street, Bayswater, VIC 3153",145.256726,-37.855876,POINT (145.256726 -37.855876),True
15955014,"Carramar Court, Bayswater, VIC 3153",145.251687,-37.854278,POINT (145.251687 -37.854278),True
15955302,"16 Orchard Road, Bayswater, VIC 3153",145.260957,-37.839092,POINT (145.260957 -37.839092),True
15957044,"2 Wallace Avenue, Bayswater, VIC 3153",145.261376,-37.848893,POINT (145.261376 -37.848893),True
15958361,"1a Pine Rd, Bayswater, VIC 3153",145.267023,-37.84447,POINT (145.267023 -37.84447),True
15820110,"Eagle Parade, Norlane, VIC 3214",144.348753,-38.089023,POINT (144.348753 -38.089023),True
15951910,"Sparks Road, Norlane, VIC 3214",144.356814,-38.091473,POINT (144.356814 -38.091473),True
15952176,"Ernest Street Bell Post, Hill, VIC 3215",144.327165,-38.100526,POINT (144.327165 -38.100526),True
15960144,"Donnelly Avenue, Norlane, VIC 3214",144.360991,-38.093847,POINT (144.360991 -38.093847),True
15962142,"4 Willana Avenue Hamlyn, Heights, VIC 3215",144.332511,-38.119543,POINT (144.332511 -38.119543),True
15962165,"Graham Street Hamlyn, Heights, VIC 3215",144.338107,-38.126466,POINT (144.338107 -38.126466),True
15963007,"Zinnia Street, Norlane, VIC 3214",144.365873,-38.085929,POINT (144.365873 -38.085929),True
15965444,"Spruhan Avenue, Norlane, VIC 3214",144.359574,-38.094591,POINT (144.359574 -38.094591),True
15167976,"37a Hannah Street, Benalla, VIC 3672",145.985143,-36.543028,POINT (145.985143 -36.543028),True
15302776,"9 Hannah Street, Benalla, VIC 3672",145.982338,-36.543432,POINT (145.982338 -36.543432),True
15508261,"Bridge Street West, Benalla, VIC 3672",145.979814,-36.553178,POINT (145.979814 -36.553178),True
15519547,"Harrison Avenue, Benalla, VIC 3672",145.977063,-36.556364,POINT (145.977063 -36.556364),True
15719421,"Warrenbayne West Road Via, Benalla, VIC 3672",145.994526,-36.54653,POINT (145.994526 -36.54653),True
15796440,"Smythe Street, Benalla, VIC 3672",145.988002,-36.549759,POINT (145.988002 -36.549759),True
15846466,"Byrne Street, Benalla, VIC 3672",145.988151,-36.546351,POINT (145.988151 -36.546351),True
15857073,"7a Davey Street, Benalla, VIC 3672",145.972026,-36.552685,POINT (145.972026 -36.552685),True
15862675,"Egmont Street, Benalla, VIC 3672",145.974995,-36.559017,POINT (145.974995 -36.559017),True
15897267,"89 Faithfull Street, Benalla, VIC 3672",145.964806,-36.545904,POINT (145.964806 -36.545904),True
15903212,"Waller Street, Benalla, VIC 3672",145.973439,-36.561207,POINT (145.973439 -36.561207),True
9147035,"Black Street, Bendigo, VIC 3550",144.27957,-36.757608,POINT (144.27957 -36.757608),True
11172804,"39 Milroy Street, Bendigo, VIC 3550",144.267771,-36.747857,POINT (144.267771 -36.747857),True
11548867,"Queen Street, Bendigo, VIC 3550",144.280395,-36.76131,POINT (144.280395 -36.76131),True
11683121,"Uley Street, Bendigo, VIC 3550",144.285803,-36.748989,POINT (144.285803 -36.748989),True
12819875,"18 Comet Street, Bendigo, VIC 3550",144.27957,-36.757608,POINT (144.27957 -36.757608),True
15099292,"Baxter Street, Bendigo, VIC 3550",144.284268,-36.752791,POINT (144.284268 -36.752791),True
15664088,"87 Arnold Street, Bendigo, VIC 3550",144.283764,-36.750798,POINT (144.283764 -36.750798),True
15762212,"King Street, Bendigo, VIC 3550",144.272103,-36.768227,POINT (144.272103 -36.768227),True
15773704,"Queen Street, Bendigo, VIC 3550",144.280395,-36.76131,POINT (144.280395 -36.76131),True
15823337,"Wills Street, Bendigo, VIC 3550",144.27481,-36.767243,POINT (144.27481 -36.767243),True
15833503,"King Street, Bendigo, VIC 3550",144.272103,-36.768227,POINT (144.272103 -36.768227),True
15852679,"13 Mitchell Street, Bendigo, VIC 3550",144.279105,-36.75999,POINT (144.279105 -36.75999),True
15863532,"Bramble Street, Bendigo, VIC 3550",144.287119,-36.759809,POINT (144.287119 -36.759809),True
15872413,"83 Arnold Street, Bendigo, VIC 3550",144.283764,-36.750798,POINT (144.283764 -36.750798),True
15878450,"15 Abbott Street, Bendigo, VIC 3550",144.28854,-36.761427,POINT (144.28854 -36.761427),True
15879867,"Don Street, Bendigo, VIC 3550",144.26887,-36.759872,POINT (144.26887 -36.759872),True
15883875,"Milroy Street, Bendigo, VIC 3550",144.272106,-36.750087,POINT (144.272106 -36.750087),True
15885460,"Rosalind Street, Bendigo, VIC 3550",144.276475,-36.753245,POINT (144.276475 -36.753245),True
15885537,"Havlin Street East, Bendigo, VIC 3550",144.318562,-36.740236,POINT (144.318562 -36.740236),True
11855632,"8b Stringybark Court, Berwick, VIC 3806",145.32406,-38.026059,POINT (145.32406 -38.026059),True
12699928,"Hardy Court, Berwick, VIC 3806",145.329708,-38.02775,POINT (145.329708 -38.02775),True
13164211,"Soldiers Road, Berwick, VIC 3806",145.358033,-38.051231,POINT (145.358033 -38.051231),True
13711940,"Angelique Street, Berwick, VIC 3806",145.349527,-38.071229,POINT (145.349527 -38.071229),True
15863676,"26 Palmerston Street, Berwick, VIC 3806",145.357931,-38.033583,POINT (145.357931 -38.033583),True
15865521,"Kate Elizabeth Avenue, Berwick, VIC 3806",145.324549,-38.042732,POINT (145.324549 -38.042732),True
15865820,"Bangalay Place, Berwick, VIC 3806",145.324717,-38.021339,POINT (145.324717 -38.021339),True
15875931,"Prime Court, Berwick, VIC 3806",145.33266,-38.045503,POINT (145.33266 -38.045503),True
15878719,"Don Collins Way, Berwick, VIC 3806",145.336013,-38.067647,POINT (145.336013 -38.067647),True
15886002,"Bishop Place, Berwick, VIC 3806",145.354265,-38.066011,POINT (145.354265 -38.066011),True
15887772,"36 Peel Street, Berwick, VIC 3806",145.351684,-38.030726,POINT (145.351684 -38.030726),True
15888804,"Jarryd Crescent, Berwick, VIC 3806",145.359838,-38.054432,POINT (145.359838 -38.054432),True
15888929,"York Road, Berwick, VIC 3806",145.340468,-38.029531,POINT (145.340468 -38.029531),True
15891325,"Scanlan Street, Berwick, VIC 3806",145.353116,-38.033244,POINT (145.353116 -38.033244),True
15893069,"Stefan Drive, Berwick, VIC 3806",145.337039,-38.044965,POINT (145.337039 -38.044965),True
15893966,"Hardy Court, Berwick, VIC 3806",145.329708,-38.02775,POINT (145.329708 -38.02775),True
15895331,"6 Jerilderie Drive, Berwick, VIC 3806",145.325142,-38.01448,POINT (145.325142 -38.01448),True
15895365,"Earlston Square, Berwick, VIC 3806",145.350691,-38.051206,POINT (145.350691 -38.051206),True
15896129,"9 Reserve Street, Berwick, VIC 3806",145.344243,-38.036071,POINT (145.344243 -38.036071),True
15896281,"Tally Court, Berwick, VIC 3806",145.326079,-38.01393,POINT (145.326079 -38.01393),True
15675953,"5 Lithgow Avenue, Blackburn, VIC 3130",145.146339,-37.818521,POINT (145.146339 -37.818521),True
15830703,"4 Station Street, Blackburn, VIC 3130",145.15004,-37.818066,POINT (145.15004 -37.818066),True
15877205,"160 Whitehorse Road, Blackburn, VIC 3130",145.15629,-37.817938,POINT (145.15629 -37.817938),True
15917683,"160 Whitehorse Road, Blackburn, VIC 3130",145.15629,-37.817938,POINT (145.15629 -37.817938),True
15919324,"300 Middleborough Road, Blackburn, VIC 3130",145.13661,-37.829782,POINT (145.13661 -37.829782),True
15921854,"2 Hillside Crescent, Blackburn, VIC 3130",145.139346,-37.821591,POINT (145.139346 -37.821591),True
15924578,"Whitehorse Road, Blackburn, VIC 3130",145.155251,-37.817697,POINT (145.155251 -37.817697),True
15924799,"42 Maple Street, Blackburn, VIC 3130",145.158961,-37.815207,POINT (145.158961 -37.815207),True
15926320,"160 Whitehorse Road, Blackburn, VIC 3130",145.15629,-37.817938,POINT (145.15629 -37.817938),True
15927081,"Linden Street, Blackburn, VIC 3130",145.162203,-37.816564,POINT (145.162203 -37.816564),True
15934796,"20 Queen Street, Blackburn, VIC 3130",145.151056,-37.819286,POINT (145.151056 -37.819286),True
15935751,"160 Whitehorse Road, Blackburn, VIC 3130",145.15629,-37.817938,POINT (145.15629 -37.817938),True
15936161,"17 John Street, Blackburn, VIC 3130",145.153462,-37.813684,POINT (145.153462 -37.813684),True
15937098,"2 Queen Street, Blackburn, VIC 3130",145.151285,-37.818112,POINT (145.151285 -37.818112),True
15937428,"18 Queen Street, Blackburn, VIC 3130",145.151099,-37.81906,POINT (145.151099 -37.81906),True
15940572,"160 Whitehorse Road, Blackburn, VIC 3130",145.15629,-37.817938,POINT (145.15629 -37.817938),True
15941990,"34 Blackburn Road, Blackburn, VIC 3130",145.152416,-37.822182,POINT (145.152416 -37.822182),True
15943305,"462 Middleborough Road, Blackburn, VIC 3130",145.138423,-37.819964,POINT (145.138423 -37.819964),True
15946777,"18 Queen Street, Blackburn, VIC 3130",145.151099,-37.81906,POINT (145.151099 -37.81906),True
15950976,"Downing Street, Blackburn, VIC 3130",145.145724,-37.818583,POINT (145.145724 -37.818583),True
15431636,"36 Olive Grove, Boronia, VIC 3155",145.292219,-37.854377,POINT (145.292219 -37.854377),True
15764468,"11 Paton Crescent, Boronia, VIC 3155",145.270701,-37.862534,POINT (145.270701 -37.862534),True
15925568,"14a Dinsdale Road, Boronia, VIC 3155",145.258623,-37.860622,POINT (145.258623 -37.860622),True
15933100,"17 Torrens Avenue, Boronia, VIC 3155",145.288237,-37.864891,POINT (145.288237 -37.864891),True
15942331,"13 Mcdonald Crescent, Boronia, VIC 3155",145.299272,-37.853955,POINT (145.299272 -37.853955),True
15943580,"Shirley Court, Boronia, VIC 3155",145.292412,-37.868276,POINT (145.292412 -37.868276),True
15944235,"15a Woodvale Road, Boronia, VIC 3155",145.276616,-37.864504,POINT (145.276616 -37.864504),True
15951574,"Casuarina Avenue, Boronia, VIC 3155",145.301051,-37.848747,POINT (145.301051 -37.848747),True
15951802,"4 Miller Road, Boronia, VIC 3155",145.298953,-37.853555,POINT (145.298953 -37.853555),True
15951874,"2a Paton Crescent, Boronia, VIC 3155",145.27032,-37.861393,POINT (145.27032 -37.861393),True
15952650,"Jaffa Court, Boronia, VIC 3155",145.270376,-37.854228,POINT (145.270376 -37.854228),True
15955227,"3 Tulip Crescent, Boronia, VIC 3155",145.27938,-37.862829,POINT (145.27938 -37.862829),True
15959208,"9 Norwich Street, Boronia, VIC 3155",145.276813,-37.856349,POINT (145.276813 -37.856349),True
15960616,"127 Power Road, Boronia, VIC 3155",145.282627,-37.856062,POINT (145.282627 -37.856062),True
15963244,"Tolhurst Avenue, Boronia, VIC 3155",145.304435,-37.843415,POINT (145.304435 -37.843415),True
15963849,"Elsie Street, Boronia, VIC 3155",145.290879,-37.856395,POINT (145.290879 -37.856395),True
15964975,"3 Malcolm Street, Boronia, VIC 3155",145.284188,-37.851629,POINT (145.284188 -37.851629),True
15965095,"11 Henry Street, Boronia, VIC 3155",145.283745,-37.8577,POINT (145.283745 -37.8577),True
15966028,"Rowson St, Boronia, VIC 3155",145.27527,-37.856482,POINT (145.27527 -37.856482),True
15966843,"40 Bambury Street, Boronia, VIC 3155",145.294002,-37.857738,POINT (145.294002 -37.857738),True
14703849,"35 Medway Street Box Hill, North, VIC 3129",145.128283,-37.812401,POINT (145.128283 -37.812401),True
15084312,"16 Lexton Road Box Hill, North, VIC 3129",145.134117,-37.812779,POINT (145.134117 -37.812779),True
15827047,"Springfield Road Box Hill, North, VIC 3129",145.130625,-37.805883,POINT (145.130625 -37.805883),True
15831597,"34 Severn Street Box Hill, North, VIC 3129",145.128854,-37.812847,POINT (145.128854 -37.812847),True
15861824,"Harrison Street Box Hill, North, VIC 3129",145.132541,-37.803104,POINT (145.132541 -37.803104),True
15879503,"Hillside Parade Box Hill, North, VIC 3129",145.119708,-37.809457,POINT (145.119708 -37.809457),True
15885214,"Trawool Street Box Hill, North, VIC 3129",145.134656,-37.806474,POINT (145.134656 -37.806474),True
15893592,"Medway Street Box Hill, North, VIC 3129",145.126206,-37.81165,POINT (145.126206 -37.81165),True
15896985,"114 Shannon Street Box Hill, North, VIC 3129",145.118097,-37.807007,POINT (145.118097 -37.807007),True
15903606,"Karen Street Box Hill, North, VIC 3129",145.139159,-37.803803,POINT (145.139159 -37.803803),True
15904615,"110a Nelson Road Box Hill, North, VIC 3129",145.120953,-37.809682,POINT (145.120953 -37.809682),True
15910474,"16 Medway Street Box Hill, North, VIC 3129",145.129928,-37.81192,POINT (145.129928 -37.81192),True
15914479,"20 Loraine Avenue Box Hill, North, VIC 3129",145.119942,-37.802594,POINT (145.119942 -37.802594),True
15915609,"66 Severn Street Box Hill, North, VIC 3129",145.123356,-37.812116,POINT (145.123356 -37.812116),True
15924163,"39 Medway Street Box Hill, North, VIC 3129",145.127946,-37.812035,POINT (145.127946 -37.812035),True
15925173,"83 Clyde Street Box Hill, North, VIC 3129",145.124742,-37.809458,POINT (145.124742 -37.809458),True
15925282,"Ovens Street Box Hill, North, VIC 3129",145.124595,-37.806841,POINT (145.124595 -37.806841),True
15933449,"84 Thames Street Box Hill, North, VIC 3129",145.122788,-37.813088,POINT (145.122788 -37.813088),True
15949591,"Toogoods Rise Box Hill, North, VIC 3129",145.139296,-37.801328,POINT (145.139296 -37.801328),True
15951186,"3 Regan Street Box Hill, North, VIC 3129",145.132706,-37.814379,POINT (145.132706 -37.814379),True
15760991,"Gallowburn Court Brown, Hill, VIC 3350",143.924523,-37.543672,POINT (143.924523 -37.543672),True
15796559,"115 Hopetoun Street Ballarat, East, VIC 3350",143.881666,-37.560249,POINT (143.881666 -37.560249),True
15833643,"Brophy Street Brown, Hill, VIC 3350",143.895603,-37.554501,POINT (143.895603 -37.554501),True
15854729,"Haines Street Brown, Hill, VIC 3350",143.886054,-37.555265,POINT (143.886054 -37.555265),True
15855829,"Elsworth Street Mount, Pleasant, VIC 3350",143.852591,-37.581624,POINT (143.852591 -37.581624),True
15856115,"120 Lewis Street Ballarat, Central, VIC 3350",143.858234,-37.562938,POINT (143.858234 -37.562938),True
15858227,"12a Ludbrook Court Brown, Hill, VIC 3350",143.902986,-37.55763,POINT (143.902986 -37.55763),True
15860820,"Rebellion Place Ballarat, East, VIC 3350",143.887306,-37.569961,POINT (143.887306 -37.569961),True
15877469,"Ripon Street South, Redan, VIC 3350",143.838721,-37.57447,POINT (143.838721 -37.57447),True
15878577,"Raymond Crescent Brown, Hill, VIC 3350",143.903751,-37.552687,POINT (143.903751 -37.552687),True
15879777,"6 Bath Lane Ballarat, Central, VIC 3350",143.856996,-37.562471,POINT (143.856996 -37.562471),True
15879814,"Daylesford Road Brown, Hill, VIC 3350",143.918397,-37.550284,POINT (143.918397 -37.550284),True
15881375,"3 Colette Court, Canadian, VIC 3350",143.883509,-37.581771,POINT (143.883509 -37.581771),True
15881712,"8 Raglan Street South Ballarat, Central, VIC 3350",143.849995,-37.561908,POINT (143.849995 -37.561908),True
15881917,"Summit Crescent Brown, Hill, VIC 3350",143.905806,-37.552714,POINT (143.905806 -37.552714),True
15887132,"464 Wendouree Parade Lake, Wendouree, VIC 3350",143.832752,-37.543412,POINT (143.832752 -37.543412),True
15890900,"Gracefield Road Brown, Hill, VIC 3350",143.917252,-37.553673,POINT (143.917252 -37.553673),True
13658714,"460 Victoria Street, Brunswick, VIC 3056",144.950318,-37.765781,POINT (144.950318 -37.765781),True
15099012,"2b Loyola Avenue, Brunswick, VIC 3056",144.969811,-37.771968,POINT (144.969811 -37.771968),True
15251983,"6 Harvey Street, Brunswick, VIC 3056",144.956179,-37.773075,POINT (144.956179 -37.773075),True
15601896,"Rose Street, Brunswick, VIC 3056",144.952343,-37.757357,POINT (144.952343 -37.757357),True
15826105,"Victoria Street, Brunswick, VIC 3056",144.961005,-37.766605,POINT (144.961005 -37.766605),True
15832821,"160 Sydney Road, Brunswick, VIC 3056",144.961109,-37.774261,POINT (144.961109 -37.774261),True
15854171,"Allan Street, Brunswick, VIC 3056",144.96848,-37.773253,POINT (144.96848 -37.773253),True
15871641,"2b Loyola Avenue, Brunswick, VIC 3056",144.969811,-37.771968,POINT (144.969811 -37.771968),True
15875521,"124 Union Street, Brunswick, VIC 3056",144.95373,-37.77321,POINT (144.95373 -37.77321),True
15876038,"5 Union Street, Brunswick, VIC 3056",144.960024,-37.774311,POINT (144.960024 -37.774311),True
15876973,"67 Blyth Street, Brunswick, VIC 3056",144.968209,-37.765953,POINT (144.968209 -37.765953),True
15878203,"Mountfield Street, Brunswick, VIC 3056",144.967831,-37.762683,POINT (144.967831 -37.762683),True
15878365,"Minnie Street, Brunswick, VIC 3056",144.968592,-37.771271,POINT (144.968592 -37.771271),True
15878536,"756 Sydney Road, Brunswick, VIC 3056",144.963567,-37.759614,POINT (144.963567 -37.759614),True
15882741,"6 Sydney Road, Brunswick, VIC 3056",144.960709,-37.777546,POINT (144.960709 -37.777546),True
15883352,"34 Union Street, Brunswick, VIC 3056",144.958509,-37.773797,POINT (144.958509 -37.773797),True
15887395,"20 Cassells Road, Brunswick, VIC 3056",144.961005,-37.766605,POINT (144.961005 -37.766605),True
15893326,"Leithead Street, Brunswick, VIC 3056",144.970289,-37.76049,POINT (144.970289 -37.76049),True
15893400,"203 Brunswick Road, Brunswick, VIC 3056",144.963703,-37.777333,POINT (144.963703 -37.777333),True
15895903,"148 Brunswick Road, Brunswick, VIC 3056",144.963414,-37.777629,POINT (144.963414 -37.777629),True
15271314,"24 Barkly Street Brunswick, East, VIC 3057",144.975995,-37.777971,POINT (144.975995 -37.777971),True
15846781,"206 Lygon Street Brunswick, East, VIC 3057",144.971747,-37.772035,POINT (144.971747 -37.772035),True
15852800,"Holmes Street Brunswick, East, VIC 3057",144.978224,-37.76783,POINT (144.978224 -37.76783),True
15861810,"447a Lygon Street Brunswick, East, VIC 3057",144.970688,-37.778832,POINT (144.970688 -37.778832),True
15862358,"24 Barkly Street Brunswick, East, VIC 3057",144.975995,-37.777971,POINT (144.975995 -37.777971),True
15866731,"299 Lygon Street Brunswick, East, VIC 3057",144.970688,-37.778832,POINT (144.970688 -37.778832),True
15873742,"36 Holmes Street Brunswick, East, VIC 3057",144.974457,-37.760233,POINT (144.974457 -37.760233),True
15873773,"36 Holmes Street Brunswick, East, VIC 3057",144.974457,-37.760233,POINT (144.974457 -37.760233),True
15873839,"36 Holmes Street Brunswick, East, VIC 3057",144.974457,-37.760233,POINT (144.974457 -37.760233),True
15876231,"8 Lygon Street Brunswick, East, VIC 3057",144.970887,-37.778697,POINT (144.970887 -37.778697),True
15876911,"Barkly Street Brunswick, East, VIC 3057",144.970859,-37.777227,POINT (144.970859 -37.777227),True
15880500,"85 Nicholson Street Brunswick, East, VIC 3057",144.978791,-37.774668,POINT (144.978791 -37.774668),True
15881853,"Albion Street Brunswick, East, VIC 3057",144.979469,-37.762719,POINT (144.979469 -37.762719),True
15884444,"Lord Street Brunswick, East, VIC 3057",144.974637,-37.771447,POINT (144.974637 -37.771447),True
15885686,"9 Oconnor Street Brunswick, East, VIC 3057",144.972067,-37.773323,POINT (144.972067 -37.773323),True
15886268,"270 Lygon Street Brunswick, East, VIC 3057",144.972108,-37.770333,POINT (144.972108 -37.770333),True
15890776,"22 Barkly Street Brunswick, East, VIC 3057",144.976527,-37.778034,POINT (144.976527 -37.778034),True
15890860,"360 Lygon Street Brunswick, East, VIC 3057",144.972546,-37.767915,POINT (144.972546 -37.767915),True
15894113,"270 Lygon Street Brunswick, East, VIC 3057",144.972108,-37.770333,POINT (144.972108 -37.770333),True
15896370,"Clarke Street Brunswick, East, VIC 3057",144.974291,-37.774128,POINT (144.974291 -37.774128),True
15208495,"Settlement Road, Bundoora, VIC 3083",145.044471,-37.695436,POINT (145.044471 -37.695436),True
15513969,"1095 Plenty Road, Bundoora, VIC 3083",145.049591,-37.709573,POINT (145.049591 -37.709573),True
15850205,"Silverash Drive, Bundoora, VIC 3083",145.057058,-37.677997,POINT (145.057058 -37.677997),True
15859468,"Waxflower Cres, Bundoora, VIC 3083",145.056733,-37.678606,POINT (145.056733 -37.678606),True
15870922,"21 Plenty Road, Bundoora, VIC 3083",145.058499,-37.698153,POINT (145.058499 -37.698153),True
15873735,"Glennden Court, Bundoora, VIC 3083",145.079003,-37.700725,POINT (145.079003 -37.700725),True
15883114,"34 Princeton Terrace, Bundoora, VIC 3083",145.073101,-37.681521,POINT (145.073101 -37.681521),True
15884644,"1095 Plenty Road, Bundoora, VIC 3083",145.049591,-37.709573,POINT (145.049591 -37.709573),True
15885607,"Nova Circuit, Bundoora, VIC 3083",145.05051,-37.71163,POINT (145.05051 -37.71163),True
15886779,"1251 Plenty Road, Bundoora, VIC 3083",145.057767,-37.700548,POINT (145.057767 -37.700548),True
15888315,"12 Julie Street, Bundoora, VIC 3083",145.055635,-37.696172,POINT (145.055635 -37.696172),True
15889228,"Fenwick Court, Bundoora, VIC 3083",145.057414,-37.70535,POINT (145.057414 -37.70535),True
15889230,"Fenwick Court, Bundoora, VIC 3083",145.057414,-37.70535,POINT (145.057414 -37.70535),True
15890189,"1251 Plenty Road, Bundoora, VIC 3083",145.057767,-37.700548,POINT (145.057767 -37.700548),True
15890852,"11a Aldren Place, Bundoora, VIC 3083",145.051593,-37.690201,POINT (145.051593 -37.690201),True
15891585,"Tamara Court, Bundoora, VIC 3083",145.053288,-37.685185,POINT (145.053288 -37.685185),True
15892331,"Hermitage Crescent, Bundoora, VIC 3083",145.062627,-37.687123,POINT (145.062627 -37.687123),True
15892752,"Nova Circuit, Bundoora, VIC 3083",145.05051,-37.71163,POINT (145.05051 -37.71163),True
15892915,"1251 Plenty Road, Bundoora, VIC 3083",145.057767,-37.700548,POINT (145.057767 -37.700548),True
15893292,"83 Janefield Drive, Bundoora, VIC 3083",145.076424,-37.68075,POINT (145.076424 -37.68075),True
7065183,"187 Kooyong Rd Entry Facing Albany Rd, Toorak, VIC 3142",145.017324,-37.841049,POINT (145.017324 -37.841049),True
7530392,"11 River Street, Richmond, VIC 3121",145.013556,-37.815124,POINT (145.013556 -37.815124),True
10465730,"Lincoln Street, Richmond, VIC 3121",145.002534,-37.812876,POINT (145.002534 -37.812876),True
15335880,"8 Daly Street South, Yarra, VIC 3141",144.994691,-37.83777,POINT (144.994691 -37.83777),True
15889878,"589 Toorak Rd, Toorak, VIC 3142",145.017508,-37.841935,POINT (145.017508 -37.841935),True
15890065,"36 Cromwell Road South, Yarra, VIC 3141",145.000434,-37.843406,POINT (145.000434 -37.843406),True
15890138,"Tivoli Road South, Yarra, VIC 3141",144.998523,-37.837908,POINT (144.998523 -37.837908),True
15890707,"3 Barnsbury Road South, Yarra, VIC 3141",145.001155,-37.845311,POINT (145.001155 -37.845311),True
15890842,"120 Palmer Street, Richmond, VIC 3121",145.010269,-37.819499,POINT (145.010269 -37.819499),True
15891146,"44 Darling Street South, Yarra, VIC 3141",144.992065,-37.836054,POINT (144.992065 -37.836054),True
15891438,"79 River Street South, Yarra, VIC 3141",144.997567,-37.836334,POINT (144.997567 -37.836334),True
15891473,"23 Auburn Grove, Hawthorn, VIC 3122",145.031704,-37.822814,POINT (145.031704 -37.822814),True
15891492,"8 Lyndhurst Street, Richmond, VIC 3121",145.00054,-37.819275,POINT (145.00054 -37.819275),True
15891743,"1 Barnet Way, Richmond, VIC 3121",145.011819,-37.824697,POINT (145.011819 -37.824697),True
15891869,"74b Riversdale Road, Hawthorn, VIC 3122",145.032503,-37.828706,POINT (145.032503 -37.828706),True
15891974,"508 Glenferrie Road, Hawthorn, VIC 3122",145.034083,-37.830545,POINT (145.034083 -37.830545),True
15892147,"Glass Street, Richmond, VIC 3121",145.005033,-37.824613,POINT (145.005033 -37.824613),True
15893328,"7a Brook St, Hawthorn, VIC 3122",145.018954,-37.815504,POINT (145.018954 -37.815504),True
15893567,"Brighton Street, Richmond, VIC 3121",144.998618,-37.830904,POINT (144.998618 -37.830904),True
15893658,"Pine Street, Hawthorn, VIC 3122",145.021323,-37.813872,POINT (145.021323 -37.813872),True
14937595,"Travers Cres Burwood, East, VIC 3151",145.15438,-37.853991,POINT (145.15438 -37.853991),True
15292953,"15 Foundation Boulevard Burwood, East, VIC 3151",145.13533,-37.849861,POINT (145.13533 -37.849861),True
15346720,"Statesman Avenue Burwood, East, VIC 3151",145.150174,-37.850535,POINT (145.150174 -37.850535),True
15819001,"Sevenoaks Road Burwood, East, VIC 3151",145.156646,-37.856853,POINT (145.156646 -37.856853),True
15861781,"15 Foundation Boulevard Burwood, East, VIC 3151",145.13533,-37.849861,POINT (145.13533 -37.849861),True
15862279,"Christa Avenue Burwood, East, VIC 3151",145.155022,-37.850093,POINT (145.155022 -37.850093),True
15863200,"Foundation Boulevard Burwood, East, VIC 3151",145.135181,-37.851929,POINT (145.135181 -37.851929),True
15881074,"190 Holland Road Burwood, East, VIC 3151",145.149075,-37.849424,POINT (145.149075 -37.849424),True
15903677,"47 Tainton Road Burwood, East, VIC 3151",145.156883,-37.846681,POINT (145.156883 -37.846681),True
15907640,"Pippin Avenue Burwood, East, VIC 3151",145.149995,-37.851336,POINT (145.149995 -37.851336),True
15917590,"Rustic Avenue Burwood, East, VIC 3151",145.136505,-37.846865,POINT (145.136505 -37.846865),True
15918813,"Lindisfarne Drive Burwood, East, VIC 3151",145.150367,-37.855448,POINT (145.150367 -37.855448),True
15919574,"15 Foundation Boulevard Burwood, East, VIC 3151",145.13533,-37.849861,POINT (145.13533 -37.849861),True
15921122,"15 Redhill Avenue Burwood, East, VIC 3151",145.156172,-37.853967,POINT (145.156172 -37.853967),True
15929573,"15 Foundation Boulevard Burwood, East, VIC 3151",145.13533,-37.849861,POINT (145.13533 -37.849861),True
15931733,"Coventry Street Burwood, East, VIC 3151",145.157509,-37.859737,POINT (145.157509 -37.859737),True
15942240,"Robinlee Avenue Burwood, East, VIC 3151",145.158021,-37.851663,POINT (145.158021 -37.851663),True
15945308,"Blackburn Road Burwood, East, VIC 3151",145.152392,-37.850291,POINT (145.152392 -37.850291),True
15950021,"15 Foundation Boulevard Burwood, East, VIC 3151",145.13533,-37.849861,POINT (145.13533 -37.849861),True
15952392,"37 Ruby Street Burwood, East, VIC 3151",145.160393,-37.852665,POINT (145.160393 -37.852665),True
10652507,"Bayne Street North, Bendigo, VIC 3550",144.281707,-36.746013,POINT (144.281707 -36.746013),True
11786965,"9 Prouses Road North, Bendigo, VIC 3550",144.274979,-36.742206,POINT (144.274979 -36.742206),True
13268035,"1 Adelaide Street Flora, Hill, VIC 3550",144.288362,-36.784153,POINT (144.288362 -36.784153),True
15326708,"Pearce Street California, Gully, VIC 3556",144.267593,-36.729985,POINT (144.267593 -36.729985),True
15672908,"Midland Highway, Huntly, VIC 3551",144.330663,-36.667094,POINT (144.330663 -36.667094),True
15863810,"115 Wood Street California, Gully, VIC 3556",144.259779,-36.726989,POINT (144.259779 -36.726989),True
15879921,"Upper California Gully Road California, Gully, VIC 3556",144.251322,-36.731091,POINT (144.251322 -36.731091),True
15881559,"Oswald Street California, Gully, VIC 3556",144.269234,-36.721124,POINT (144.269234 -36.721124),True
15882353,"Wood Street California, Gully, VIC 3556",144.261332,-36.734194,POINT (144.261332 -36.734194),True
15883034,"Meggs Ct California, Gully, VIC 3556",144.268075,-36.722549,POINT (144.268075 -36.722549),True
15883519,"61a Jobs Gully Rd California, Gully, VIC 3556",144.27023,-36.719567,POINT (144.27023 -36.719567),True
15884284,"Eaglewood Way California, Gully, VIC 3556",144.276673,-36.72218,POINT (144.276673 -36.72218),True
15889000,"Alliance Avenue California, Gully, VIC 3556",144.255458,-36.727488,POINT (144.255458 -36.727488),True
15895019,"Powells Avenue East, Bendigo, VIC 3550",144.318562,-36.740236,POINT (144.318562 -36.740236),True
15900416,"130c Upper California Gully Road California, Gully, VIC 3556",144.252976,-36.733439,POINT (144.252976 -36.733439),True
14036258,"Oberon Boulevard, Campbellfield, VIC 3061",144.968011,-37.680168,POINT (144.968011 -37.680168),True
15478062,"Winn Grove, Fawkner, VIC 3060",144.96658,-37.709242,POINT (144.96658 -37.709242),True
15505392,"1702 Sydney Road, Campbellfield, VIC 3061",144.956352,-37.675394,POINT (144.956352 -37.675394),True
15730509,"Lucerne Street, Campbellfield, VIC 3061",144.964428,-37.67819,POINT (144.964428 -37.67819),True
15763966,"2a Gentles Avenue, Campbellfield, VIC 3061",144.954775,-37.672343,POINT (144.954775 -37.672343),True
15915330,"Mutton Road, Fawkner, VIC 3060",144.968022,-37.713471,POINT (144.968022 -37.713471),True
15916984,"Mason Street, Campbellfield, VIC 3061",144.966747,-37.672148,POINT (144.966747 -37.672148),True
15920800,"14 Wattleglen Street, Craigieburn, VIC 3064",144.93354,-37.595093,POINT (144.93354 -37.595093),True
15927169,"Lorne Street, Fawkner, VIC 3060",144.975834,-37.716352,POINT (144.975834 -37.716352),True
15937422,"Bendigo Street, Mickleham, VIC 3064",144.900432,-37.533102,POINT (144.900432 -37.533102),True
15938229,"Wurruk Street, Fawkner, VIC 3060",144.970097,-37.71255,POINT (144.970097 -37.71255),True
15943850,"Rockfield Street, Epping, VIC 3076",145.010716,-37.629325,POINT (145.010716 -37.629325),True
15948572,"63a Argyle Street, Fawkner, VIC 3060",144.967433,-37.717429,POINT (144.967433 -37.717429),True
15953110,"Russell Street, Campbellfield, VIC 3061",144.951432,-37.668252,POINT (144.951432 -37.668252),True
15956312,"13 Church Street, Campbellfield, VIC 3061",144.959012,-37.675778,POINT (144.959012 -37.675778),True
15958748,"1 Mcdougall Street, Fawkner, VIC 3060",144.963643,-37.704838,POINT (144.963643 -37.704838),True
15716469,"1072 Lygon Street Carlton, North, VIC 3054",144.970591,-37.780529,POINT (144.970591 -37.780529),True
15881428,"Mcilwraith Street Carlton, North, VIC 3054",144.970609,-37.788716,POINT (144.970609 -37.788716),True
15887320,"Lee Street Carlton, North, VIC 3054",144.969365,-37.790936,POINT (144.969365 -37.790936),True
15888007,"Station Street Carlton, North, VIC 3054",144.975151,-37.790464,POINT (144.975151 -37.790464),True
15889085,"Station Street Carlton, North, VIC 3054",144.975151,-37.790464,POINT (144.975151 -37.790464),True
15890414,"Amess Street Carlton, North, VIC 3054",144.973877,-37.784589,POINT (144.973877 -37.784589),True
15890955,"Canning Street Carlton, North, VIC 3054",144.973959,-37.792002,POINT (144.973959 -37.792002),True
15894675,"1066 Lygon Street Carlton, North, VIC 3054",144.970529,-37.780955,POINT (144.970529 -37.780955),True
15898418,"Station Street Carlton, North, VIC 3054",144.975151,-37.790464,POINT (144.975151 -37.790464),True
15899755,"Fenwick Street Carlton, North, VIC 3054",144.969917,-37.787347,POINT (144.969917 -37.787347),True
15899879,"Mcilwraith Street Carlton, North, VIC 3054",144.970609,-37.788716,POINT (144.970609 -37.788716),True
15900611,"437 Nicholson Street Carlton, North, VIC 3054",144.976096,-37.789595,POINT (144.976096 -37.789595),True
15902821,"1086 Lygon Street Carlton, North, VIC 3054",144.97063,-37.780176,POINT (144.97063 -37.780176),True
15903099,"1072 Lygon St Carlton, North, VIC 3054",144.970591,-37.780529,POINT (144.970591 -37.780529),True
15903363,"1072 Lygon Street Carlton, North, VIC 3054",144.970591,-37.780529,POINT (144.970591 -37.780529),True
15904118,"Canning Street Carlton, North, VIC 3054",144.973959,-37.792002,POINT (144.973959 -37.792002),True
15904206,"Lygon Street Carlton, North, VIC 3054",144.968591,-37.791554,POINT (144.968591 -37.791554),True
15906106,"809 Rathdowne Street Carlton, North, VIC 3054",144.972278,-37.785523,POINT (144.972278 -37.785523),True
15907055,"Station Street Carlton, North, VIC 3054",144.975151,-37.790464,POINT (144.975151 -37.790464),True
15907454,"109 Wilson Street Carlton, North, VIC 3054",144.970609,-37.788716,POINT (144.970609 -37.788716),True
9583070,"89 Lancefield Drive Caroline, Springs, VIC 3023",144.737764,-37.709673,POINT (144.737764 -37.709673),True
10107561,"89 Lancefield Drive Caroline, Springs, VIC 3023",144.737764,-37.709673,POINT (144.737764 -37.709673),True
15569892,"5 Lorimer Street Caroline, Springs, VIC 3023",144.747779,-37.734183,POINT (144.747779 -37.734183),True
15845172,"73 Lake Street Caroline, Springs, VIC 3023",144.744061,-37.729433,POINT (144.744061 -37.729433),True
15855479,"Caesia Way Caroline, Springs, VIC 3023",144.745908,-37.737437,POINT (144.745908 -37.737437),True
15880134,"11 Commercial Road Caroline, Springs, VIC 3023",144.744061,-37.729433,POINT (144.744061 -37.729433),True
15883791,"76 The Esplanade Caroline, Springs, VIC 3023",144.74427,-37.734634,POINT (144.74427 -37.734634),True
15886012,"Springlake Avenue Caroline, Springs, VIC 3023",144.731315,-37.749454,POINT (144.731315 -37.749454),True
15886580,"Kai Close Caroline, Springs, VIC 3023",144.738603,-37.723809,POINT (144.738603 -37.723809),True
15886636,"Springlake Avenue Caroline, Springs, VIC 3023",144.731315,-37.749454,POINT (144.731315 -37.749454),True
15887065,"Macklin Way Caroline, Springs, VIC 3023",144.740953,-37.743946,POINT (144.740953 -37.743946),True
15887303,"79 Lancefield Drive Caroline, Springs, VIC 3023",144.737354,-37.710429,POINT (144.737354 -37.710429),True
15888053,"Otway Green Caroline, Springs, VIC 3023",144.728802,-37.747183,POINT (144.728802 -37.747183),True
15889229,"Kai Close Caroline, Springs, VIC 3023",144.738603,-37.723809,POINT (144.738603 -37.723809),True
15890520,"77 Lancefield Drive Caroline, Springs, VIC 3023",144.736158,-37.710984,POINT (144.736158 -37.710984),True
15890843,"Abbington Crescent Caroline, Springs, VIC 3023",144.745394,-37.74149,POINT (144.745394 -37.74149),True
15891375,"2 The Esplanade Caroline, Springs, VIC 3023",144.740744,-37.736201,POINT (144.740744 -37.736201),True
15892266,"Edgebaston Parade Caroline, Springs, VIC 3023",144.738097,-37.73406,POINT (144.738097 -37.73406),True
15894097,"Castlemaine Way Caroline, Springs, VIC 3023",144.748051,-37.75274,POINT (144.748051 -37.75274),True
15896316,"Duneira Grove Caroline, Springs, VIC 3023",144.733601,-37.71711,POINT (144.733601 -37.71711),True
15019098,"28 Charles Street, Cheltenham, VIC 3192",145.062339,-37.972689,POINT (145.062339 -37.972689),True
15754302,"3 Chesterville Road, Cheltenham, VIC 3192",145.056151,-37.961836,POINT (145.056151 -37.961836),True
15848047,"May Street, Cheltenham, VIC 3192",145.052308,-37.961103,POINT (145.052308 -37.961103),True
15852949,"39 Centre Dandenong Road, Cheltenham, VIC 3192",145.062565,-37.965818,POINT (145.062565 -37.965818),True
15854015,"105 Park Road, Cheltenham, VIC 3192",145.048989,-37.964204,POINT (145.048989 -37.964204),True
15857653,"11 Follett Road, Cheltenham, VIC 3192",145.06864,-37.970531,POINT (145.06864 -37.970531),True
15860273,"3 Stanley Avenue, Cheltenham, VIC 3192",145.055764,-37.968165,POINT (145.055764 -37.968165),True
15872229,"Eden Street, Cheltenham, VIC 3192",145.060246,-37.971462,POINT (145.060246 -37.971462),True
15874414,"Paul Street, Cheltenham, VIC 3192",145.047504,-37.962133,POINT (145.047504 -37.962133),True
15876193,"117 Park Road, Cheltenham, VIC 3192",145.050251,-37.964585,POINT (145.050251 -37.964585),True
15879091,"65 Bernard Street, Cheltenham, VIC 3192",145.066209,-37.953629,POINT (145.066209 -37.953629),True
15883260,"96 Cavanagh Street, Cheltenham, VIC 3192",145.066825,-37.956739,POINT (145.066825 -37.956739),True
15884368,"10 Park Road, Cheltenham, VIC 3192",145.056472,-37.965663,POINT (145.056472 -37.965663),True
15885336,"4 Janice Street, Cheltenham, VIC 3192",145.064727,-37.964053,POINT (145.064727 -37.964053),True
15885357,"Mena Avenue, Cheltenham, VIC 3192",145.069881,-37.96905,POINT (145.069881 -37.96905),True
15890153,"4 Argus Street, Cheltenham, VIC 3192",145.057708,-37.958712,POINT (145.057708 -37.958712),True
15891246,"19a Davie Avenue, Cheltenham, VIC 3192",145.046116,-37.957839,POINT (145.046116 -37.957839),True
15892215,"Bay Road, Cheltenham, VIC 3192",145.064727,-37.964053,POINT (145.064727 -37.964053),True
15893975,"Benkel Avenue, Cheltenham, VIC 3192",145.085226,-37.965188,POINT (145.085226 -37.965188),True
12646717,"14c Knight Street Clayton, South, VIC 3169",145.114755,-37.930887,POINT (145.114755 -37.930887),True
14585851,"36 Oakes Avenue Clayton, South, VIC 3169",145.132717,-37.935828,POINT (145.132717 -37.935828),True
15135493,"2c Helena Street Clayton, South, VIC 3169",145.123921,-37.932451,POINT (145.123921 -37.932451),True
15189063,"1430 Centre Road Clayton, South, VIC 3169",145.129523,-37.930023,POINT (145.129523 -37.930023),True
15215175,"474a Haughton Road Clayton, South, VIC 3169",145.130537,-37.932809,POINT (145.130537 -37.932809),True
15548695,"Merlyn Avenue Clayton, South, VIC 3169",145.116034,-37.935663,POINT (145.116034 -37.935663),True
15834040,"Newport Road Clayton, South, VIC 3169",145.115148,-37.932507,POINT (145.115148 -37.932507),True
15866311,"18 Lomandra Drive Clayton, South, VIC 3169",145.126329,-37.929689,POINT (145.126329 -37.929689),True
15882928,"5 Burns Avenue Clayton, South, VIC 3169",145.134298,-37.936779,POINT (145.134298 -37.936779),True
15899620,"689 Heatherton Road Clayton, South, VIC 3169",145.132254,-37.959498,POINT (145.132254 -37.959498),True
15909495,"Glencannon Crescent Clayton, South, VIC 3169",145.114736,-37.936363,POINT (145.114736 -37.936363),True
15910988,"9 Hayden Road Clayton, South, VIC 3169",145.134591,-37.958113,POINT (145.134591 -37.958113),True
15919931,"Warraweena Road Clayton, South, VIC 3169",145.113297,-37.941226,POINT (145.113297 -37.941226),True
15943841,"1 Main Road Clayton, South, VIC 3169",145.128369,-37.931662,POINT (145.128369 -37.931662),True
15947071,"15 Oakes Avenue Clayton, South, VIC 3169",145.129654,-37.935136,POINT (145.129654 -37.935136),True
15948227,"488 Haughton Road Clayton, South, VIC 3169",145.131936,-37.933864,POINT (145.131936 -37.933864),True
15950525,"17 Tennyson Avenue Clayton, South, VIC 3169",145.129869,-37.934142,POINT (145.129869 -37.934142),True
15955788,"28 Manoon Road Clayton, South, VIC 3169",145.112445,-37.930003,POINT (145.112445 -37.930003),True
15962991,"Clarevale Street Clayton, South, VIC 3169",145.12252,-37.93433,POINT (145.12252 -37.93433),True
15964297,"Rosebank Avenue Clayton, South, VIC 3169",145.133732,-37.939716,POINT (145.133732 -37.939716),True
14292596,"Thoroughbred Drive Clyde, North, VIC 3978",145.354085,-38.149821,POINT (145.354085 -38.149821),True
15103250,"Moroak Crescent Clyde, North, VIC 3978",145.354085,-38.149821,POINT (145.354085 -38.149821),True
15113608,"Savage Way Clyde, North, VIC 3978",145.354085,-38.149821,POINT (145.354085 -38.149821),True
