property_id,address,longitude,latitude,coordinates,geocode_success
15295193,"51 Gordon Street, Footscray, VIC 3011",144.889952,-37.791139,POINT (144.889952 -37.791139),True
15624467,"Cirque Drive, Footscray, VIC 3011",144.896622,-37.79868,POINT (144.896622 -37.79868),True
15726089,"10 Stanlake Street, Footscray, VIC 3011",144.884333,-37.791939,POINT (144.884333 -37.791939),True
15754757,"42 Whitehall Street, Footscray, VIC 3011",144.905187,-37.802479,POINT (144.905187 -37.802479),True
15802091,"2 Saltriver Place, Footscray, VIC 3011",144.908234,-37.801644,POINT (144.908234 -37.801644),True
15812256,"48 Cowper Street, Footscray, VIC 3011",144.90233,-37.806019,POINT (144.90233 -37.806019),True
15816862,"90 Buckley Street, Footscray, VIC 3011",144.894428,-37.803433,POINT (144.894428 -37.803433),True
15818702,"109 Creswick Street, Footscray, VIC 3011",144.890916,-37.797653,POINT (144.890916 -37.797653),True
15819588,"9 Hewitt Avenue, Footscray, VIC 3011",144.8806,-37.799674,POINT (144.8806 -37.799674),True
15821031,"Southampton Street, Footscray, VIC 3011",144.886077,-37.796257,POINT (144.886077 -37.796257),True
15824941,"4 Joseph Road, Footscray, VIC 3011",144.909552,-37.80034,POINT (144.909552 -37.80034),True
15826672,"43 Ballarat Road, Footscray, VIC 3011",144.905203,-37.795223,POINT (144.905203 -37.795223),True
15828870,"56 Everard Street, Footscray, VIC 3011",144.885199,-37.796753,POINT (144.885199 -37.796753),True
15831866,"9 Hewitt Avenue, Footscray, VIC 3011",144.8806,-37.799674,POINT (144.8806 -37.799674),True
15832041,"2 John Street, Footscray, VIC 3011",144.889003,-37.8018,POINT (144.889003 -37.8018),True
15833239,"1 Moreland Street, Footscray, VIC 3011",144.908234,-37.801644,POINT (144.908234 -37.801644),True
15833286,"Donald Street, Footscray, VIC 3011",144.903587,-37.798394,POINT (144.903587 -37.798394),True
15834914,"2 Joseph Road, Footscray, VIC 3011",144.909552,-37.80034,POINT (144.909552 -37.80034),True
15834988,"31 Eldridge Street, Footscray, VIC 3011",144.892885,-37.788298,POINT (144.892885 -37.788298),True
15839522,"93 Droop Street, Footscray, VIC 3011",144.894838,-37.794308,POINT (144.894838 -37.794308),True
15295354,"1 Acacia Place, Abbotsford, VIC 3067",145.013796,-37.811419,POINT (145.013796 -37.811419),True
15302378,"16 Trenerry Crescent, Abbotsford, VIC 3067",145.000185,-37.799751,POINT (145.000185 -37.799751),True
15692820,"84 Stafford Street, Abbotsford, VIC 3067",144.996631,-37.800806,POINT (144.996631 -37.800806),True
15932920,"14 Trenerry Crescent, Abbotsford, VIC 3067",145.002003,-37.799639,POINT (145.002003 -37.799639),True
15934559,"Studley Street, Abbotsford, VIC 3067",144.995133,-37.801421,POINT (144.995133 -37.801421),True
15934650,"88 Trenerry Crescent, Abbotsford, VIC 3067",144.998184,-37.79793,POINT (144.998184 -37.79793),True
15935244,"631 Victoria Street, Abbotsford, VIC 3067",145.007942,-37.811123,POINT (145.007942 -37.811123),True
15935425,"4 Acacia Place, Abbotsford, VIC 3067",145.014143,-37.811772,POINT (145.014143 -37.811772),True
15935648,"609 Victoria Street, Abbotsford, VIC 3067",145.007942,-37.811123,POINT (145.007942 -37.811123),True
15936139,"1 Acacia Place, Abbotsford, VIC 3067",145.013796,-37.811419,POINT (145.013796 -37.811419),True
15939405,"631 Victoria Street, Abbotsford, VIC 3067",145.007942,-37.811123,POINT (145.007942 -37.811123),True
15942192,"20 Shamrock Street, Abbotsford, VIC 3067",145.008213,-37.810154,POINT (145.008213 -37.810154),True
15942469,"627 Victoria Street, Abbotsford, VIC 3067",145.009655,-37.811201,POINT (145.009655 -37.811201),True
15943468,"627 Victoria Street, Abbotsford, VIC 3067",145.009655,-37.811201,POINT (145.009655 -37.811201),True
15947166,"4 Acacia Place, Abbotsford, VIC 3067",145.014143,-37.811772,POINT (145.014143 -37.811772),True
15948487,"63 William Street, Abbotsford, VIC 3067",144.997321,-37.807932,POINT (144.997321 -37.807932),True
15949196,"88 Trenerry Crescent, Abbotsford, VIC 3067",144.998184,-37.79793,POINT (144.998184 -37.79793),True
15949860,"13 Acacia Place, Abbotsford, VIC 3067",145.014143,-37.811772,POINT (145.014143 -37.811772),True
15950381,"4 Acacia Place, Abbotsford, VIC 3067",145.014143,-37.811772,POINT (145.014143 -37.811772),True
15956021,"43 Abbotsford Street, Abbotsford, VIC 3067",145.000152,-37.802065,POINT (145.000152 -37.802065),True
15803546,"9 Faussett Street Albert, Park, VIC 3206",144.955302,-37.841676,POINT (144.955302 -37.841676),True
15850223,"Draper Street Albert, Park, VIC 3206",144.96905,-37.844014,POINT (144.96905 -37.844014),True
15914080,"Reed Street Albert, Park, VIC 3206",144.946609,-37.845676,POINT (144.946609 -37.845676),True
15934715,"122 Beaconsfield Parade Albert, Park, VIC 3206",144.950892,-37.848601,POINT (144.950892 -37.848601),True
15934716,"122 Beaconsfield Parade Albert, Park, VIC 3206",144.950892,-37.848601,POINT (144.950892 -37.848601),True
15937254,"Merton Street Albert, Park, VIC 3206",144.954604,-37.843333,POINT (144.954604 -37.843333),True
15942526,"Richardson Street Albert, Park, VIC 3206",144.956499,-37.846759,POINT (144.956499 -37.846759),True
15943923,"Page Street Albert, Park, VIC 3206",144.951612,-37.846447,POINT (144.951612 -37.846447),True
15949757,"105 Merton Street Albert, Park, VIC 3206",144.955435,-37.844591,POINT (144.955435 -37.844591),True
15951887,"176a Victoria Avenue Albert, Park, VIC 3206",144.948413,-37.847164,POINT (144.948413 -37.847164),True
15952515,"122 Beaconsfield Parade Albert, Park, VIC 3206",144.950892,-37.848601,POINT (144.950892 -37.848601),True
15952518,"122 Beaconsfield Parade Albert, Park, VIC 3206",144.950892,-37.848601,POINT (144.950892 -37.848601),True
15952858,"Greig Street Albert, Park, VIC 3206",144.949834,-37.841479,POINT (144.949834 -37.841479),True
15952860,"Greig Street Albert, Park, VIC 3206",144.949834,-37.841479,POINT (144.949834 -37.841479),True
15955431,"Kerferd Place Albert, Park, VIC 3206",144.957546,-37.842142,POINT (144.957546 -37.842142),True
15956770,"Boyd Street Albert, Park, VIC 3206",144.955732,-37.847168,POINT (144.955732 -37.847168),True
15956837,"Draper Street Albert, Park, VIC 3206",144.96905,-37.844014,POINT (144.96905 -37.844014),True
15961597,"Kerferd Road Albert, Park, VIC 3206",144.954658,-37.84598,POINT (144.954658 -37.84598),True
15962807,"Graham Street Albert, Park, VIC 3206",144.94696,-37.843896,POINT (144.94696 -37.843896),True
15962817,"84 Beaconsfield Parade Albert, Park, VIC 3206",144.947874,-37.847125,POINT (144.947874 -37.847125),True
14369114,"Opal Street, Alfredton, VIC 3350",143.819151,-37.552989,POINT (143.819151 -37.552989),True
14470769,"Caligari Way, Alfredton, VIC 3350",143.792856,-37.55456,POINT (143.792856 -37.55456),True
15057611,"41 Longley Street, Alfredton, VIC 3350",143.816898,-37.559813,POINT (143.816898 -37.559813),True
15856381,"Verdale Street, Alfredton, VIC 3350",143.819151,-37.552989,POINT (143.819151 -37.552989),True
15858045,"4 Learmonth Street, Alfredton, VIC 3350",143.812666,-37.554017,POINT (143.812666 -37.554017),True
15864886,"Cuthberts Road, Alfredton, VIC 3350",143.799338,-37.553631,POINT (143.799338 -37.553631),True
15866248,"Cuzens Road, Alfredton, VIC 3350",143.788595,-37.559413,POINT (143.788595 -37.559413),True
15866971,"84 Vale Street, Alfredton, VIC 3350",143.814856,-37.561867,POINT (143.814856 -37.561867),True
15870556,"Topaz Street, Alfredton, VIC 3350",143.792182,-37.558209,POINT (143.792182 -37.558209),True
15871300,"Dublin Street, Alfredton, VIC 3350",143.819151,-37.552989,POINT (143.819151 -37.552989),True
15875783,"Walter Drive, Alfredton, VIC 3350",143.819151,-37.552989,POINT (143.819151 -37.552989),True
15883524,"Mullingar Drive, Alfredton, VIC 3350",143.819151,-37.552989,POINT (143.819151 -37.552989),True
15883682,"Munro Street, Alfredton, VIC 3350",143.814539,-37.555849,POINT (143.814539 -37.555849),True
15883829,"5 Longley Street, Alfredton, VIC 3350",143.817804,-37.556354,POINT (143.817804 -37.556354),True
15885800,"Sienna Street, Alfredton, VIC 3350",143.790048,-37.558384,POINT (143.790048 -37.558384),True
15886886,"Cavan Grove, Alfredton, VIC 3350",143.798196,-37.567398,POINT (143.798196 -37.567398),True
15890691,"Creekstone Drive, Alfredton, VIC 3350",143.788426,-37.556981,POINT (143.788426 -37.556981),True
15892190,"Belltower Avenue, Alfredton, VIC 3350",143.790033,-37.54483,POINT (143.790033 -37.54483),True
15893662,"Whitely Crescent, Alfredton, VIC 3350",143.787908,-37.551465,POINT (143.787908 -37.551465),True
15894529,"Vale Street, Alfredton, VIC 3350",143.816164,-37.554843,POINT (143.816164 -37.554843),True
13016506,"Ararat Street Altona, North, VIC 3025",144.862326,-37.838634,POINT (144.862326 -37.838634),True
14640686,"Cyclamen Avenue Altona, North, VIC 3025",144.852805,-37.828436,POINT (144.852805 -37.828436),True
15019414,"Cyclamen Avenue Altona, North, VIC 3025",144.852805,-37.828436,POINT (144.852805 -37.828436),True
15612294,"16 Mitchell Avenue Altona, North, VIC 3025",144.86139,-37.836473,POINT (144.86139 -37.836473),True
15827113,"62b Second Avenue Altona, North, VIC 3025",144.853612,-37.836867,POINT (144.853612 -37.836867),True
15889107,"85b First Avenue Altona, North, VIC 3025",144.854828,-37.833022,POINT (144.854828 -37.833022),True
15895949,"Marion Street Altona, North, VIC 3025",144.85356,-37.835425,POINT (144.85356 -37.835425),True
15902979,"Shellard Street Altona, North, VIC 3025",144.834706,-37.837835,POINT (144.834706 -37.837835),True
15903616,"Fifth Avenue Altona, North, VIC 3025",144.850692,-37.835223,POINT (144.850692 -37.835223),True
15910325,"5 Little Street Altona, North, VIC 3025",144.858405,-37.838141,POINT (144.858405 -37.838141),True
15919785,"1b Conway Court Altona, North, VIC 3025",144.846955,-37.829668,POINT (144.846955 -37.829668),True
15928107,"10a Freemans Road Altona, North, VIC 3025",144.838973,-37.82909,POINT (144.838973 -37.82909),True
15929283,"Hatherley Grove Altona, North, VIC 3025",144.850834,-37.844687,POINT (144.850834 -37.844687),True
15929617,"90 Second Avenue Altona, North, VIC 3025",144.853811,-37.836138,POINT (144.853811 -37.836138),True
15935313,"Fourth Avenue Altona, North, VIC 3025",144.850814,-37.84054,POINT (144.850814 -37.84054),True
15953249,"9 Langshaw Street Altona, North, VIC 3025",144.8476,-37.826261,POINT (144.8476 -37.826261),True
15953488,"7 Prentice Street Altona, North, VIC 3025",144.862949,-37.841812,POINT (144.862949 -37.841812),True
15958224,"Millers Road Altona, North, VIC 3025",144.845628,-37.845351,POINT (144.845628 -37.845351),True
15960750,"30 Mitchell Avenue Altona, North, VIC 3025",144.86175,-37.835616,POINT (144.86175 -37.835616),True
15960779,"47 Marion Street Altona, North, VIC 3025",144.85505,-37.835755,POINT (144.85505 -37.835755),True
15209100,"5 Beveridge Street, Ararat, VIC 3377",142.929778,-37.276613,POINT (142.929778 -37.276613),True
15385439,"Lowe Street, Ararat, VIC 3377",142.930144,-37.277252,POINT (142.930144 -37.277252),True
15819734,"48 King Street, Ararat, VIC 3377",142.937251,-37.282815,POINT (142.937251 -37.282815),True
15820194,"Grano Street, Ararat, VIC 3377",142.953986,-37.276934,POINT (142.953986 -37.276934),True
15843858,"Moore Street, Ararat, VIC 3377",142.93144,-37.284872,POINT (142.93144 -37.284872),True
15846041,"15a Barkly Street West, Ararat, VIC 3377",142.917845,-37.287408,POINT (142.917845 -37.287408),True
15852398,"Pyrenees Highway, Ararat, VIC 3377",142.931959,-37.281735,POINT (142.931959 -37.281735),True
15861423,"Queen Street, Ararat, VIC 3377",142.934152,-37.28419,POINT (142.934152 -37.28419),True
15862220,"20 Acacia Avenue, Ararat, VIC 3377",142.924493,-37.274453,POINT (142.924493 -37.274453),True
15868742,"130 Lambert Street, Ararat, VIC 3377",142.920954,-37.269328,POINT (142.920954 -37.269328),True
15871420,"355 Barkly Street, Ararat, VIC 3377",142.946095,-37.285139,POINT (142.946095 -37.285139),True
15873427,"9 Scherger Crescent, Ararat, VIC 3377",142.917026,-37.284455,POINT (142.917026 -37.284455),True
15876761,"View Point Street, Ararat, VIC 3377",142.926017,-37.284459,POINT (142.926017 -37.284459),True
15878272,"12a Wilmot Street, Ararat, VIC 3377",142.922916,-37.27882,POINT (142.922916 -37.27882),True
15878337,"Princes Street, Ararat, VIC 3377",142.938772,-37.28766,POINT (142.938772 -37.28766),True
15883623,"8d Temple Street, Ararat, VIC 3377",142.930469,-37.289577,POINT (142.930469 -37.289577),True
15884172,"Barkly Street West, Ararat, VIC 3377",142.934419,-37.284545,POINT (142.934419 -37.284545),True
15885733,"Banksia Street, Ararat, VIC 3377",142.930809,-37.285003,POINT (142.930809 -37.285003),True
15886236,"41 Princes Street, Ararat, VIC 3377",142.939194,-37.283804,POINT (142.939194 -37.283804),True
15892353,"2 Beveridge Street, Ararat, VIC 3377",142.930085,-37.276812,POINT (142.930085 -37.276812),True
15401463,"Munro Avenue, Ashburton, VIC 3147",145.075384,-37.868746,POINT (145.075384 -37.868746),True
15799670,"Chamberlain Street, Ashburton, VIC 3147",145.072361,-37.869537,POINT (145.072361 -37.869537),True
15875187,"Nicholas Street, Ashburton, VIC 3147",145.076267,-37.872263,POINT (145.076267 -37.872263),True
15895716,"Mernda Avenue, Ashburton, VIC 3147",145.080853,-37.867288,POINT (145.080853 -37.867288),True
15916869,"9 Sunderland Avenue, Ashburton, VIC 3147",145.091271,-37.86989,POINT (145.091271 -37.86989),True
15920223,"53a Warner Avenue, Ashburton, VIC 3147",145.085983,-37.870146,POINT (145.085983 -37.870146),True
15925398,"19a Welfare Parade, Ashburton, VIC 3147",145.082522,-37.860741,POINT (145.082522 -37.860741),True
15925650,"Cyril Street, Ashburton, VIC 3147",145.090613,-37.863761,POINT (145.090613 -37.863761),True
15944173,"Boyle Street, Ashburton, VIC 3147",145.07291,-37.86845,POINT (145.07291 -37.86845),True
15949571,"40 Victory Boulevard, Ashburton, VIC 3147",145.082007,-37.868321,POINT (145.082007 -37.868321),True
15950286,"81a Ashburn Grove, Ashburton, VIC 3147",145.079698,-37.870572,POINT (145.079698 -37.870572),True
15951157,"12 Tobruk Road, Ashburton, VIC 3147",145.087328,-37.866412,POINT (145.087328 -37.866412),True
15957427,"Cumming Street, Burwood, VIC 3125",145.112584,-37.85529,POINT (145.112584 -37.85529),True
15957857,"313 High Street, Ashburton, VIC 3147",145.092829,-37.864972,POINT (145.092829 -37.864972),True
15959619,"Solway Street, Ashburton, VIC 3147",145.071216,-37.873793,POINT (145.071216 -37.873793),True
15960938,"Bates Street Malvern, East, VIC 3145",145.043973,-37.873889,POINT (145.043973 -37.873889),True
15961032,"74 Finch Street Malvern, East, VIC 3145",145.043957,-37.869157,POINT (145.043957 -37.869157),True
15799179,"34 Nepean Highway, Aspendale, VIC 3195",145.091814,-38.014476,POINT (145.091814 -38.014476),True
15836728,"Bona Vista Avenue, Aspendale, VIC 3195",145.102677,-38.022243,POINT (145.102677 -38.022243),True
15841211,"Sophia Avenue, Aspendale, VIC 3195",145.099203,-38.024016,POINT (145.099203 -38.024016),True
15865085,"7 Parkview Drive, Aspendale, VIC 3195",145.100928,-38.021462,POINT (145.100928 -38.021462),True
15865496,"125 Station Street, Aspendale, VIC 3195",145.101781,-38.025924,POINT (145.101781 -38.025924),True
15902630,"35 Nepean Highway, Aspendale, VIC 3195",145.091835,-38.014534,POINT (145.091835 -38.014534),True
15918728,"75 Barkly Street, Mordialloc, VIC 3195",145.089702,-38.005112,POINT (145.089702 -38.005112),True
15933125,"34 Nepean Highway, Aspendale, VIC 3195",145.091814,-38.014476,POINT (145.091814 -38.014476),True
15934400,"Marabou Place, Aspendale, VIC 3195",145.104983,-38.027454,POINT (145.104983 -38.027454),True
15935688,"123 Mcdonald St, Mordialloc, VIC 3195",145.098614,-38.000919,POINT (145.098614 -38.000919),True
15941007,"20 Station Street, Aspendale, VIC 3195",145.093342,-38.013905,POINT (145.093342 -38.013905),True
15941219,"Gale Street, Aspendale, VIC 3195",145.09953,-38.017575,POINT (145.09953 -38.017575),True
15948193,"34 Nepean Highway, Aspendale, VIC 3195",145.091814,-38.014476,POINT (145.091814 -38.014476),True
15949381,"113 Nepean Highway, Aspendale, VIC 3195",145.100083,-38.024662,POINT (145.100083 -38.024662),True
15950363,"122 Nepean Highway, Aspendale, VIC 3195",145.100422,-38.025199,POINT (145.100422 -38.025199),True
15951900,"126 Nepean Highway, Aspendale, VIC 3195",145.100628,-38.025599,POINT (145.100628 -38.025599),True
15953231,"7 Governor Road, Mordialloc, VIC 3195",145.093436,-38.009624,POINT (145.093436 -38.009624),True
15953256,"20 Warrigal Road, Parkdale, VIC 3195",145.070352,-37.992322,POINT (145.070352 -37.992322),True
11173543,"27 Elm Grove, Balaclava, VIC 3183",144.996653,-37.875163,POINT (144.996653 -37.875163),True
13296116,"William Street, Balaclava, VIC 3183",144.994023,-37.870698,POINT (144.994023 -37.870698),True
15232931,"Alfred St, Balaclava, VIC 3183",144.992591,-37.867681,POINT (144.992591 -37.867681),True
15386833,"Alfred Street, Balaclava, VIC 3183",144.992591,-37.867681,POINT (144.992591 -37.867681),True
15643796,"Nelson Street, Balaclava, VIC 3183",144.993679,-37.866748,POINT (144.993679 -37.866748),True
15767108,"William Street, Balaclava, VIC 3183",144.994023,-37.870698,POINT (144.994023 -37.870698),True
15793599,"20 Orange Grove, Balaclava, VIC 3183",144.996637,-37.8678,POINT (144.996637 -37.8678),True
15803903,"15 Gourlay Street, Balaclava, VIC 3183",144.99551,-37.872476,POINT (144.99551 -37.872476),True
15831489,"5b The Avenue Avenue, Balaclava, VIC 3183",144.994832,-37.870129,POINT (144.994832 -37.870129),True
15840422,"56 William Street, Balaclava, VIC 3183",144.994156,-37.871668,POINT (144.994156 -37.871668),True
15841496,"40 Gourlay Street, Balaclava, VIC 3183",144.996517,-37.87229,POINT (144.996517 -37.87229),True
15851539,"307 Inkerman Street, Balaclava, VIC 3183",144.994461,-37.865931,POINT (144.994461 -37.865931),True
15866546,"52 William Street, Balaclava, VIC 3183",144.99413,-37.871371,POINT (144.99413 -37.871371),True
15866826,"45 Grosvenor Street, Balaclava, VIC 3183",144.992342,-37.872508,POINT (144.992342 -37.872508),True
15873622,"28 The Avenue, Balaclava, VIC 3183",144.996767,-37.871398,POINT (144.996767 -37.871398),True
15876920,"305 Carlisle Street, Balaclava, VIC 3183",144.998426,-37.869551,POINT (144.998426 -37.869551),True
15879409,"20 Carlisle Avenue, Balaclava, VIC 3183",144.996077,-37.870827,POINT (144.996077 -37.870827),True
15882187,"145a Hotham Street, Balaclava, VIC 3183",144.99849,-37.873247,POINT (144.99849 -37.873247),True
15884901,"Alfred St, Balaclava, VIC 3183",144.992591,-37.867681,POINT (144.992591 -37.867681),True
15886509,"Bowen Street, Balaclava, VIC 3183",144.990853,-37.871541,POINT (144.990853 -37.871541),True
13605923,"Howe Street Miners, Rest, VIC 3352",143.805899,-37.502464,POINT (143.805899 -37.502464),True
15825803,"Dante Crescent, Bonshaw, VIC 3352",143.813312,-37.603313,POINT (143.813312 -37.603313),True
15835948,"Yolanda Street, Bonshaw, VIC 3352",143.820946,-37.597518,POINT (143.820946 -37.597518),True
15860409,"Dahlia Street, Bonshaw, VIC 3352",143.820183,-37.596258,POINT (143.820183 -37.596258),True
15868697,"Lowry Crescent Miners, Rest, VIC 3352",143.808824,-37.504233,POINT (143.808824 -37.504233),True
15875404,"Pettett Close Miners, Rest, VIC 3352",143.804569,-37.495534,POINT (143.804569 -37.495534),True
14203388,"414 Norman Street Ballarat, North, VIC 3350",143.865819,-37.537036,POINT (143.865819 -37.537036),True
14767853,"O Shannassy Parade, Lucas, VIC 3350",143.480452,-37.014348,POINT (143.480452 -37.014348),True
15229585,"Lake View Court Ballarat, North, VIC 3350",143.876512,-37.541027,POINT (143.876512 -37.541027),True
15919873,"1120 Havelock Street Ballarat, North, VIC 3350",143.868316,-37.538214,POINT (143.868316 -37.538214),True
15930493,"Pages Court Mount, Clear, VIC 3350",143.869307,-37.598153,POINT (143.869307 -37.598153),True
15936389,"Ripon Street Ballarat, Central, VIC 3350",143.841397,-37.560048,POINT (143.841397 -37.560048),True
15946861,"Ligar Street Ballarat, North, VIC 3350",143.86412,-37.541979,POINT (143.86412 -37.541979),True
15946863,"402 Norman Street Ballarat, North, VIC 3350",143.867111,-37.537191,POINT (143.867111 -37.537191),True
15947789,"Estrella Avenue, Bonshaw, VIC 3352",143.813312,-37.603313,POINT (143.813312 -37.603313),True
15964870,"905 Lydiard Street North Street Ballarat, North, VIC 3350",143.870166,-37.539639,POINT (143.870166 -37.539639),True
15964910,"Margaret Avenue Ballarat, North, VIC 3350",143.875447,-37.542597,POINT (143.875447 -37.542597),True
15966891,"Drummond Street South Ballarat, Central, VIC 3350",143.847238,-37.561867,POINT (143.847238 -37.561867),True
15967617,"Christine Avenue, Alfredton, VIC 3350",143.801938,-37.551366,POINT (143.801938 -37.551366),True
15967620,"5 Penfold Close, Canadian, VIC 3350",143.87617,-37.591245,POINT (143.87617 -37.591245),True
15967657,"Mimosa Avenue, Alfredton, VIC 3350",143.803666,-37.551418,POINT (143.803666 -37.551418),True
15968071,"Eyre Street Ballarat, Central, VIC 3350",143.85041,-37.565463,POINT (143.85041 -37.565463),True
15968224,"Monash Place, Canadian, VIC 3350",143.867726,-37.591505,POINT (143.867726 -37.591505),True
15968265,"Talbot Street South Ballarat, Central, VIC 3350",143.842705,-37.561403,POINT (143.842705 -37.561403),True
15968386,"Kent Street Ballarat, Central, VIC 3350",143.839617,-37.563148,POINT (143.839617 -37.563148),True
15115940,"10 King Street, Balwyn, VIC 3103",145.065839,-37.806253,POINT (145.065839 -37.806253),True
15189539,"362 Belmore Road, Balwyn, VIC 3103",145.103941,-37.802697,POINT (145.103941 -37.802697),True
15297633,"7 Caravan Street, Balwyn, VIC 3103",145.096838,-37.805591,POINT (145.096838 -37.805591),True
15855342,"62 Metung Street, Balwyn, VIC 3103",145.071215,-37.803033,POINT (145.071215 -37.803033),True
15887325,"52 Maud Street, Balwyn, VIC 3103",145.081537,-37.810875,POINT (145.081537 -37.810875),True
15896708,"Yerrin Street, Balwyn, VIC 3103",145.085264,-37.807042,POINT (145.085264 -37.807042),True
15906954,"4 Raynes Street, Balwyn, VIC 3103",145.087768,-37.806267,POINT (145.087768 -37.806267),True
15908221,"188 Whitehorse Road, Balwyn, VIC 3103",145.075864,-37.812351,POINT (145.075864 -37.812351),True
15911958,"Nott Street, Balwyn, VIC 3103",145.077042,-37.806625,POINT (145.077042 -37.806625),True
15913290,"27 Weir Street, Balwyn, VIC 3103",145.083385,-37.81534,POINT (145.083385 -37.81534),True
15921467,"123 Gordon Street, Balwyn, VIC 3103",145.075798,-37.808436,POINT (145.075798 -37.808436),True
15922931,"340 Whitehorse Road, Balwyn, VIC 3103",145.086075,-37.813576,POINT (145.086075 -37.813576),True
15928028,"342 Whitehorse Road, Balwyn, VIC 3103",145.086261,-37.813598,POINT (145.086261 -37.813598),True
15937582,"30 Jersey Street, Balwyn, VIC 3103",145.076851,-37.812923,POINT (145.076851 -37.812923),True
15937771,"2a Brenbeal Street, Balwyn, VIC 3103",145.087109,-37.812802,POINT (145.087109 -37.812802),True
15939664,"188 Whitehorse Road, Balwyn, VIC 3103",145.075864,-37.812351,POINT (145.075864 -37.812351),True
15943745,"12 Yarrbat Avenue, Balwyn, VIC 3103",145.08373,-37.809913,POINT (145.08373 -37.809913),True
15949662,"188 Whitehorse Road, Balwyn, VIC 3103",145.075864,-37.812351,POINT (145.075864 -37.812351),True
15952498,"188 Whitehorse Road, Balwyn, VIC 3103",145.075864,-37.812351,POINT (145.075864 -37.812351),True
15956170,"180 Whitehorse Road, Balwyn, VIC 3103",145.0748,-37.812273,POINT (145.0748 -37.812273),True
13471408,"5a Sweyn Street Balwyn, North, VIC 3104",145.099787,-37.796208,POINT (145.099787 -37.796208),True
14751408,"279 Balwyn Road Balwyn, North, VIC 3104",145.084946,-37.791501,POINT (145.084946 -37.791501),True
15758581,"Lexton Street Balwyn, North, VIC 3104",145.06736,-37.800788,POINT (145.06736 -37.800788),True
15819514,"Longview Road Balwyn, North, VIC 3104",145.078079,-37.787455,POINT (145.078079 -37.787455),True
15838194,"Balwyn Road Balwyn, North, VIC 3104",145.084861,-37.794675,POINT (145.084861 -37.794675),True
15838543,"Cityview Road Balwyn, North, VIC 3104",145.079604,-37.785637,POINT (145.079604 -37.785637),True
15855995,"Kenny Street Balwyn, North, VIC 3104",145.094022,-37.800008,POINT (145.094022 -37.800008),True
15864762,"Maud Street Balwyn, North, VIC 3104",145.065006,-37.794428,POINT (145.065006 -37.794428),True
15871076,"Moule Avenue Balwyn, North, VIC 3104",145.102289,-37.798874,POINT (145.102289 -37.798874),True
15871493,"13 Greythorn Road Balwyn, North, VIC 3104",145.09974,-37.79124,POINT (145.09974 -37.79124),True
15878690,"5 Dumblane Street Balwyn, North, VIC 3104",145.090947,-37.790416,POINT (145.090947 -37.790416),True
15879627,"Kelvinside Street Balwyn, North, VIC 3104",145.094073,-37.783359,POINT (145.094073 -37.783359),True
15885331,"Sutton Street Balwyn, North, VIC 3104",145.082652,-37.795481,POINT (145.082652 -37.795481),True
15887252,"68 Aylmer Street Balwyn, North, VIC 3104",145.067263,-37.799476,POINT (145.067263 -37.799476),True
15888391,"48 Alpha Street Balwyn, North, VIC 3104",145.096039,-37.799297,POINT (145.096039 -37.799297),True
15889223,"Koonung Street Balwyn, North, VIC 3104",145.099509,-37.787427,POINT (145.099509 -37.787427),True
15891410,"Sunburst Avenue Balwyn, North, VIC 3104",145.074961,-37.7912,POINT (145.074961 -37.7912),True
15893523,"7 Maud Street Balwyn, North, VIC 3104",145.065231,-37.794284,POINT (145.065231 -37.794284),True
15899379,"4 Luena Road Balwyn, North, VIC 3104",145.09932,-37.803938,POINT (145.09932 -37.803938),True
11270869,"25 Noble Street Barwon, Heads, VIC 3227",144.489767,-38.275712,POINT (144.489767 -38.275712),True
15785000,"Heron Crescent Barwon, Heads, VIC 3227",144.493002,-38.266629,POINT (144.493002 -38.266629),True
15790840,"Sheepwash Road Barwon, Heads, VIC 3227",144.488564,-38.274283,POINT (144.488564 -38.274283),True
15804294,"38 Reid Street Barwon, Heads, VIC 3227",144.48941,-38.278818,POINT (144.48941 -38.278818),True
15810134,"3 Tremont Court Barwon, Heads, VIC 3227",144.493421,-38.270632,POINT (144.493421 -38.270632),True
15899209,"Bostock Avenue Barwon, Heads, VIC 3227",144.487767,-38.284752,POINT (144.487767 -38.284752),True
15905213,"Golightly Street Barwon, Heads, VIC 3227",144.492437,-38.283113,POINT (144.492437 -38.283113),True
15907014,"Ewing Blyth Drive Barwon, Heads, VIC 3227",144.49352,-38.28307,POINT (144.49352 -38.28307),True
15918350,"Sheepwash Road Barwon, Heads, VIC 3227",144.488564,-38.274283,POINT (144.488564 -38.274283),True
15935319,"22 George Street Barwon, Heads, VIC 3227",144.488344,-38.283782,POINT (144.488344 -38.283782),True
15940168,"2b Clifford Parade Barwon, Heads, VIC 3227",144.491037,-38.280845,POINT (144.491037 -38.280845),True
15945584,"Wattle Bird Crescent Barwon, Heads, VIC 3227",144.493316,-38.265779,POINT (144.493316 -38.265779),True
15945944,"Von Nida Avenue Barwon, Heads, VIC 3227",144.485606,-38.278847,POINT (144.485606 -38.278847),True
15946604,"32 Margate Street Barwon, Heads, VIC 3227",144.493791,-38.276797,POINT (144.493791 -38.276797),True
15947540,"Wattle Bird Crescent Barwon, Heads, VIC 3227",144.493316,-38.265779,POINT (144.493316 -38.265779),True
15951528,"Punt Road Barwon, Heads, VIC 3227",144.490223,-38.27743,POINT (144.490223 -38.27743),True
15959938,"7 Thorn Street Barwon, Heads, VIC 3227",144.491485,-38.276827,POINT (144.491485 -38.276827),True
15960409,"45 Wattlebird Crescent Barwon, Heads, VIC 3227",144.490803,-38.276351,POINT (144.490803 -38.276351),True
15964610,"Sheepwash Road Barwon, Heads, VIC 3227",144.488564,-38.274283,POINT (144.488564 -38.274283),True
14773454,"Mccomb Crescent, Bayswater, VIC 3153",145.270567,-37.852026,POINT (145.270567 -37.852026),True
15802613,"Lemon Grove, Bayswater, VIC 3153",145.257373,-37.843165,POINT (145.257373 -37.843165),True
15848731,"Maple Street, Bayswater, VIC 3153",145.261916,-37.845613,POINT (145.261916 -37.845613),True
15901338,"13 Highmoor Avenue, Bayswater, VIC 3153",145.264409,-37.843825,POINT (145.264409 -37.843825),True
15905549,"45 King Street, Bayswater, VIC 3153",145.264125,-37.836992,POINT (145.264125 -37.836992),True
15914289,"21 King Street, Bayswater, VIC 3153",145.265947,-37.83845,POINT (145.265947 -37.83845),True
15929009,"627 Mountain Highway, Bayswater, VIC 3153",145.258221,-37.84197,POINT (145.258221 -37.84197),True
15932974,"Belot Close, Bayswater, VIC 3153",145.252495,-37.840969,POINT (145.252495 -37.840969),True
15938624,"Grieve Street, Bayswater, VIC 3153",145.257899,-37.850311,POINT (145.257899 -37.850311),True
15941449,"Susan Street, Bayswater, VIC 3153",145.251619,-37.847267,POINT (145.251619 -37.847267),True
15943057,"King Street, Bayswater, VIC 3153",145.266167,-37.838434,POINT (145.266167 -37.838434),True
15946691,"18 View Road, Bayswater, VIC 3153",145.262079,-37.839886,POINT (145.262079 -37.839886),True
15947863,"16 John Street, Bayswater, VIC 3153",145.264089,-37.845961,POINT (145.264089 -37.845961),True
15949335,"411 Boronia Road, Bayswater, VIC 3153",145.253361,-37.855597,POINT (145.253361 -37.855597),True
15949555,"2c Maida Avenue, Bayswater, VIC 3153",145.260673,-37.838847,POINT (145.260673 -37.838847),True
15952244,"3 Jeanette Street, Bayswater, VIC 3153",145.256726,-37.855876,POINT (145.256726 -37.855876),True
15955014,"Carramar Court, Bayswater, VIC 3153",145.251687,-37.854278,POINT (145.251687 -37.854278),True
15955302,"16 Orchard Road, Bayswater, VIC 3153",145.260957,-37.839092,POINT (145.260957 -37.839092),True
15957044,"2 Wallace Avenue, Bayswater, VIC 3153",145.261376,-37.848893,POINT (145.261376 -37.848893),True
15958361,"1a Pine Rd, Bayswater, VIC 3153",145.267023,-37.84447,POINT (145.267023 -37.84447),True
15376764,"78a Vines Road Hamlyn, Heights, VIC 3215",144.327814,-38.122072,POINT (144.327814 -38.122072),True
15820110,"Eagle Parade, Norlane, VIC 3214",144.348753,-38.089023,POINT (144.348753 -38.089023),True
15951910,"Sparks Road, Norlane, VIC 3214",144.356814,-38.091473,POINT (144.356814 -38.091473),True
15952176,"Ernest Street Bell Post, Hill, VIC 3215",144.327165,-38.100526,POINT (144.327165 -38.100526),True
15960144,"Donnelly Avenue, Norlane, VIC 3214",144.360991,-38.093847,POINT (144.360991 -38.093847),True
15962142,"4 Willana Avenue Hamlyn, Heights, VIC 3215",144.332511,-38.119543,POINT (144.332511 -38.119543),True
15962165,"Graham Street Hamlyn, Heights, VIC 3215",144.338107,-38.126466,POINT (144.338107 -38.126466),True
15963007,"Zinnia Street, Norlane, VIC 3214",144.365873,-38.085929,POINT (144.365873 -38.085929),True
15965444,"Spruhan Avenue, Norlane, VIC 3214",144.359574,-38.094591,POINT (144.359574 -38.094591),True
12981625,"Saleyards Road, Benalla, VIC 3672",145.992958,-36.537659,POINT (145.992958 -36.537659),True
12981632,"Gay Street, Benalla, VIC 3672",145.996369,-36.541806,POINT (145.996369 -36.541806),True
15167976,"37a Hannah Street, Benalla, VIC 3672",145.985143,-36.543028,POINT (145.985143 -36.543028),True
15302776,"9 Hannah Street, Benalla, VIC 3672",145.982338,-36.543432,POINT (145.982338 -36.543432),True
15508261,"Bridge Street West, Benalla, VIC 3672",145.979814,-36.553178,POINT (145.979814 -36.553178),True
15519547,"Harrison Avenue, Benalla, VIC 3672",145.977063,-36.556364,POINT (145.977063 -36.556364),True
15719421,"Warrenbayne West Road Via, Benalla, VIC 3672",145.994526,-36.54653,POINT (145.994526 -36.54653),True
15796440,"Smythe Street, Benalla, VIC 3672",145.988002,-36.549759,POINT (145.988002 -36.549759),True
15846466,"Byrne Street, Benalla, VIC 3672",145.988151,-36.546351,POINT (145.988151 -36.546351),True
15857073,"7a Davey Street, Benalla, VIC 3672",145.972026,-36.552685,POINT (145.972026 -36.552685),True
15862675,"Egmont Street, Benalla, VIC 3672",145.974995,-36.559017,POINT (145.974995 -36.559017),True
15897267,"89 Faithfull Street, Benalla, VIC 3672",145.964806,-36.545904,POINT (145.964806 -36.545904),True
15903212,"Waller Street, Benalla, VIC 3672",145.973439,-36.561207,POINT (145.973439 -36.561207),True
9147035,"Black Street, Bendigo, VIC 3550",144.27957,-36.757608,POINT (144.27957 -36.757608),True
11172804,"39 Milroy Street, Bendigo, VIC 3550",144.267771,-36.747857,POINT (144.267771 -36.747857),True
11548867,"Queen Street, Bendigo, VIC 3550",144.280395,-36.76131,POINT (144.280395 -36.76131),True
11683121,"Uley Street, Bendigo, VIC 3550",144.285803,-36.748989,POINT (144.285803 -36.748989),True
12819875,"18 Comet Street, Bendigo, VIC 3550",144.27957,-36.757608,POINT (144.27957 -36.757608),True
15099292,"Baxter Street, Bendigo, VIC 3550",144.284268,-36.752791,POINT (144.284268 -36.752791),True
15664088,"87 Arnold Street, Bendigo, VIC 3550",144.283764,-36.750798,POINT (144.283764 -36.750798),True
15762212,"King Street, Bendigo, VIC 3550",144.272103,-36.768227,POINT (144.272103 -36.768227),True
15773704,"Queen Street, Bendigo, VIC 3550",144.280395,-36.76131,POINT (144.280395 -36.76131),True
15823337,"Wills Street, Bendigo, VIC 3550",144.27481,-36.767243,POINT (144.27481 -36.767243),True
15833503,"King Street, Bendigo, VIC 3550",144.272103,-36.768227,POINT (144.272103 -36.768227),True
15852679,"13 Mitchell Street, Bendigo, VIC 3550",144.279105,-36.75999,POINT (144.279105 -36.75999),True
15863532,"Bramble Street, Bendigo, VIC 3550",144.287119,-36.759809,POINT (144.287119 -36.759809),True
15872413,"83 Arnold Street, Bendigo, VIC 3550",144.283764,-36.750798,POINT (144.283764 -36.750798),True
15878450,"15 Abbott Street, Bendigo, VIC 3550",144.28854,-36.761427,POINT (144.28854 -36.761427),True
15879867,"Don Street, Bendigo, VIC 3550",144.26887,-36.759872,POINT (144.26887 -36.759872),True
15883875,"Milroy Street, Bendigo, VIC 3550",144.272106,-36.750087,POINT (144.272106 -36.750087),True
15885460,"Rosalind Street, Bendigo, VIC 3550",144.276475,-36.753245,POINT (144.276475 -36.753245),True
15885537,"Havlin Street East, Bendigo, VIC 3550",144.318562,-36.740236,POINT (144.318562 -36.740236),True
11855632,"8b Stringybark Court, Berwick, VIC 3806",145.32406,-38.026059,POINT (145.32406 -38.026059),True
12699928,"Hardy Court, Berwick, VIC 3806",145.329708,-38.02775,POINT (145.329708 -38.02775),True
13164211,"Soldiers Road, Berwick, VIC 3806",145.358033,-38.051231,POINT (145.358033 -38.051231),True
13711940,"Angelique Street, Berwick, VIC 3806",145.349527,-38.071229,POINT (145.349527 -38.071229),True
15863676,"26 Palmerston Street, Berwick, VIC 3806",145.357931,-38.033583,POINT (145.357931 -38.033583),True
15865521,"Kate Elizabeth Avenue, Berwick, VIC 3806",145.324549,-38.042732,POINT (145.324549 -38.042732),True
15865820,"Bangalay Place, Berwick, VIC 3806",145.324717,-38.021339,POINT (145.324717 -38.021339),True
15875931,"Prime Court, Berwick, VIC 3806",145.33266,-38.045503,POINT (145.33266 -38.045503),True
15878719,"Don Collins Way, Berwick, VIC 3806",145.336013,-38.067647,POINT (145.336013 -38.067647),True
15886002,"Bishop Place, Berwick, VIC 3806",145.354265,-38.066011,POINT (145.354265 -38.066011),True
15887772,"36 Peel Street, Berwick, VIC 3806",145.351684,-38.030726,POINT (145.351684 -38.030726),True
15888804,"Jarryd Crescent, Berwick, VIC 3806",145.359838,-38.054432,POINT (145.359838 -38.054432),True
15888929,"York Road, Berwick, VIC 3806",145.340468,-38.029531,POINT (145.340468 -38.029531),True
15891325,"Scanlan Street, Berwick, VIC 3806",145.353116,-38.033244,POINT (145.353116 -38.033244),True
15893069,"Stefan Drive, Berwick, VIC 3806",145.337039,-38.044965,POINT (145.337039 -38.044965),True
15893966,"Hardy Court, Berwick, VIC 3806",145.329708,-38.02775,POINT (145.329708 -38.02775),True
15895331,"6 Jerilderie Drive, Berwick, VIC 3806",145.325142,-38.01448,POINT (145.325142 -38.01448),True
15895365,"Earlston Square, Berwick, VIC 3806",145.350691,-38.051206,POINT (145.350691 -38.051206),True
15896129,"9 Reserve Street, Berwick, VIC 3806",145.344243,-38.036071,POINT (145.344243 -38.036071),True
15896281,"Tally Court, Berwick, VIC 3806",145.326079,-38.01393,POINT (145.326079 -38.01393),True
15675953,"5 Lithgow Avenue, Blackburn, VIC 3130",145.146339,-37.818521,POINT (145.146339 -37.818521),True
15830703,"4 Station Street, Blackburn, VIC 3130",145.15004,-37.818066,POINT (145.15004 -37.818066),True
15877205,"160 Whitehorse Road, Blackburn, VIC 3130",145.15629,-37.817938,POINT (145.15629 -37.817938),True
15917683,"160 Whitehorse Road, Blackburn, VIC 3130",145.15629,-37.817938,POINT (145.15629 -37.817938),True
15919324,"300 Middleborough Road, Blackburn, VIC 3130",145.13661,-37.829782,POINT (145.13661 -37.829782),True
15921854,"2 Hillside Crescent, Blackburn, VIC 3130",145.139346,-37.821591,POINT (145.139346 -37.821591),True
15924578,"Whitehorse Road, Blackburn, VIC 3130",145.155251,-37.817697,POINT (145.155251 -37.817697),True
15924799,"42 Maple Street, Blackburn, VIC 3130",145.158961,-37.815207,POINT (145.158961 -37.815207),True
15926320,"160 Whitehorse Road, Blackburn, VIC 3130",145.15629,-37.817938,POINT (145.15629 -37.817938),True
15927081,"Linden Street, Blackburn, VIC 3130",145.162203,-37.816564,POINT (145.162203 -37.816564),True
15934796,"20 Queen Street, Blackburn, VIC 3130",145.151056,-37.819286,POINT (145.151056 -37.819286),True
15935751,"160 Whitehorse Road, Blackburn, VIC 3130",145.15629,-37.817938,POINT (145.15629 -37.817938),True
15936161,"17 John Street, Blackburn, VIC 3130",145.153462,-37.813684,POINT (145.153462 -37.813684),True
15937098,"2 Queen Street, Blackburn, VIC 3130",145.151285,-37.818112,POINT (145.151285 -37.818112),True
15937428,"18 Queen Street, Blackburn, VIC 3130",145.151099,-37.81906,POINT (145.151099 -37.81906),True
15940572,"160 Whitehorse Road, Blackburn, VIC 3130",145.15629,-37.817938,POINT (145.15629 -37.817938),True
15941990,"34 Blackburn Road, Blackburn, VIC 3130",145.152416,-37.822182,POINT (145.152416 -37.822182),True
15943305,"462 Middleborough Road, Blackburn, VIC 3130",145.138423,-37.819964,POINT (145.138423 -37.819964),True
15946777,"18 Queen Street, Blackburn, VIC 3130",145.151099,-37.81906,POINT (145.151099 -37.81906),True
15950976,"Downing Street, Blackburn, VIC 3130",145.145724,-37.818583,POINT (145.145724 -37.818583),True
15431636,"36 Olive Grove, Boronia, VIC 3155",145.292219,-37.854377,POINT (145.292219 -37.854377),True
15764468,"11 Paton Crescent, Boronia, VIC 3155",145.270701,-37.862534,POINT (145.270701 -37.862534),True
15925568,"14a Dinsdale Road, Boronia, VIC 3155",145.258623,-37.860622,POINT (145.258623 -37.860622),True
15933100,"17 Torrens Avenue, Boronia, VIC 3155",145.288237,-37.864891,POINT (145.288237 -37.864891),True
15942331,"13 Mcdonald Crescent, Boronia, VIC 3155",145.299272,-37.853955,POINT (145.299272 -37.853955),True
15943580,"Shirley Court, Boronia, VIC 3155",145.292412,-37.868276,POINT (145.292412 -37.868276),True
15944235,"15a Woodvale Road, Boronia, VIC 3155",145.276616,-37.864504,POINT (145.276616 -37.864504),True
15951574,"Casuarina Avenue, Boronia, VIC 3155",145.301051,-37.848747,POINT (145.301051 -37.848747),True
15951802,"4 Miller Road, Boronia, VIC 3155",145.298953,-37.853555,POINT (145.298953 -37.853555),True
15951874,"2a Paton Crescent, Boronia, VIC 3155",145.27032,-37.861393,POINT (145.27032 -37.861393),True
15952650,"Jaffa Court, Boronia, VIC 3155",145.270376,-37.854228,POINT (145.270376 -37.854228),True
15955227,"3 Tulip Crescent, Boronia, VIC 3155",145.27938,-37.862829,POINT (145.27938 -37.862829),True
15959208,"9 Norwich Street, Boronia, VIC 3155",145.276813,-37.856349,POINT (145.276813 -37.856349),True
15960616,"127 Power Road, Boronia, VIC 3155",145.282627,-37.856062,POINT (145.282627 -37.856062),True
15963244,"Tolhurst Avenue, Boronia, VIC 3155",145.304435,-37.843415,POINT (145.304435 -37.843415),True
15963849,"Elsie Street, Boronia, VIC 3155",145.290879,-37.856395,POINT (145.290879 -37.856395),True
15964975,"3 Malcolm Street, Boronia, VIC 3155",145.284188,-37.851629,POINT (145.284188 -37.851629),True
15965095,"11 Henry Street, Boronia, VIC 3155",145.283745,-37.8577,POINT (145.283745 -37.8577),True
15966028,"Rowson St, Boronia, VIC 3155",145.27527,-37.856482,POINT (145.27527 -37.856482),True
15966843,"40 Bambury Street, Boronia, VIC 3155",145.294002,-37.857738,POINT (145.294002 -37.857738),True
14703849,"35 Medway Street Box Hill, North, VIC 3129",145.128283,-37.812401,POINT (145.128283 -37.812401),True
15084312,"16 Lexton Road Box Hill, North, VIC 3129",145.134117,-37.812779,POINT (145.134117 -37.812779),True
15827047,"Springfield Road Box Hill, North, VIC 3129",145.130625,-37.805883,POINT (145.130625 -37.805883),True
15831597,"34 Severn Street Box Hill, North, VIC 3129",145.128854,-37.812847,POINT (145.128854 -37.812847),True
15861824,"Harrison Street Box Hill, North, VIC 3129",145.132541,-37.803104,POINT (145.132541 -37.803104),True
15879503,"Hillside Parade Box Hill, North, VIC 3129",145.119708,-37.809457,POINT (145.119708 -37.809457),True
15885214,"Trawool Street Box Hill, North, VIC 3129",145.134656,-37.806474,POINT (145.134656 -37.806474),True
15893592,"Medway Street Box Hill, North, VIC 3129",145.126206,-37.81165,POINT (145.126206 -37.81165),True
15896985,"114 Shannon Street Box Hill, North, VIC 3129",145.118097,-37.807007,POINT (145.118097 -37.807007),True
15903606,"Karen Street Box Hill, North, VIC 3129",145.139159,-37.803803,POINT (145.139159 -37.803803),True
15904615,"110a Nelson Road Box Hill, North, VIC 3129",145.120953,-37.809682,POINT (145.120953 -37.809682),True
15910474,"16 Medway Street Box Hill, North, VIC 3129",145.129928,-37.81192,POINT (145.129928 -37.81192),True
15914479,"20 Loraine Avenue Box Hill, North, VIC 3129",145.119942,-37.802594,POINT (145.119942 -37.802594),True
15915609,"66 Severn Street Box Hill, North, VIC 3129",145.123356,-37.812116,POINT (145.123356 -37.812116),True
15924163,"39 Medway Street Box Hill, North, VIC 3129",145.127946,-37.812035,POINT (145.127946 -37.812035),True
15925173,"83 Clyde Street Box Hill, North, VIC 3129",145.124742,-37.809458,POINT (145.124742 -37.809458),True
15925282,"Ovens Street Box Hill, North, VIC 3129",145.124595,-37.806841,POINT (145.124595 -37.806841),True
15933449,"84 Thames Street Box Hill, North, VIC 3129",145.122788,-37.813088,POINT (145.122788 -37.813088),True
15949591,"Toogoods Rise Box Hill, North, VIC 3129",145.139296,-37.801328,POINT (145.139296 -37.801328),True
15951186,"3 Regan Street Box Hill, North, VIC 3129",145.132706,-37.814379,POINT (145.132706 -37.814379),True
15760991,"Gallowburn Court Brown, Hill, VIC 3350",143.924523,-37.543672,POINT (143.924523 -37.543672),True
15796559,"115 Hopetoun Street Ballarat, East, VIC 3350",143.881666,-37.560249,POINT (143.881666 -37.560249),True
15833643,"Brophy Street Brown, Hill, VIC 3350",143.895603,-37.554501,POINT (143.895603 -37.554501),True
15854729,"Haines Street Brown, Hill, VIC 3350",143.886054,-37.555265,POINT (143.886054 -37.555265),True
15855829,"Elsworth Street Mount, Pleasant, VIC 3350",143.852591,-37.581624,POINT (143.852591 -37.581624),True
15856115,"120 Lewis Street Ballarat, Central, VIC 3350",143.858234,-37.562938,POINT (143.858234 -37.562938),True
15858227,"12a Ludbrook Court Brown, Hill, VIC 3350",143.902986,-37.55763,POINT (143.902986 -37.55763),True
15860820,"Rebellion Place Ballarat, East, VIC 3350",143.887306,-37.569961,POINT (143.887306 -37.569961),True
15871300,"Dublin Street, Alfredton, VIC 3350",143.819151,-37.552989,POINT (143.819151 -37.552989),True
15877469,"Ripon Street South, Redan, VIC 3350",143.838721,-37.57447,POINT (143.838721 -37.57447),True
15878577,"Raymond Crescent Brown, Hill, VIC 3350",143.903751,-37.552687,POINT (143.903751 -37.552687),True
15879777,"6 Bath Lane Ballarat, Central, VIC 3350",143.856996,-37.562471,POINT (143.856996 -37.562471),True
15879814,"Daylesford Road Brown, Hill, VIC 3350",143.918397,-37.550284,POINT (143.918397 -37.550284),True
15881375,"3 Colette Court, Canadian, VIC 3350",143.883509,-37.581771,POINT (143.883509 -37.581771),True
15881712,"8 Raglan Street South Ballarat, Central, VIC 3350",143.849995,-37.561908,POINT (143.849995 -37.561908),True
15881917,"Summit Crescent Brown, Hill, VIC 3350",143.905806,-37.552714,POINT (143.905806 -37.552714),True
15887132,"464 Wendouree Parade Lake, Wendouree, VIC 3350",143.832752,-37.543412,POINT (143.832752 -37.543412),True
15890900,"Gracefield Road Brown, Hill, VIC 3350",143.917252,-37.553673,POINT (143.917252 -37.553673),True
13658714,"460 Victoria Street, Brunswick, VIC 3056",144.950318,-37.765781,POINT (144.950318 -37.765781),True
15099012,"2b Loyola Avenue, Brunswick, VIC 3056",144.969811,-37.771968,POINT (144.969811 -37.771968),True
15251983,"6 Harvey Street, Brunswick, VIC 3056",144.956179,-37.773075,POINT (144.956179 -37.773075),True
15601896,"Rose Street, Brunswick, VIC 3056",144.952343,-37.757357,POINT (144.952343 -37.757357),True
15826105,"Victoria Street, Brunswick, VIC 3056",144.961005,-37.766605,POINT (144.961005 -37.766605),True
15832821,"160 Sydney Road, Brunswick, VIC 3056",144.961109,-37.774261,POINT (144.961109 -37.774261),True
15854171,"Allan Street, Brunswick, VIC 3056",144.96848,-37.773253,POINT (144.96848 -37.773253),True
15871641,"2b Loyola Avenue, Brunswick, VIC 3056",144.969811,-37.771968,POINT (144.969811 -37.771968),True
15875521,"124 Union Street, Brunswick, VIC 3056",144.95373,-37.77321,POINT (144.95373 -37.77321),True
15876038,"5 Union Street, Brunswick, VIC 3056",144.960024,-37.774311,POINT (144.960024 -37.774311),True
15876973,"67 Blyth Street, Brunswick, VIC 3056",144.968209,-37.765953,POINT (144.968209 -37.765953),True
15878203,"Mountfield Street, Brunswick, VIC 3056",144.967831,-37.762683,POINT (144.967831 -37.762683),True
15878365,"Minnie Street, Brunswick, VIC 3056",144.968592,-37.771271,POINT (144.968592 -37.771271),True
15878536,"756 Sydney Road, Brunswick, VIC 3056",144.963567,-37.759614,POINT (144.963567 -37.759614),True
15882741,"6 Sydney Road, Brunswick, VIC 3056",144.960709,-37.777546,POINT (144.960709 -37.777546),True
15883352,"34 Union Street, Brunswick, VIC 3056",144.958509,-37.773797,POINT (144.958509 -37.773797),True
15887395,"20 Cassells Road, Brunswick, VIC 3056",144.961005,-37.766605,POINT (144.961005 -37.766605),True
15893326,"Leithead Street, Brunswick, VIC 3056",144.970289,-37.76049,POINT (144.970289 -37.76049),True
15893400,"203 Brunswick Road, Brunswick, VIC 3056",144.963703,-37.777333,POINT (144.963703 -37.777333),True
15895903,"148 Brunswick Road, Brunswick, VIC 3056",144.963414,-37.777629,POINT (144.963414 -37.777629),True
15271314,"24 Barkly Street Brunswick, East, VIC 3057",144.975995,-37.777971,POINT (144.975995 -37.777971),True
15846781,"206 Lygon Street Brunswick, East, VIC 3057",144.971747,-37.772035,POINT (144.971747 -37.772035),True
15852800,"Holmes Street Brunswick, East, VIC 3057",144.978224,-37.76783,POINT (144.978224 -37.76783),True
15861810,"447a Lygon Street Brunswick, East, VIC 3057",144.970688,-37.778832,POINT (144.970688 -37.778832),True
15862358,"24 Barkly Street Brunswick, East, VIC 3057",144.975995,-37.777971,POINT (144.975995 -37.777971),True
15866731,"299 Lygon Street Brunswick, East, VIC 3057",144.970688,-37.778832,POINT (144.970688 -37.778832),True
15873742,"36 Holmes Street Brunswick, East, VIC 3057",144.974457,-37.760233,POINT (144.974457 -37.760233),True
15873773,"36 Holmes Street Brunswick, East, VIC 3057",144.974457,-37.760233,POINT (144.974457 -37.760233),True
15873839,"36 Holmes Street Brunswick, East, VIC 3057",144.974457,-37.760233,POINT (144.974457 -37.760233),True
15876231,"8 Lygon Street Brunswick, East, VIC 3057",144.970887,-37.778697,POINT (144.970887 -37.778697),True
15876911,"Barkly Street Brunswick, East, VIC 3057",144.970859,-37.777227,POINT (144.970859 -37.777227),True
15880500,"85 Nicholson Street Brunswick, East, VIC 3057",144.978791,-37.774668,POINT (144.978791 -37.774668),True
15881853,"Albion Street Brunswick, East, VIC 3057",144.979469,-37.762719,POINT (144.979469 -37.762719),True
15884444,"Lord Street Brunswick, East, VIC 3057",144.974637,-37.771447,POINT (144.974637 -37.771447),True
15885686,"9 Oconnor Street Brunswick, East, VIC 3057",144.972067,-37.773323,POINT (144.972067 -37.773323),True
15886268,"270 Lygon Street Brunswick, East, VIC 3057",144.972108,-37.770333,POINT (144.972108 -37.770333),True
15890776,"22 Barkly Street Brunswick, East, VIC 3057",144.976527,-37.778034,POINT (144.976527 -37.778034),True
15890860,"360 Lygon Street Brunswick, East, VIC 3057",144.972546,-37.767915,POINT (144.972546 -37.767915),True
15894113,"270 Lygon Street Brunswick, East, VIC 3057",144.972108,-37.770333,POINT (144.972108 -37.770333),True
15896370,"Clarke Street Brunswick, East, VIC 3057",144.974291,-37.774128,POINT (144.974291 -37.774128),True
15208495,"Settlement Road, Bundoora, VIC 3083",145.044471,-37.695436,POINT (145.044471 -37.695436),True
15513969,"1095 Plenty Road, Bundoora, VIC 3083",145.049591,-37.709573,POINT (145.049591 -37.709573),True
15850205,"Silverash Drive, Bundoora, VIC 3083",145.057058,-37.677997,POINT (145.057058 -37.677997),True
15859468,"Waxflower Cres, Bundoora, VIC 3083",145.056733,-37.678606,POINT (145.056733 -37.678606),True
15870922,"21 Plenty Road, Bundoora, VIC 3083",145.058499,-37.698153,POINT (145.058499 -37.698153),True
15873735,"Glennden Court, Bundoora, VIC 3083",145.079003,-37.700725,POINT (145.079003 -37.700725),True
15883114,"34 Princeton Terrace, Bundoora, VIC 3083",145.073101,-37.681521,POINT (145.073101 -37.681521),True
15884644,"1095 Plenty Road, Bundoora, VIC 3083",145.049591,-37.709573,POINT (145.049591 -37.709573),True
15885607,"Nova Circuit, Bundoora, VIC 3083",145.05051,-37.71163,POINT (145.05051 -37.71163),True
15886779,"1251 Plenty Road, Bundoora, VIC 3083",145.057767,-37.700548,POINT (145.057767 -37.700548),True
15888315,"12 Julie Street, Bundoora, VIC 3083",145.055635,-37.696172,POINT (145.055635 -37.696172),True
15889228,"Fenwick Court, Bundoora, VIC 3083",145.057414,-37.70535,POINT (145.057414 -37.70535),True
15889230,"Fenwick Court, Bundoora, VIC 3083",145.057414,-37.70535,POINT (145.057414 -37.70535),True
15890189,"1251 Plenty Road, Bundoora, VIC 3083",145.057767,-37.700548,POINT (145.057767 -37.700548),True
15890852,"11a Aldren Place, Bundoora, VIC 3083",145.051593,-37.690201,POINT (145.051593 -37.690201),True
15891585,"Tamara Court, Bundoora, VIC 3083",145.053288,-37.685185,POINT (145.053288 -37.685185),True
15892331,"Hermitage Crescent, Bundoora, VIC 3083",145.062627,-37.687123,POINT (145.062627 -37.687123),True
15892752,"Nova Circuit, Bundoora, VIC 3083",145.05051,-37.71163,POINT (145.05051 -37.71163),True
15892915,"1251 Plenty Road, Bundoora, VIC 3083",145.057767,-37.700548,POINT (145.057767 -37.700548),True
15893292,"83 Janefield Drive, Bundoora, VIC 3083",145.076424,-37.68075,POINT (145.076424 -37.68075),True
7065183,"187 Kooyong Rd Entry Facing Albany Rd, Toorak, VIC 3142",145.017324,-37.841049,POINT (145.017324 -37.841049),True
7530392,"11 River Street, Richmond, VIC 3121",145.013556,-37.815124,POINT (145.013556 -37.815124),True
10465730,"Lincoln Street, Richmond, VIC 3121",145.002534,-37.812876,POINT (145.002534 -37.812876),True
15335880,"8 Daly Street South, Yarra, VIC 3141",144.994691,-37.83777,POINT (144.994691 -37.83777),True
15889878,"589 Toorak Rd, Toorak, VIC 3142",145.017508,-37.841935,POINT (145.017508 -37.841935),True
15890065,"36 Cromwell Road South, Yarra, VIC 3141",145.000434,-37.843406,POINT (145.000434 -37.843406),True
15890138,"Tivoli Road South, Yarra, VIC 3141",144.998523,-37.837908,POINT (144.998523 -37.837908),True
15890707,"3 Barnsbury Road South, Yarra, VIC 3141",145.001155,-37.845311,POINT (145.001155 -37.845311),True
15890842,"120 Palmer Street, Richmond, VIC 3121",145.010269,-37.819499,POINT (145.010269 -37.819499),True
15891146,"44 Darling Street South, Yarra, VIC 3141",144.992065,-37.836054,POINT (144.992065 -37.836054),True
15891438,"79 River Street South, Yarra, VIC 3141",144.997567,-37.836334,POINT (144.997567 -37.836334),True
15891473,"23 Auburn Grove, Hawthorn, VIC 3122",145.031704,-37.822814,POINT (145.031704 -37.822814),True
15891492,"8 Lyndhurst Street, Richmond, VIC 3121",145.00054,-37.819275,POINT (145.00054 -37.819275),True
15891743,"1 Barnet Way, Richmond, VIC 3121",145.011819,-37.824697,POINT (145.011819 -37.824697),True
15891869,"74b Riversdale Road, Hawthorn, VIC 3122",145.032503,-37.828706,POINT (145.032503 -37.828706),True
15891974,"508 Glenferrie Road, Hawthorn, VIC 3122",145.034083,-37.830545,POINT (145.034083 -37.830545),True
15892147,"Glass Street, Richmond, VIC 3121",145.005033,-37.824613,POINT (145.005033 -37.824613),True
15893328,"7a Brook St, Hawthorn, VIC 3122",145.018954,-37.815504,POINT (145.018954 -37.815504),True
15893567,"Brighton Street, Richmond, VIC 3121",144.998618,-37.830904,POINT (144.998618 -37.830904),True
15893658,"Pine Street, Hawthorn, VIC 3122",145.021323,-37.813872,POINT (145.021323 -37.813872),True
14937595,"Travers Cres Burwood, East, VIC 3151",145.15438,-37.853991,POINT (145.15438 -37.853991),True
15292953,"15 Foundation Boulevard Burwood, East, VIC 3151",145.13533,-37.849861,POINT (145.13533 -37.849861),True
15346720,"Statesman Avenue Burwood, East, VIC 3151",145.150174,-37.850535,POINT (145.150174 -37.850535),True
15819001,"Sevenoaks Road Burwood, East, VIC 3151",145.156646,-37.856853,POINT (145.156646 -37.856853),True
15861781,"15 Foundation Boulevard Burwood, East, VIC 3151",145.13533,-37.849861,POINT (145.13533 -37.849861),True
15862279,"Christa Avenue Burwood, East, VIC 3151",145.155022,-37.850093,POINT (145.155022 -37.850093),True
15863200,"Foundation Boulevard Burwood, East, VIC 3151",145.135181,-37.851929,POINT (145.135181 -37.851929),True
15881074,"190 Holland Road Burwood, East, VIC 3151",145.149075,-37.849424,POINT (145.149075 -37.849424),True
15903677,"47 Tainton Road Burwood, East, VIC 3151",145.156883,-37.846681,POINT (145.156883 -37.846681),True
15907640,"Pippin Avenue Burwood, East, VIC 3151",145.149995,-37.851336,POINT (145.149995 -37.851336),True
15917590,"Rustic Avenue Burwood, East, VIC 3151",145.136505,-37.846865,POINT (145.136505 -37.846865),True
15918813,"Lindisfarne Drive Burwood, East, VIC 3151",145.150367,-37.855448,POINT (145.150367 -37.855448),True
15919574,"15 Foundation Boulevard Burwood, East, VIC 3151",145.13533,-37.849861,POINT (145.13533 -37.849861),True
15921122,"15 Redhill Avenue Burwood, East, VIC 3151",145.156172,-37.853967,POINT (145.156172 -37.853967),True
15929573,"15 Foundation Boulevard Burwood, East, VIC 3151",145.13533,-37.849861,POINT (145.13533 -37.849861),True
15931733,"Coventry Street Burwood, East, VIC 3151",145.157509,-37.859737,POINT (145.157509 -37.859737),True
15942240,"Robinlee Avenue Burwood, East, VIC 3151",145.158021,-37.851663,POINT (145.158021 -37.851663),True
15945308,"Blackburn Road Burwood, East, VIC 3151",145.152392,-37.850291,POINT (145.152392 -37.850291),True
15950021,"15 Foundation Boulevard Burwood, East, VIC 3151",145.13533,-37.849861,POINT (145.13533 -37.849861),True
15952392,"37 Ruby Street Burwood, East, VIC 3151",145.160393,-37.852665,POINT (145.160393 -37.852665),True
10652507,"Bayne Street North, Bendigo, VIC 3550",144.281707,-36.746013,POINT (144.281707 -36.746013),True
11786965,"9 Prouses Road North, Bendigo, VIC 3550",144.274979,-36.742206,POINT (144.274979 -36.742206),True
13268035,"1 Adelaide Street Flora, Hill, VIC 3550",144.288362,-36.784153,POINT (144.288362 -36.784153),True
15326708,"Pearce Street California, Gully, VIC 3556",144.267593,-36.729985,POINT (144.267593 -36.729985),True
15672908,"Midland Highway, Huntly, VIC 3551",144.330663,-36.667094,POINT (144.330663 -36.667094),True
15863810,"115 Wood Street California, Gully, VIC 3556",144.259779,-36.726989,POINT (144.259779 -36.726989),True
15879921,"Upper California Gully Road California, Gully, VIC 3556",144.251322,-36.731091,POINT (144.251322 -36.731091),True
15881559,"Oswald Street California, Gully, VIC 3556",144.269234,-36.721124,POINT (144.269234 -36.721124),True
15882353,"Wood Street California, Gully, VIC 3556",144.261332,-36.734194,POINT (144.261332 -36.734194),True
15882593,"Taylor St California, Gully, VIC 3556",144.251175,-36.737469,POINT (144.251175 -36.737469),True
15883034,"Meggs Ct California, Gully, VIC 3556",144.268075,-36.722549,POINT (144.268075 -36.722549),True
15883519,"61a Jobs Gully Rd California, Gully, VIC 3556",144.27023,-36.719567,POINT (144.27023 -36.719567),True
15884284,"Eaglewood Way California, Gully, VIC 3556",144.276673,-36.72218,POINT (144.276673 -36.72218),True
15889000,"Alliance Avenue California, Gully, VIC 3556",144.255458,-36.727488,POINT (144.255458 -36.727488),True
15895019,"Powells Avenue East, Bendigo, VIC 3550",144.318562,-36.740236,POINT (144.318562 -36.740236),True
15900416,"130c Upper California Gully Road California, Gully, VIC 3556",144.252976,-36.733439,POINT (144.252976 -36.733439),True
14036258,"Oberon Boulevard, Campbellfield, VIC 3061",144.968011,-37.680168,POINT (144.968011 -37.680168),True
15478062,"Winn Grove, Fawkner, VIC 3060",144.96658,-37.709242,POINT (144.96658 -37.709242),True
15505392,"1702 Sydney Road, Campbellfield, VIC 3061",144.956352,-37.675394,POINT (144.956352 -37.675394),True
15730509,"Lucerne Street, Campbellfield, VIC 3061",144.964428,-37.67819,POINT (144.964428 -37.67819),True
15763966,"2a Gentles Avenue, Campbellfield, VIC 3061",144.954775,-37.672343,POINT (144.954775 -37.672343),True
15915330,"Mutton Road, Fawkner, VIC 3060",144.968022,-37.713471,POINT (144.968022 -37.713471),True
15916984,"Mason Street, Campbellfield, VIC 3061",144.966747,-37.672148,POINT (144.966747 -37.672148),True
15920800,"14 Wattleglen Street, Craigieburn, VIC 3064",144.93354,-37.595093,POINT (144.93354 -37.595093),True
15927169,"Lorne Street, Fawkner, VIC 3060",144.975834,-37.716352,POINT (144.975834 -37.716352),True
15937422,"Bendigo Street, Mickleham, VIC 3064",144.900432,-37.533102,POINT (144.900432 -37.533102),True
15938229,"Wurruk Street, Fawkner, VIC 3060",144.970097,-37.71255,POINT (144.970097 -37.71255),True
15943850,"Rockfield Street, Epping, VIC 3076",145.010716,-37.629325,POINT (145.010716 -37.629325),True
15948572,"63a Argyle Street, Fawkner, VIC 3060",144.967433,-37.717429,POINT (144.967433 -37.717429),True
15953110,"Russell Street, Campbellfield, VIC 3061",144.951432,-37.668252,POINT (144.951432 -37.668252),True
15956312,"13 Church Street, Campbellfield, VIC 3061",144.959012,-37.675778,POINT (144.959012 -37.675778),True
15958748,"1 Mcdougall Street, Fawkner, VIC 3060",144.963643,-37.704838,POINT (144.963643 -37.704838),True
15716469,"1072 Lygon Street Carlton, North, VIC 3054",144.970591,-37.780529,POINT (144.970591 -37.780529),True
15881428,"Mcilwraith Street Carlton, North, VIC 3054",144.970609,-37.788716,POINT (144.970609 -37.788716),True
15887320,"Lee Street Carlton, North, VIC 3054",144.969365,-37.790936,POINT (144.969365 -37.790936),True
15888007,"Station Street Carlton, North, VIC 3054",144.975151,-37.790464,POINT (144.975151 -37.790464),True
15889085,"Station Street Carlton, North, VIC 3054",144.975151,-37.790464,POINT (144.975151 -37.790464),True
15890414,"Amess Street Carlton, North, VIC 3054",144.973877,-37.784589,POINT (144.973877 -37.784589),True
15890955,"Canning Street Carlton, North, VIC 3054",144.973959,-37.792002,POINT (144.973959 -37.792002),True
15894675,"1066 Lygon Street Carlton, North, VIC 3054",144.970529,-37.780955,POINT (144.970529 -37.780955),True
15898418,"Station Street Carlton, North, VIC 3054",144.975151,-37.790464,POINT (144.975151 -37.790464),True
15899755,"Fenwick Street Carlton, North, VIC 3054",144.969917,-37.787347,POINT (144.969917 -37.787347),True
15899879,"Mcilwraith Street Carlton, North, VIC 3054",144.970609,-37.788716,POINT (144.970609 -37.788716),True
15900611,"437 Nicholson Street Carlton, North, VIC 3054",144.976096,-37.789595,POINT (144.976096 -37.789595),True
15902821,"1086 Lygon Street Carlton, North, VIC 3054",144.97063,-37.780176,POINT (144.97063 -37.780176),True
15903099,"1072 Lygon St Carlton, North, VIC 3054",144.970591,-37.780529,POINT (144.970591 -37.780529),True
15903363,"1072 Lygon Street Carlton, North, VIC 3054",144.970591,-37.780529,POINT (144.970591 -37.780529),True
15904118,"Canning Street Carlton, North, VIC 3054",144.973959,-37.792002,POINT (144.973959 -37.792002),True
15904206,"Lygon Street Carlton, North, VIC 3054",144.968591,-37.791554,POINT (144.968591 -37.791554),True
15906106,"809 Rathdowne Street Carlton, North, VIC 3054",144.972278,-37.785523,POINT (144.972278 -37.785523),True
15907055,"Station Street Carlton, North, VIC 3054",144.975151,-37.790464,POINT (144.975151 -37.790464),True
15907454,"109 Wilson Street Carlton, North, VIC 3054",144.970609,-37.788716,POINT (144.970609 -37.788716),True
9583070,"89 Lancefield Drive Caroline, Springs, VIC 3023",144.737764,-37.709673,POINT (144.737764 -37.709673),True
10107561,"89 Lancefield Drive Caroline, Springs, VIC 3023",144.737764,-37.709673,POINT (144.737764 -37.709673),True
15569892,"5 Lorimer Street Caroline, Springs, VIC 3023",144.747779,-37.734183,POINT (144.747779 -37.734183),True
15845172,"73 Lake Street Caroline, Springs, VIC 3023",144.744061,-37.729433,POINT (144.744061 -37.729433),True
15855479,"Caesia Way Caroline, Springs, VIC 3023",144.745908,-37.737437,POINT (144.745908 -37.737437),True
15880134,"11 Commercial Road Caroline, Springs, VIC 3023",144.744061,-37.729433,POINT (144.744061 -37.729433),True
15883791,"76 The Esplanade Caroline, Springs, VIC 3023",144.74427,-37.734634,POINT (144.74427 -37.734634),True
15886012,"Springlake Avenue Caroline, Springs, VIC 3023",144.731315,-37.749454,POINT (144.731315 -37.749454),True
15886580,"Kai Close Caroline, Springs, VIC 3023",144.738603,-37.723809,POINT (144.738603 -37.723809),True
15886636,"Springlake Avenue Caroline, Springs, VIC 3023",144.731315,-37.749454,POINT (144.731315 -37.749454),True
15887065,"Macklin Way Caroline, Springs, VIC 3023",144.740953,-37.743946,POINT (144.740953 -37.743946),True
15887303,"79 Lancefield Drive Caroline, Springs, VIC 3023",144.737354,-37.710429,POINT (144.737354 -37.710429),True
15888053,"Otway Green Caroline, Springs, VIC 3023",144.728802,-37.747183,POINT (144.728802 -37.747183),True
15889229,"Kai Close Caroline, Springs, VIC 3023",144.738603,-37.723809,POINT (144.738603 -37.723809),True
15890520,"77 Lancefield Drive Caroline, Springs, VIC 3023",144.736158,-37.710984,POINT (144.736158 -37.710984),True
15890843,"Abbington Crescent Caroline, Springs, VIC 3023",144.745394,-37.74149,POINT (144.745394 -37.74149),True
15891375,"2 The Esplanade Caroline, Springs, VIC 3023",144.740744,-37.736201,POINT (144.740744 -37.736201),True
15892266,"Edgebaston Parade Caroline, Springs, VIC 3023",144.738097,-37.73406,POINT (144.738097 -37.73406),True
15894097,"Castlemaine Way Caroline, Springs, VIC 3023",144.748051,-37.75274,POINT (144.748051 -37.75274),True
15896316,"Duneira Grove Caroline, Springs, VIC 3023",144.733601,-37.71711,POINT (144.733601 -37.71711),True
15019098,"28 Charles Street, Cheltenham, VIC 3192",145.062339,-37.972689,POINT (145.062339 -37.972689),True
15754302,"3 Chesterville Road, Cheltenham, VIC 3192",145.056151,-37.961836,POINT (145.056151 -37.961836),True
15848047,"May Street, Cheltenham, VIC 3192",145.052308,-37.961103,POINT (145.052308 -37.961103),True
15852949,"39 Centre Dandenong Road, Cheltenham, VIC 3192",145.062565,-37.965818,POINT (145.062565 -37.965818),True
15854015,"105 Park Road, Cheltenham, VIC 3192",145.048989,-37.964204,POINT (145.048989 -37.964204),True
15857653,"11 Follett Road, Cheltenham, VIC 3192",145.06864,-37.970531,POINT (145.06864 -37.970531),True
15860273,"3 Stanley Avenue, Cheltenham, VIC 3192",145.055764,-37.968165,POINT (145.055764 -37.968165),True
15872229,"Eden Street, Cheltenham, VIC 3192",145.060246,-37.971462,POINT (145.060246 -37.971462),True
15874414,"Paul Street, Cheltenham, VIC 3192",145.047504,-37.962133,POINT (145.047504 -37.962133),True
15876193,"117 Park Road, Cheltenham, VIC 3192",145.050251,-37.964585,POINT (145.050251 -37.964585),True
15879091,"65 Bernard Street, Cheltenham, VIC 3192",145.066209,-37.953629,POINT (145.066209 -37.953629),True
15883260,"96 Cavanagh Street, Cheltenham, VIC 3192",145.066825,-37.956739,POINT (145.066825 -37.956739),True
15884368,"10 Park Road, Cheltenham, VIC 3192",145.056472,-37.965663,POINT (145.056472 -37.965663),True
15885336,"4 Janice Street, Cheltenham, VIC 3192",145.064727,-37.964053,POINT (145.064727 -37.964053),True
15885357,"Mena Avenue, Cheltenham, VIC 3192",145.069881,-37.96905,POINT (145.069881 -37.96905),True
15890153,"4 Argus Street, Cheltenham, VIC 3192",145.057708,-37.958712,POINT (145.057708 -37.958712),True
15891246,"19a Davie Avenue, Cheltenham, VIC 3192",145.046116,-37.957839,POINT (145.046116 -37.957839),True
15892215,"Bay Road, Cheltenham, VIC 3192",145.064727,-37.964053,POINT (145.064727 -37.964053),True
15893975,"Benkel Avenue, Cheltenham, VIC 3192",145.085226,-37.965188,POINT (145.085226 -37.965188),True
12646717,"14c Knight Street Clayton, South, VIC 3169",145.114755,-37.930887,POINT (145.114755 -37.930887),True
14585851,"36 Oakes Avenue Clayton, South, VIC 3169",145.132717,-37.935828,POINT (145.132717 -37.935828),True
15135493,"2c Helena Street Clayton, South, VIC 3169",145.123921,-37.932451,POINT (145.123921 -37.932451),True
15189063,"1430 Centre Road Clayton, South, VIC 3169",145.129523,-37.930023,POINT (145.129523 -37.930023),True
15215175,"474a Haughton Road Clayton, South, VIC 3169",145.130537,-37.932809,POINT (145.130537 -37.932809),True
15548695,"Merlyn Avenue Clayton, South, VIC 3169",145.116034,-37.935663,POINT (145.116034 -37.935663),True
15834040,"Newport Road Clayton, South, VIC 3169",145.115148,-37.932507,POINT (145.115148 -37.932507),True
15866311,"18 Lomandra Drive Clayton, South, VIC 3169",145.126329,-37.929689,POINT (145.126329 -37.929689),True
15882928,"5 Burns Avenue Clayton, South, VIC 3169",145.134298,-37.936779,POINT (145.134298 -37.936779),True
15899620,"689 Heatherton Road Clayton, South, VIC 3169",145.132254,-37.959498,POINT (145.132254 -37.959498),True
15909495,"Glencannon Crescent Clayton, South, VIC 3169",145.114736,-37.936363,POINT (145.114736 -37.936363),True
15910988,"9 Hayden Road Clayton, South, VIC 3169",145.134591,-37.958113,POINT (145.134591 -37.958113),True
15919931,"Warraweena Road Clayton, South, VIC 3169",145.113297,-37.941226,POINT (145.113297 -37.941226),True
15943841,"1 Main Road Clayton, South, VIC 3169",145.128369,-37.931662,POINT (145.128369 -37.931662),True
15947071,"15 Oakes Avenue Clayton, South, VIC 3169",145.129654,-37.935136,POINT (145.129654 -37.935136),True
15948227,"488 Haughton Road Clayton, South, VIC 3169",145.131936,-37.933864,POINT (145.131936 -37.933864),True
15950525,"17 Tennyson Avenue Clayton, South, VIC 3169",145.129869,-37.934142,POINT (145.129869 -37.934142),True
15955788,"28 Manoon Road Clayton, South, VIC 3169",145.112445,-37.930003,POINT (145.112445 -37.930003),True
15962991,"Clarevale Street Clayton, South, VIC 3169",145.12252,-37.93433,POINT (145.12252 -37.93433),True
15964297,"Rosebank Avenue Clayton, South, VIC 3169",145.133732,-37.939716,POINT (145.133732 -37.939716),True
14292596,"Thoroughbred Drive Clyde, North, VIC 3978",145.354085,-38.149821,POINT (145.354085 -38.149821),True
15103250,"Moroak Crescent Clyde, North, VIC 3978",145.354085,-38.149821,POINT (145.354085 -38.149821),True
15113608,"Savage Way Clyde, North, VIC 3978",145.354085,-38.149821,POINT (145.354085 -38.149821),True
15909567,"Ritchie Drive Clyde, North, VIC 3978",145.354085,-38.149821,POINT (145.354085 -38.149821),True
15925724,"Sutil Drive Clyde, North, VIC 3978",145.354085,-38.149821,POINT (145.354085 -38.149821),True
15933866,"Spartan Avenue Clyde, North, VIC 3978",145.354085,-38.149821,POINT (145.354085 -38.149821),True
15934363,"Elsey Way Clyde, North, VIC 3978",145.354085,-38.149821,POINT (145.354085 -38.149821),True
15936668,"Marwedel Avenue Clyde, North, VIC 3978",145.354085,-38.149821,POINT (145.354085 -38.149821),True
15938165,"Panther Cl Clyde, North, VIC 3978",145.354085,-38.149821,POINT (145.354085 -38.149821),True
15939223,"Hallyburton Drive Clyde, North, VIC 3978",145.354085,-38.149821,POINT (145.354085 -38.149821),True
15940353,"Hacienda Lane Clyde, North, VIC 3978",145.354085,-38.149821,POINT (145.354085 -38.149821),True
15942961,"Wenn Avenue Clyde, North, VIC 3978",145.354085,-38.149821,POINT (145.354085 -38.149821),True
15943031,"Fenway Boulevard Clyde, North, VIC 3978",145.354085,-38.149821,POINT (145.354085 -38.149821),True
15944256,"Nunkeri Court Clyde, North, VIC 3978",145.354085,-38.149821,POINT (145.354085 -38.149821),True
15945226,"Lusitano Way Clyde, North, VIC 3978",145.354085,-38.149821,POINT (145.354085 -38.149821),True
15945736,"Catees Street Clyde, North, VIC 3978",145.354085,-38.149821,POINT (145.354085 -38.149821),True
15946582,"Aegean Street Clyde, North, VIC 3978",145.354085,-38.149821,POINT (145.354085 -38.149821),True
15947881,"Camolina Way Clyde, North, VIC 3978",145.354085,-38.149821,POINT (145.354085 -38.149821),True
15948203,"Langshan Road Clyde, North, VIC 3978",145.354085,-38.149821,POINT (145.354085 -38.149821),True
15952856,"Brightstone Drive Clyde, North, VIC 3978",145.354085,-38.149821,POINT (145.354085 -38.149821),True
15143985,"68 Cambridge Street, Collingwood, VIC 3066",144.985364,-37.806799,POINT (144.985364 -37.806799),True
15210621,"88 Cambridge Street, Collingwood, VIC 3066",144.985491,-37.806055,POINT (144.985491 -37.806055),True
15755157,"3 Hoddle Street, Collingwood, VIC 3066",144.991109,-37.808968,POINT (144.991109 -37.808968),True
15942042,"11 Wellington Street, Collingwood, VIC 3066",144.986264,-37.801398,POINT (144.986264 -37.801398),True
15942045,"11 Wellington Street, Collingwood, VIC 3066",144.986264,-37.801398,POINT (144.986264 -37.801398),True
15943095,"75 Wellington Street, Collingwood, VIC 3066",144.985904,-37.806387,POINT (144.985904 -37.806387),True
15943834,"Keele Street, Collingwood, VIC 3066",144.986987,-37.797113,POINT (144.986987 -37.797113),True
15944047,"Dight Street, Collingwood, VIC 3066",144.988625,-37.801654,POINT (144.988625 -37.801654),True
15945099,"10 Stanley Street, Collingwood, VIC 3066",144.984509,-37.801935,POINT (144.984509 -37.801935),True
15945497,"68 Cambridge Street, Collingwood, VIC 3066",144.985364,-37.806799,POINT (144.985364 -37.806799),True
15946128,"22 Stanley Street, Collingwood, VIC 3066",144.984817,-37.801967,POINT (144.984817 -37.801967),True
15947477,"Mason Street, Collingwood, VIC 3066",144.983847,-37.807925,POINT (144.983847 -37.807925),True
15949328,"432 Smith Street, Collingwood, VIC 3066",144.985062,-37.795685,POINT (144.985062 -37.795685),True
15951754,"Hotham Street, Collingwood, VIC 3066",144.988958,-37.796614,POINT (144.988958 -37.796614),True
15955608,"470 Smith Street, Collingwood, VIC 3066",144.985236,-37.794525,POINT (144.985236 -37.794525),True
15955895,"115 Oxford Street, Collingwood, VIC 3066",144.984784,-37.802616,POINT (144.984784 -37.802616),True
15958296,"31 Napoleon Street, Collingwood, VIC 3066",144.985977,-37.80209,POINT (144.985977 -37.80209),True
15959996,"50 Stanley Street, Collingwood, VIC 3066",144.985977,-37.80209,POINT (144.985977 -37.80209),True
15964207,"69 Little Oxford Street, Collingwood, VIC 3066",144.983626,-37.803879,POINT (144.983626 -37.803879),True
15965241,"107 Cambridge Street, Collingwood, VIC 3066",144.985039,-37.803526,POINT (144.985039 -37.803526),True
14663854,"5 Falmer Place, Craigieburn, VIC 3064",144.930421,-37.601609,POINT (144.930421 -37.601609),True
15872022,"Dianne Avenue, Craigieburn, VIC 3064",144.937466,-37.596504,POINT (144.937466 -37.596504),True
15892351,"Quebec Avenue, Craigieburn, VIC 3064",144.933042,-37.590804,POINT (144.933042 -37.590804),True
15892824,"11 Troward Harvey Way, Craigieburn, VIC 3064",144.932636,-37.576012,POINT (144.932636 -37.576012),True
15892987,"85 Punt Street, Craigieburn, VIC 3064",144.916873,-37.589989,POINT (144.916873 -37.589989),True
15893167,"Finden Court, Craigieburn, VIC 3064",144.924526,-37.590662,POINT (144.924526 -37.590662),True
15894323,"Rayfield Avenue, Craigieburn, VIC 3064",144.935198,-37.597273,POINT (144.935198 -37.597273),True
15894869,"Medway Rd, Craigieburn, VIC 3064",144.937183,-37.592054,POINT (144.937183 -37.592054),True
15895070,"Grattan Cove, Craigieburn, VIC 3064",144.916083,-37.588723,POINT (144.916083 -37.588723),True
15895383,"Findon Court, Craigieburn, VIC 3064",144.933042,-37.590804,POINT (144.933042 -37.590804),True
15896869,"Taylan Street, Craigieburn, VIC 3064",144.904521,-37.573747,POINT (144.904521 -37.573747),True
15897161,"Rivette Street, Craigieburn, VIC 3064",144.909046,-37.574516,POINT (144.909046 -37.574516),True
15897178,"Ivy Place, Craigieburn, VIC 3064",144.933042,-37.590804,POINT (144.933042 -37.590804),True
15898701,"Liewah Circuit, Craigieburn, VIC 3064",144.933042,-37.590804,POINT (144.933042 -37.590804),True
15898709,"Juscelina Drive, Craigieburn, VIC 3064",144.933042,-37.590804,POINT (144.933042 -37.590804),True
15899000,"25 Lygon Drive, Craigieburn, VIC 3064",144.917232,-37.59165,POINT (144.917232 -37.59165),True
15900004,"Clendon Way, Craigieburn, VIC 3064",144.92323,-37.569242,POINT (144.92323 -37.569242),True
15900197,"Fermont Avenue, Craigieburn, VIC 3064",144.913265,-37.58084,POINT (144.913265 -37.58084),True
15900596,"Braveheart Road, Craigieburn, VIC 3064",144.933042,-37.590804,POINT (144.933042 -37.590804),True
15901160,"Brambuk Avenue, Craigieburn, VIC 3064",144.922566,-37.570259,POINT (144.922566 -37.570259),True
10465752,"Codrington Street, Cranbourne, VIC 3977",145.285426,-38.109556,POINT (145.285426 -38.109556),True
12827534,"Woodright Circuit, Cranbourne, VIC 3977",145.261391,-38.112357,POINT (145.261391 -38.112357),True
14549961,"Lamont Crescent, Cranbourne, VIC 3977",145.270849,-38.098858,POINT (145.270849 -38.098858),True
15819476,"Clarendon Street, Cranbourne, VIC 3977",145.277272,-38.104919,POINT (145.277272 -38.104919),True
15859151,", Cranbourne, VIC 3977",145.291702,-38.137571,POINT (145.291702 -38.137571),True
15887216,"The Arcade, Cranbourne, VIC 3977",145.278456,-38.106398,POINT (145.278456 -38.106398),True
15936532,"Damian Court, Cranbourne, VIC 3977",145.274514,-38.096947,POINT (145.274514 -38.096947),True
15938234,"19 William Street, Cranbourne, VIC 3977",145.280384,-38.103219,POINT (145.280384 -38.103219),True
15941837,"20 Sarno Court, Cranbourne, VIC 3977",145.267694,-38.108757,POINT (145.267694 -38.108757),True
15945054,"Highview Avenue, Cranbourne, VIC 3977",145.280064,-38.096831,POINT (145.280064 -38.096831),True
15945357,"106 Clairmont Avenue, Cranbourne, VIC 3977",145.273418,-38.089211,POINT (145.273418 -38.089211),True
15945653,"Copley Street, Cranbourne, VIC 3977",145.257957,-38.11405,POINT (145.257957 -38.11405),True
15946404,"Chomley Street, Cranbourne, VIC 3977",145.268356,-38.09994,POINT (145.268356 -38.09994),True
15947707,"Mira Court, Cranbourne, VIC 3977",145.290336,-38.094094,POINT (145.290336 -38.094094),True
15949620,"Mayune Court, Cranbourne, VIC 3977",145.276388,-38.099651,POINT (145.276388 -38.099651),True
15955740,"49 Taylor Street, Cranbourne, VIC 3977",145.273186,-38.105398,POINT (145.273186 -38.105398),True
15958695,"Aztec Place, Cranbourne, VIC 3977",145.2894,-38.093327,POINT (145.2894 -38.093327),True
15958851,"Willowglen Boulevard, Cranbourne, VIC 3977",145.278456,-38.106398,POINT (145.278456 -38.106398),True
15960926,"9 Lamb Street, Cranbourne, VIC 3977",145.280632,-38.111539,POINT (145.280632 -38.111539),True
15962557,"Jamela Court, Cranbourne, VIC 3977",145.270068,-38.084312,POINT (145.270068 -38.084312),True
15702317,"Harvard Street Cranbourne, West, VIC 3977",145.251612,-38.095762,POINT (145.251612 -38.095762),True
15842328,"Dean Court Cranbourne, West, VIC 3977",145.256801,-38.103426,POINT (145.256801 -38.103426),True
15882095,"Evans Road Cranbourne, West, VIC 3977",145.254448,-38.099454,POINT (145.254448 -38.099454),True
15909022,"Forton Crescent Cranbourne, West, VIC 3977",145.245339,-38.101129,POINT (145.245339 -38.101129),True
15923145,"Hebrides Close Cranbourne, West, VIC 3977",145.250187,-38.095746,POINT (145.250187 -38.095746),True
15924732,"Strickland Street Cranbourne, West, VIC 3977",145.240025,-38.11715,POINT (145.240025 -38.11715),True
15926444,"Tauna Place Cranbourne, West, VIC 3977",145.258075,-38.092683,POINT (145.258075 -38.092683),True
15935752,"Shorey Place Cranbourne, West, VIC 3977",145.257932,-38.088431,POINT (145.257932 -38.088431),True
15940497,"Nariel Place Cranbourne, West, VIC 3977",145.25643,-38.092312,POINT (145.25643 -38.092312),True
15942477,"Princeton Place Cranbourne, West, VIC 3977",145.253778,-38.096368,POINT (145.253778 -38.096368),True
15945357,"106 Clairmont Avenue, Cranbourne, VIC 3977",145.273418,-38.089211,POINT (145.273418 -38.089211),True
15946548,"Alberton Drive Cranbourne, West, VIC 3977",145.259662,-38.092324,POINT (145.259662 -38.092324),True
15946603,"Grandvista Crescent Cranbourne, West, VIC 3977",145.247774,-38.096774,POINT (145.247774 -38.096774),True
15947357,"Fiona Drive Cranbourne, South, VIC 3977",145.275799,-38.157937,POINT (145.275799 -38.157937),True
15947822,"Genoa Way Cranbourne, West, VIC 3977",145.258091,-38.090811,POINT (145.258091 -38.090811),True
15949620,"Mayune Court, Cranbourne, VIC 3977",145.276388,-38.099651,POINT (145.276388 -38.099651),True
15952785,"Miralie Way Cranbourne, West, VIC 3977",145.259555,-38.093582,POINT (145.259555 -38.093582),True
15952799,"Artfield Street Cranbourne, East, VIC 3977",145.301937,-38.117612,POINT (145.301937 -38.117612),True
15952859,"Copernicus Circuit Cranbourne, West, VIC 3977",145.254647,-38.096464,POINT (145.254647 -38.096464),True
14320939,"Balmain St, Cremorne, VIC 3121",144.993693,-37.830181,POINT (144.993693 -37.830181),True
15329764,"620 Collins Street, Melbourne, VIC 3000",144.954431,-37.818768,POINT (144.954431 -37.818768),True
15507610,"199 William Street, Melbourne, VIC 3000",144.957419,-37.814556,POINT (144.957419 -37.814556),True
15507760,"135 A Beckett Street, Melbourne, VIC 3000",144.978682,-37.825071,POINT (144.978682 -37.825071),True
15516225,"14 Claremont Street South, Yarra, VIC 3141",144.993941,-37.837978,POINT (144.993941 -37.837978),True
15782534,"Chestnut St, Cremorne, VIC 3121",144.995388,-37.82868,POINT (144.995388 -37.82868),True
15804110,"Stephenson Street, Cremorne, VIC 3121",144.99395,-37.826405,POINT (144.99395 -37.826405),True
15811723,"Green Street, Cremorne, VIC 3121",144.994588,-37.829123,POINT (144.994588 -37.829123),True
15843412,"Green Street, Cremorne, VIC 3121",144.994588,-37.829123,POINT (144.994588 -37.829123),True
15864708,"Dover Street, Cremorne, VIC 3121",144.991625,-37.82874,POINT (144.991625 -37.82874),True
15898121,"163 Cremorne Street, Cremorne, VIC 3121",144.990442,-37.830115,POINT (144.990442 -37.830115),True
15903755,"Mary Street, Richmond, VIC 3121",145.001251,-37.824894,POINT (145.001251 -37.824894),True
15904210,"Coppin St, Richmond, VIC 3121",145.002785,-37.824456,POINT (145.002785 -37.824456),True
15904230,"33 Goodwood Street, Richmond, VIC 3121",144.995971,-37.819774,POINT (144.995971 -37.819774),True
15904445,"Brighton Street, Richmond, VIC 3121",144.998618,-37.830904,POINT (144.998618 -37.830904),True
15904455,"38 Rose Lane, Melbourne, VIC 3000",144.954173,-37.815013,POINT (144.954173 -37.815013),True
15904637,"8 Burnley Street, Richmond, VIC 3121",145.009515,-37.811606,POINT (145.009515 -37.811606),True
15904699,"1 Clara Street South, Yarra, VIC 3141",144.997823,-37.842091,POINT (144.997823 -37.842091),True
15904890,"610 St Kilda Road, Melbourne, VIC 3004",144.980815,-37.851937,POINT (144.980815 -37.851937),True
15905207,"568 Collins Street, Melbourne, VIC 3000",144.955471,-37.818469,POINT (144.955471 -37.818469),True
15015598,"Warbla Street Dandenong, North, VIC 3175",145.201103,-37.966808,POINT (145.201103 -37.966808),True
15184172,"48 Boyd Street Dandenong, North, VIC 3175",145.217215,-37.966377,POINT (145.217215 -37.966377),True
15633607,"Marcella Avenue Dandenong, North, VIC 3175",145.198184,-37.965366,POINT (145.198184 -37.965366),True
15787735,"Morris Court Dandenong, North, VIC 3175",145.213698,-37.955268,POINT (145.213698 -37.955268),True
15899038,"4 Brahman Court Dandenong, North, VIC 3175",145.197871,-37.949898,POINT (145.197871 -37.949898),True
15905294,"56 Oakwood Avenue Dandenong, North, VIC 3175",145.199177,-37.962589,POINT (145.199177 -37.962589),True
15912264,"28 Warbla Street Dandenong, North, VIC 3175",145.202355,-37.967314,POINT (145.202355 -37.967314),True
15913619,"2 Efron Street Dandenong, North, VIC 3175",145.207874,-37.962753,POINT (145.207874 -37.962753),True
15934319,"Rawdon Hill Drive Dandenong, North, VIC 3175",145.207539,-37.950717,POINT (145.207539 -37.950717),True
15945714,"53 Outlook Drive Dandenong, North, VIC 3175",145.220526,-37.950055,POINT (145.220526 -37.950055),True
15948669,"Menzies Avenue Dandenong, North, VIC 3175",145.208334,-37.96516,POINT (145.208334 -37.96516),True
15950616,"Belmont Avenue Dandenong, North, VIC 3175",145.203132,-37.965644,POINT (145.203132 -37.965644),True
15953856,"Holly Avenue Dandenong, North, VIC 3175",145.204905,-37.962763,POINT (145.204905 -37.962763),True
15954924,"Burchall Grove Dandenong, North, VIC 3175",145.208508,-37.939514,POINT (145.208508 -37.939514),True
15957526,"1475 Heatherton Road Dandenong, North, VIC 3175",145.213122,-37.969492,POINT (145.213122 -37.969492),True
15959499,"28 Sabine Avenue Dandenong, North, VIC 3175",145.204524,-37.955561,POINT (145.204524 -37.955561),True
15960497,"3 Twohig Court Dandenong, North, VIC 3175",145.207405,-37.96099,POINT (145.207405 -37.96099),True
15960939,"152 Gladstone Road Dandenong, North, VIC 3175",145.206338,-37.960661,POINT (145.206338 -37.960661),True
15961730,"Anthony Street Dandenong, North, VIC 3175",145.214179,-37.967179,POINT (145.214179 -37.967179),True
15965746,"Blaxland Drive Dandenong, North, VIC 3175",145.202537,-37.941846,POINT (145.202537 -37.941846),True
15524376,"General Joshua Drive Hampton, Park, VIC 3976",145.263104,-38.036993,POINT (145.263104 -38.036993),True
15913619,"2 Efron Street Dandenong, North, VIC 3175",145.207874,-37.962753,POINT (145.207874 -37.962753),True
15919043,"Langley Crescent, Dandenong, VIC 3175",145.204252,-37.999672,POINT (145.204252 -37.999672),True
15920065,"37a Dawn Avenue, Dandenong, VIC 3175",145.202034,-37.994861,POINT (145.202034 -37.994861),True
15921848,"1a Tarata Drive, Doveton, VIC 3177",145.240603,-37.997704,POINT (145.240603 -37.997704),True
15924830,"12 Rylands Road, Dandenong, VIC 3175",145.201336,-37.97663,POINT (145.201336 -37.97663),True
15937192,"Dryandra Crescent, Keysborough, VIC 3173",145.156823,-37.992964,POINT (145.156823 -37.992964),True
15938803,"Bamboo Court, Doveton, VIC 3177",145.233488,-37.988659,POINT (145.233488 -37.988659),True
15941460,"23 Hutton Street, Dandenong, VIC 3175",145.208449,-37.987135,POINT (145.208449 -37.987135),True
15942226,"42 Hemmings Street, Dandenong, VIC 3175",145.20651,-37.983095,POINT (145.20651 -37.983095),True
15943077,"Tyers Lane, Keysborough, VIC 3173",145.165539,-38.008099,POINT (145.165539 -38.008099),True
15944245,"Tarata Drive, Doveton, VIC 3177",145.240452,-37.999156,POINT (145.240452 -37.999156),True
15945102,"Box Street, Doveton, VIC 3177",145.236649,-37.994929,POINT (145.236649 -37.994929),True
15948604,"Photinia Street, Doveton, VIC 3177",145.23601,-37.992401,POINT (145.23601 -37.992401),True
15951045,"80 Cheltenham Road, Dandenong, VIC 3175",145.203924,-37.990474,POINT (145.203924 -37.990474),True
11625967,"22 Grant Street Bacchus, Marsh, VIC 3340",144.435286,-37.677166,POINT (144.435286 -37.677166),True
11775325,"9 Simone Road Bacchus, Marsh, VIC 3340",144.434113,-37.666761,POINT (144.434113 -37.666761),True
13916005,"12 Lorna Street Bacchus, Marsh, VIC 3340",144.434844,-37.666267,POINT (144.434844 -37.666267),True
15933222,"Bacchus Marsh Road Bacchus, Marsh, VIC 3340",144.418571,-37.668414,POINT (144.418571 -37.668414),True
15934592,"Masons Lane Bacchus, Marsh, VIC 3340",144.440833,-37.668128,POINT (144.440833 -37.668128),True
15934625,"Madden Drive Bacchus, Marsh, VIC 3340",144.430651,-37.676386,POINT (144.430651 -37.676386),True
15935140,"Mimulus Road, Maddingley, VIC 3340",144.418192,-37.684526,POINT (144.418192 -37.684526),True
15936364,"Burbidge Drive Bacchus, Marsh, VIC 3340",144.419336,-37.665443,POINT (144.419336 -37.665443),True
15938177,"61 Grant Street, Maddingley, VIC 3340",144.433484,-37.683888,POINT (144.433484 -37.683888),True
15940707,"65 Grey Street Bacchus, Marsh, VIC 3340",144.431034,-37.672259,POINT (144.431034 -37.672259),True
15947616,"18 Davies Street, Darley, VIC 3340",144.432888,-37.659866,POINT (144.432888 -37.659866),True
15948692,"Harry Vallence Drive, Maddingley, VIC 3340",144.414426,-37.688956,POINT (144.414426 -37.688956),True
15951269,"Taylor Drive, Darley, VIC 3340",144.434806,-37.661343,POINT (144.434806 -37.661343),True
15952494,"Cider Circuit, Darley, VIC 3340",144.439114,-37.660921,POINT (144.439114 -37.660921),True
15952683,"Gladman Road, Maddingley, VIC 3340",144.410758,-37.688032,POINT (144.410758 -37.688032),True
15956224,"Harry Vallence Drive Bacchus, Marsh, VIC 3340",144.431034,-37.672259,POINT (144.431034 -37.672259),True
15956494,"Shea Street Bacchus, Marsh, VIC 3340",144.430446,-37.669553,POINT (144.430446 -37.669553),True
15960375,"Richardson Court, Maddingley, VIC 3340",144.416115,-37.693311,POINT (144.416115 -37.693311),True
15962565,"Amaroo Circuit Bacchus, Marsh, VIC 3340",144.431034,-37.672259,POINT (144.431034 -37.672259),True
15965905,"Fifth Mews, Maddingley, VIC 3340",144.414206,-37.694908,POINT (144.414206 -37.694908),True
15892485,"Raglan Street, Daylesford, VIC 3460",144.154407,-37.34086,POINT (144.154407 -37.34086),True
15957709,"Millar Street, Daylesford, VIC 3460",144.139815,-37.341,POINT (144.139815 -37.341),True
15105392,"Booyan Crescent, Greensborough, VIC 3088",145.096153,-37.690677,POINT (145.096153 -37.690677),True
15844053,"8 Amaroo Court Diamond, Creek, VIC 3089",145.158212,-37.670174,POINT (145.158212 -37.670174),True
15872108,"Grassy Flat Road Diamond, Creek, VIC 3089",145.151336,-37.664756,POINT (145.151336 -37.664756),True
15884077,"Felicia Rise Diamond, Creek, VIC 3089",145.170042,-37.672073,POINT (145.170042 -37.672073),True
15887697,"Patullos Road, Hurstbridge, VIC 3099",145.197859,-37.621036,POINT (145.197859 -37.621036),True
15889302,"125 St Helena Road, Greensborough, VIC 3088",145.118443,-37.69996,POINT (145.118443 -37.69996),True
15889994,"26 Vermont Parade, Greensborough, VIC 3088",145.097665,-37.706893,POINT (145.097665 -37.706893),True
15890152,"Grimshaw Street, Greensborough, VIC 3088",145.095181,-37.703748,POINT (145.095181 -37.703748),True
15890717,"Gregg St Diamond, Creek, VIC 3089",145.163643,-37.675833,POINT (145.163643 -37.675833),True
15891154,"6 Walsh Street, Eltham, VIC 3095",145.136115,-37.731582,POINT (145.136115 -37.731582),True
15892991,"Diamond Boulevard, Greensborough, VIC 3088",145.116334,-37.68543,POINT (145.116334 -37.68543),True
15893213,"14 Carnon Street, Greensborough, VIC 3088",145.116006,-37.695168,POINT (145.116006 -37.695168),True
15894831,"Hailes Street, Greensborough, VIC 3088",145.099204,-37.699807,POINT (145.099204 -37.699807),True
15894944,"Haven Lane Diamond, Creek, VIC 3089",145.163024,-37.671083,POINT (145.163024 -37.671083),True
15895040,"Rendle Avenue, Greensborough, VIC 3088",145.097998,-37.694706,POINT (145.097998 -37.694706),True
15897810,"Nell Street, Greensborough, VIC 3088",145.09953,-37.709207,POINT (145.09953 -37.709207),True
12969899,"Ainsworth Crescent Diggers, Rest, VIC 3427",144.709135,-37.627259,POINT (144.709135 -37.627259),True
13196745,"Territory Way Diggers, Rest, VIC 3427",144.700289,-37.62352,POINT (144.700289 -37.62352),True
14987622,"Lindbergh Boulevard Diggers, Rest, VIC 3427",144.698871,-37.620507,POINT (144.698871 -37.620507),True
15810844,"4 Rosehill Way Diggers, Rest, VIC 3427",144.700077,-37.619643,POINT (144.700077 -37.619643),True
15853554,"Maroon Way Diggers, Rest, VIC 3427",144.696184,-37.625961,POINT (144.696184 -37.625961),True
15860845,"License Road Diggers, Rest, VIC 3427",144.695087,-37.626287,POINT (144.695087 -37.626287),True
15864019,"Rockfern Crescent Diggers, Rest, VIC 3427",144.70861,-37.623664,POINT (144.70861 -37.623664),True
15866202,"Green Gully Road, Keilor, VIC 3036",144.826923,-37.723406,POINT (144.826923 -37.723406),True
15866305,"Green Gully, Keilor, VIC 3036",144.826923,-37.723406,POINT (144.826923 -37.723406),True
15872300,"55 Tullidge Street Melton, West, VIC 3337",144.561431,-37.671709,POINT (144.561431 -37.671709),True
15872831,"Dillon Court Diggers, Rest, VIC 3427",144.736734,-37.645999,POINT (144.736734 -37.645999),True
15881271,"Nash Blvd, Rockbank, VIC 3335",144.650032,-37.734363,POINT (144.650032 -37.734363),True
15884128,"Fragrant Cres Diggers, Rest, VIC 3427",144.697606,-37.624537,POINT (144.697606 -37.624537),True
15884699,"Calder Hwy Diggers, Rest, VIC 3427",144.717325,-37.624218,POINT (144.717325 -37.624218),True
15888332,"Fragrant Crescent Diggers, Rest, VIC 3427",144.697606,-37.624537,POINT (144.697606 -37.624537),True
15888535,"Fragrant Crescent Diggers, Rest, VIC 3427",144.697606,-37.624537,POINT (144.697606 -37.624537),True
15892437,"Madisons Avenue Diggers, Rest, VIC 3427",144.699836,-37.623816,POINT (144.699836 -37.623816),True
15892715,"Saxonwood Drive, Sunbury, VIC 3429",144.706208,-37.556665,POINT (144.706208 -37.556665),True
15892864,"Eagle Ridge, Gisborne, VIC 3437",144.59511,-37.479708,POINT (144.59511 -37.479708),True
15894493,"Aviation Drive Diggers, Rest, VIC 3427",144.703999,-37.618124,POINT (144.703999 -37.618124),True
13704474,"Santa Rosa Boulevard Doncaster, East, VIC 3109",145.179728,-37.765935,POINT (145.179728 -37.765935),True
14058562,"Owens Street Doncaster, East, VIC 3109",145.14908,-37.777321,POINT (145.14908 -37.777321),True
14164587,"2 Roger Street Doncaster, East, VIC 3109",145.160395,-37.793647,POINT (145.160395 -37.793647),True
15738572,"Tyrol Court Doncaster, East, VIC 3109",145.146778,-37.776354,POINT (145.146778 -37.776354),True
15845761,"Champion Street Doncaster, East, VIC 3109",145.150673,-37.786852,POINT (145.150673 -37.786852),True
15850897,"3 Red Hill Terrace Doncaster, East, VIC 3109",145.172586,-37.762985,POINT (145.172586 -37.762985),True
15854038,"928 Doncaster Road Doncaster, East, VIC 3109",145.153919,-37.788384,POINT (145.153919 -37.788384),True
15857416,"46 Boronia Grove Doncaster, East, VIC 3109",145.154255,-37.799473,POINT (145.154255 -37.799473),True
15864207,"1056 Doncaster Road Doncaster, East, VIC 3109",145.16541,-37.789761,POINT (145.16541 -37.789761),True
15869452,"Andersons Creek Road Doncaster, East, VIC 3109",145.17232,-37.764037,POINT (145.17232 -37.764037),True
15869583,"11 Mitchell Street Doncaster, East, VIC 3109",145.147796,-37.788367,POINT (145.147796 -37.788367),True
15872612,"1 Bellevue Avenue Doncaster, East, VIC 3109",145.164141,-37.782322,POINT (145.164141 -37.782322),True
15877478,"Moor Park Crescent Doncaster, East, VIC 3109",145.157238,-37.787525,POINT (145.157238 -37.787525),True
15878863,"Maggs Street Doncaster, East, VIC 3109",145.165675,-37.794057,POINT (145.165675 -37.794057),True
15881191,"Windella Quad Doncaster, East, VIC 3109",145.157238,-37.787525,POINT (145.157238 -37.787525),True
15881474,"12 Bullen Street Doncaster, East, VIC 3109",145.149666,-37.790008,POINT (145.149666 -37.790008),True
15881741,"1 Nartanda Court Doncaster, East, VIC 3109",145.180921,-37.764482,POINT (145.180921 -37.764482),True
15882520,"Leeds Street Doncaster, East, VIC 3109",145.152602,-37.789015,POINT (145.152602 -37.789015),True
15884020,"3 Red Hill Terrace Doncaster, East, VIC 3109",145.172586,-37.762985,POINT (145.172586 -37.762985),True
15886889,"Glenview Road Doncaster, East, VIC 3109",145.162436,-37.798204,POINT (145.162436 -37.798204),True
12965374,"30 Chippewa Ave, Donvale, VIC 3111",145.19473,-37.805241,POINT (145.19473 -37.805241),True
14138849,"Glika Street, Donvale, VIC 3111",145.172032,-37.794821,POINT (145.172032 -37.794821),True
14359623,"201 Mitcham Road, Donvale, VIC 3111",145.189665,-37.804284,POINT (145.189665 -37.804284),True
15251803,"11 Will Street Forest, Hill, VIC 3131",145.177325,-37.833987,POINT (145.177325 -37.833987),True
15677903,"358 Springvale Road, Donvale, VIC 3111",145.178315,-37.798925,POINT (145.178315 -37.798925),True
15739937,"2b Florence Avenue, Donvale, VIC 3111",145.181791,-37.799687,POINT (145.181791 -37.799687),True
15781892,"444 Canterbury Road Forest, Hill, VIC 3131",145.178273,-37.835914,POINT (145.178273 -37.835914),True
15865530,"Glenvale Road, Donvale, VIC 3111",145.184335,-37.790152,POINT (145.184335 -37.790152),True
15869284,"Darvall Street, Donvale, VIC 3111",145.17334,-37.802363,POINT (145.17334 -37.802363),True
15872741,"117 Mitcham Road, Donvale, VIC 3111",145.182807,-37.799561,POINT (145.182807 -37.799561),True
15880811,"39 Wooddale Grove, Donvale, VIC 3111",145.193614,-37.803296,POINT (145.193614 -37.803296),True
15882276,"42a Nelson Street, Ringwood, VIC 3134",145.222372,-37.811078,POINT (145.222372 -37.811078),True
15886685,"16 Thomas Street, Ringwood, VIC 3134",145.233863,-37.817802,POINT (145.233863 -37.817802),True
15886889,"Glenview Road Doncaster, East, VIC 3109",145.162436,-37.798204,POINT (145.162436 -37.798204),True
15888042,"Lawrence St Blackburn, South, VIC 3130",145.148467,-37.834266,POINT (145.148467 -37.834266),True
15888327,"37 Albert Street, Ringwood, VIC 3134",145.222462,-37.818592,POINT (145.222462 -37.818592),True
15892065,"Vernon Street Blackburn, South, VIC 3130",145.158134,-37.83483,POINT (145.158134 -37.83483),True
15893460,"Supreme Place Doncaster, East, VIC 3109",145.143919,-37.791103,POINT (145.143919 -37.791103),True
15894884,"Otway Court Doncaster, East, VIC 3109",145.151375,-37.778549,POINT (145.151375 -37.778549),True
11459022,"7 Wattle Drive, Doveton, VIC 3177",145.236151,-37.998379,POINT (145.236151 -37.998379),True
14572973,"9 Fugosia Street, Doveton, VIC 3177",145.238983,-37.996887,POINT (145.238983 -37.996887),True
15149014,"Power Road, Doveton, VIC 3177",145.23941,-37.987479,POINT (145.23941 -37.987479),True
15811997,"Peppermint Street, Doveton, VIC 3177",145.232234,-37.99169,POINT (145.232234 -37.99169),True
15820143,"Floriana Avenue, Doveton, VIC 3177",145.23662,-37.977954,POINT (145.23662 -37.977954),True
15879823,"8a Bottlebrush Drive, Doveton, VIC 3177",145.23745,-37.991407,POINT (145.23745 -37.991407),True
15881204,"Banksia Street, Doveton, VIC 3177",145.238198,-37.980594,POINT (145.238198 -37.980594),True
15881353,"Paperbark Street, Doveton, VIC 3177",145.241054,-37.995277,POINT (145.241054 -37.995277),True
15881652,"74 Kidds Road, Doveton, VIC 3177",145.245172,-37.987428,POINT (145.245172 -37.987428),True
15884263,"Almond Drive, Doveton, VIC 3177",145.246757,-37.989892,POINT (145.246757 -37.989892),True
15885657,"12 Macpherson Street, Dandenong, VIC 3175",145.223491,-37.987284,POINT (145.223491 -37.987284),True
15891726,"5 Apple Court, Doveton, VIC 3177",145.240135,-37.987202,POINT (145.240135 -37.987202),True
15892555,"13 Oak Avenue, Doveton, VIC 3177",145.239757,-37.997804,POINT (145.239757 -37.997804),True
15895118,"Lilly Pilly Avenue, Doveton, VIC 3177",145.243561,-37.99341,POINT (145.243561 -37.99341),True
15896515,"133a Doveton Avenue, Doveton, VIC 3177",145.250674,-37.990234,POINT (145.250674 -37.990234),True
15897427,"106 David Street, Dandenong, VIC 3175",145.218352,-37.977408,POINT (145.218352 -37.977408),True
15898517,"16 Bulong Street, Dandenong, VIC 3175",145.203382,-37.984021,POINT (145.203382 -37.984021),True
15901679,"14 Marie Street, Doveton, VIC 3177",145.244421,-37.986476,POINT (145.244421 -37.986476),True
10442667,"Neale Street Flora, Hill, VIC 3550",144.291617,-36.777852,POINT (144.291617 -36.777852),True
11910063,"26 Day Street East, Bendigo, VIC 3550",144.299921,-36.75204,POINT (144.299921 -36.75204),True
15232696,"6 Fox Street East, Bendigo, VIC 3550",144.297137,-36.751818,POINT (144.297137 -36.751818),True
15893871,"35 Strickland Road East, Bendigo, VIC 3550",144.298608,-36.749179,POINT (144.298608 -36.749179),True
15895019,"Powells Avenue East, Bendigo, VIC 3550",144.318562,-36.740236,POINT (144.318562 -36.740236),True
15901871,"21a Mill Street, Kennington, VIC 3550",144.306466,-36.764262,POINT (144.306466 -36.764262),True
15901919,"9 Aviary Court, Strathdale, VIC 3550",144.313646,-36.77386,POINT (144.313646 -36.77386),True
15902439,"Kate Close, Kennington, VIC 3550",144.303814,-36.764153,POINT (144.303814 -36.764153),True
15903787,"73 Hargreaves Street, Bendigo, VIC 3550",144.289441,-36.753739,POINT (144.289441 -36.753739),True
15903978,"Station Street, Epsom, VIC 3551",144.322669,-36.696377,POINT (144.322669 -36.696377),True
15904802,"Castle Street North, Bendigo, VIC 3550",144.281054,-36.742813,POINT (144.281054 -36.742813),True
15904991,"9 Aviary Court, Strathdale, VIC 3550",144.313646,-36.77386,POINT (144.313646 -36.77386),True
15905285,"Honeysuckle Street, Bendigo, VIC 3550",144.268736,-36.765739,POINT (144.268736 -36.765739),True
15906379,"Weeroona Keys East, Bendigo, VIC 3550",144.294891,-36.749367,POINT (144.294891 -36.749367),True
15906685,"20 Keck Street Flora, Hill, VIC 3550",144.292272,-36.777247,POINT (144.292272 -36.777247),True
15907253,"Goynes Road, Epsom, VIC 3551",144.307201,-36.717285,POINT (144.307201 -36.717285),True
12980747,"102 Jolimont Road East, Melbourne, VIC 3002",144.978946,-37.818195,POINT (144.978946 -37.818195),True
15076799,"279 Wellington Parade South East, Melbourne, VIC 3002",144.982312,-37.816789,POINT (144.982312 -37.816789),True
15731064,"170 Albert Street East, Melbourne, VIC 3002",144.985273,-37.809621,POINT (144.985273 -37.809621),True
15857453,"102 Jolimont Road East, Melbourne, VIC 3002",144.978946,-37.818195,POINT (144.978946 -37.818195),True
15876703,"211 Wellington Parade South East, Melbourne, VIC 3002",144.977471,-37.816443,POINT (144.977471 -37.816443),True
15910348,"35 George Street East, Melbourne, VIC 3002",144.989208,-37.815848,POINT (144.989208 -37.815848),True
15910795,"53 Grey Street East, Melbourne, VIC 3002",144.987563,-37.812286,POINT (144.987563 -37.812286),True
15912061,"25 Hotham Street East, Melbourne, VIC 3002",144.989574,-37.814789,POINT (144.989574 -37.814789),True
15913417,"22 Powlett Street East, Melbourne, VIC 3002",144.985561,-37.815721,POINT (144.985561 -37.815721),True
15924343,"108 George Street East, Melbourne, VIC 3002",144.986789,-37.815255,POINT (144.986789 -37.815255),True
15924832,"162 Albert Street East, Melbourne, VIC 3002",144.985531,-37.810043,POINT (144.985531 -37.810043),True
15927521,"66 Simpson Street East, Melbourne, VIC 3002",144.988368,-37.81487,POINT (144.988368 -37.81487),True
15935372,"322 Albert Street East, Melbourne, VIC 3002",144.980274,-37.80984,POINT (144.980274 -37.80984),True
15939455,"211 Wellington Parade South East, Melbourne, VIC 3002",144.977471,-37.816443,POINT (144.977471 -37.816443),True
15950035,"211 Wellington Parade East, Melbourne, VIC 3002",144.977471,-37.816443,POINT (144.977471 -37.816443),True
15951667,"108 George Street East, Melbourne, VIC 3002",144.986789,-37.815255,POINT (144.986789 -37.815255),True
15953012,"84 Grey Street East, Melbourne, VIC 3002",144.985593,-37.81163,POINT (144.985593 -37.81163),True
15960988,"8 Wellington Crescent East, Melbourne, VIC 3002",144.977674,-37.817225,POINT (144.977674 -37.817225),True
15961201,"201 Wellington Parade South East, Melbourne, VIC 3002",144.978672,-37.816765,POINT (144.978672 -37.816765),True
15961559,"30 St Andrews Place East, Melbourne, VIC 3002",144.976176,-37.811771,POINT (144.976176 -37.811771),True
10241396,"7 Ripon Grove, Elsternwick, VIC 3185",144.998401,-37.882014,POINT (144.998401 -37.882014),True
10736155,"32 Gardenia Road, Elsternwick, VIC 3185",145.00719,-37.885409,POINT (145.00719 -37.885409),True
11173932,"242 Glen Huntly Road, Elsternwick, VIC 3185",145.000254,-37.884722,POINT (145.000254 -37.884722),True
14023432,"19b Allison Road, Elsternwick, VIC 3185",145.006,-37.881276,POINT (145.006 -37.881276),True
14651985,"5 St Georges Road, Elsternwick, VIC 3185",145.002817,-37.883513,POINT (145.002817 -37.883513),True
15845514,"138 Glen Eira Road, Elsternwick, VIC 3185",144.998324,-37.87712,POINT (144.998324 -37.87712),True
15849784,"55 College Street, Elsternwick, VIC 3185",145.008441,-37.892944,POINT (145.008441 -37.892944),True
