property_id,address,longitude,latitude,coordinates,geocode_success
17420270,"Caxton Street, Blairgowrie, VIC 3942",144.781766,-38.372991,POINT (144.781766 -38.372991),True
17427194,"Fairfax Street, Blairgowrie, VIC 3942",144.786954,-38.36533,POINT (144.786954 -38.36533),True
17429479,"Tarawill Street, Rye, VIC 3941",144.810385,-38.385253,POINT (144.810385 -38.385253),True
17431799,"Macfarlan Ave, Blairgowrie, VIC 3942",144.766081,-38.359971,POINT (144.766081 -38.359971),True
17432913,"Koonya Avenue, Blairgowrie, VIC 3942",144.757233,-38.361131,POINT (144.757233 -38.361131),True
17435801,", Rye, VIC 3941",144.819609,-38.386921,POINT (144.819609 -38.386921),True
17437424,"Richardson Street, Rye, VIC 3941",144.837494,-38.372011,POINT (144.837494 -38.372011),True
17491061,"Sparkes Court, Foster, VIC 3960",146.205561,-38.653099,POINT (146.205561 -38.653099),True
17514605,"Harbour Court, Paynesville, VIC 3880",147.722236,-37.91342,POINT (147.722236 -37.91342),True
17520736,"Grandview Road, Paynesville, VIC 3880",147.720467,-37.909982,POINT (147.720467 -37.909982),True
17524897,"Bedggood Grove, Paynesville, VIC 3880",147.720467,-37.909982,POINT (147.720467 -37.909982),True
17525544,"72b Ashley Street, Paynesville, VIC 3880",147.711711,-37.910089,POINT (147.711711 -37.910089),True
17526664,"Callistemon Court, Paynesville, VIC 3880",147.71191,-37.912974,POINT (147.71191 -37.912974),True
17528918,"1b Howitt Avenue, Metung, VIC 3904",147.85316,-37.890892,POINT (147.85316 -37.890892),True
17534017,"69a Golf Links Road Lakes, Entrance, VIC 3909",148.015709,-37.870726,POINT (148.015709 -37.870726),True
17535210,"Newlands Drive, Paynesville, VIC 3880",147.707985,-37.916474,POINT (147.707985 -37.916474),True
17540716,"105 Main Road, Paynesville, VIC 3880",147.720274,-37.908945,POINT (147.720274 -37.908945),True
17541485,"21a Myer Street Lakes, Entrance, VIC 3909",147.993602,-37.87843,POINT (147.993602 -37.87843),True
17543221,"24 Mcmillan Grove, Paynesville, VIC 3880",147.729536,-37.904634,POINT (147.729536 -37.904634),True
17543704,"67 Roadknight Lakes, Entrance, VIC 3909",148.002825,-37.875152,POINT (148.002825 -37.875152),True
8568621,"490 Elgar Road Box, Hill, VIC 3128",145.115958,-37.812928,POINT (145.115958 -37.812928),True
9590711,"5 Archibald St Box, Hill, VIC 3128",145.121437,-37.816845,POINT (145.121437 -37.816845),True
16171358,"903 Canterbury Road Box, Hill, VIC 3128",145.123507,-37.82876,POINT (145.123507 -37.82876),True
17019513,"9 Prospect Street Box, Hill, VIC 3128",145.118881,-37.818515,POINT (145.118881 -37.818515),True
17441908,"27 Oxford Street Box, Hill, VIC 3128",145.119386,-37.821972,POINT (145.119386 -37.821972),True
17469049,"1 Wellington Road Box, Hill, VIC 3128",145.117075,-37.816563,POINT (145.117075 -37.816563),True
17471075,"Albion Road Box, Hill, VIC 3128",145.129895,-37.825104,POINT (145.129895 -37.825104),True
17479398,"830 Whitehorse Road Box, Hill, VIC 3128",145.117531,-37.817474,POINT (145.117531 -37.817474),True
17499690,"Federation Street Box, Hill, VIC 3128",145.114663,-37.82363,POINT (145.114663 -37.82363),True
17506863,"51 Victoria Street Box, Hill, VIC 3128",145.130482,-37.821233,POINT (145.130482 -37.821233),True
17521489,"15 Irving Avenue Box, Hill, VIC 3128",145.121542,-37.815941,POINT (145.121542 -37.815941),True
17528363,"5 Archibald Street Box, Hill, VIC 3128",145.121437,-37.816845,POINT (145.121437 -37.816845),True
17529827,"6 John Street Box, Hill, VIC 3128",145.124208,-37.82229,POINT (145.124208 -37.82229),True
17537672,"1090 Whitehorse Road Box, Hill, VIC 3128",145.132108,-37.819423,POINT (145.132108 -37.819423),True
17537674,"3 Watts Street Box, Hill, VIC 3128",145.125309,-37.817796,POINT (145.125309 -37.817796),True
17538338,"3 Cunningham Street Box, Hill, VIC 3128",145.12847,-37.826929,POINT (145.12847 -37.826929),True
17538916,"6 John Street Box, Hill, VIC 3128",145.124208,-37.82229,POINT (145.124208 -37.82229),True
17539118,"Thames Street Box, Hill, VIC 3128",145.118064,-37.812897,POINT (145.118064 -37.812897),True
17539431,"50 William Street Box, Hill, VIC 3128",145.128081,-37.821737,POINT (145.128081 -37.821737),True
17541791,"12 Bedford St Box, Hill, VIC 3128",145.131498,-37.828931,POINT (145.131498 -37.828931),True
16028015,"96 Thames Street Box Hill, North, VIC 3129",145.121793,-37.813171,POINT (145.121793 -37.813171),True
17353716,"17 Lexton Road Box Hill, North, VIC 3129",145.13431,-37.811759,POINT (145.13431 -37.811759),True
17372985,"Mersey Street Box Hill, North, VIC 3129",145.13088,-37.810936,POINT (145.13088 -37.810936),True
17374493,"1a Eram Road Box Hill, North, VIC 3129",145.141712,-37.799544,POINT (145.141712 -37.799544),True
17383909,"100 Thames Street Box Hill, North, VIC 3129",145.121281,-37.813111,POINT (145.121281 -37.813111),True
17396590,"3 Campaspe Street Box Hill, North, VIC 3129",145.128485,-37.808046,POINT (145.128485 -37.808046),True
17398461,"74 Thames Street Box Hill, North, VIC 3129",145.123394,-37.813348,POINT (145.123394 -37.813348),True
17413254,"43a Springfield Road Box Hill, North, VIC 3129",145.137834,-37.808655,POINT (145.137834 -37.808655),True
17415262,"546 Elgar Road Box Hill, North, VIC 3129",145.116882,-37.807852,POINT (145.116882 -37.807852),True
17420046,"55 Watts St Box Hill, North, VIC 3129",145.126011,-37.813304,POINT (145.126011 -37.813304),True
17421371,"Heathfield Rise Box Hill, North, VIC 3129",145.140395,-37.803081,POINT (145.140395 -37.803081),True
17421590,"1 Caroline Street Box Hill, North, VIC 3129",145.137428,-37.809414,POINT (145.137428 -37.809414),True
17422927,"546 Elgar Road Box Hill, North, VIC 3129",145.116882,-37.807852,POINT (145.116882 -37.807852),True
17423955,"887 Station Street Box Hill, North, VIC 3129",145.125408,-37.806743,POINT (145.125408 -37.806743),True
17429948,"12a Ronald Street Box Hill, North, VIC 3129",145.128676,-37.80123,POINT (145.128676 -37.80123),True
17430047,"4 Barwon Street Box Hill, North, VIC 3129",145.117109,-37.810788,POINT (145.117109 -37.810788),True
17431916,"21 Tyne Street Box Hill, North, VIC 3129",145.129056,-37.811179,POINT (145.129056 -37.811179),True
17435038,"Eram Road Box Hill, North, VIC 3129",145.137753,-37.798927,POINT (145.137753 -37.798927),True
17437587,"7c Wimmera St Box Hill, North, VIC 3129",145.127267,-37.806706,POINT (145.127267 -37.806706),True
17439725,"231 Dorking Road Box Hill, North, VIC 3129",145.134035,-37.798816,POINT (145.134035 -37.798816),True
17394383,"Alverna Grove, Brighton, VIC 3186",145.002911,-37.912711,POINT (145.002911 -37.912711),True
17406002,"28 Esplanade, Brighton, VIC 3186",144.98739,-37.926025,POINT (144.98739 -37.926025),True
17407432,"26 Warleigh Grove, Brighton, VIC 3186",145.003549,-37.904403,POINT (145.003549 -37.904403),True
17408545,"30 Esplanade, Brighton, VIC 3186",144.988389,-37.926197,POINT (144.988389 -37.926197),True
17410963,"Lynch Street, Brighton, VIC 3186",144.998328,-37.924186,POINT (144.998328 -37.924186),True
17416488,"Wilson Street, Brighton, VIC 3186",144.999444,-37.911084,POINT (144.999444 -37.911084),True
17421317,"Burston Place, Brighton, VIC 3186",144.991495,-37.923463,POINT (144.991495 -37.923463),True
17428420,"153 Martin Street, Brighton, VIC 3186",145.003677,-37.897174,POINT (145.003677 -37.897174),True
17429911,"467 New Street, Brighton, VIC 3186",144.994984,-37.893545,POINT (144.994984 -37.893545),True
17432295,"8 Cavendish Place, Brighton, VIC 3186",144.998954,-37.926631,POINT (144.998954 -37.926631),True
17434101,"Mary Street, Brighton, VIC 3186",144.997865,-37.9128,POINT (144.997865 -37.9128),True
17436567,"18 Dendy Street, Brighton, VIC 3186",144.991075,-37.919956,POINT (144.991075 -37.919956),True
17439731,"19 Halifax Street, Brighton, VIC 3186",144.999621,-37.91755,POINT (144.999621 -37.91755),True
17440301,"21 Were Street, Brighton, VIC 3186",144.989564,-37.924152,POINT (144.989564 -37.924152),True
17441522,"2 Shandford Avenue, Brighton, VIC 3186",144.984809,-37.901534,POINT (144.984809 -37.901534),True
17441958,"18 Normanby Street, Brighton, VIC 3186",144.988401,-37.911738,POINT (144.988401 -37.911738),True
17443136,"Carpenter Street, Brighton, VIC 3186",144.999423,-37.910886,POINT (144.999423 -37.910886),True
17443997,"26 Pearson Street, Brighton, VIC 3186",145.004337,-37.908078,POINT (145.004337 -37.908078),True
17444284,"7 Cowra Street, Brighton, VIC 3186",145.007241,-37.904962,POINT (145.007241 -37.904962),True
17450682,"50 Black Street, Brighton, VIC 3186",144.998941,-37.916247,POINT (144.998941 -37.916247),True
16979852,"Licola Court, Broadmeadows, VIC 3047",144.920616,-37.673393,POINT (144.920616 -37.673393),True
17426282,"Camp Road, Broadmeadows, VIC 3047",144.9415,-37.687884,POINT (144.9415 -37.687884),True
17431280,"68 Cuthbert Street, Broadmeadows, VIC 3047",144.929443,-37.684274,POINT (144.929443 -37.684274),True
17436768,"3 Warnock Street, Broadmeadows, VIC 3047",144.934279,-37.688585,POINT (144.934279 -37.688585),True
17462244,"83 Cuthbert Street, Broadmeadows, VIC 3047",144.928361,-37.684462,POINT (144.928361 -37.684462),True
17472090,"52 Lahinch Street, Broadmeadows, VIC 3047",144.923744,-37.690211,POINT (144.923744 -37.690211),True
17481088,"36 Ophir Street, Broadmeadows, VIC 3047",144.93462,-37.691006,POINT (144.93462 -37.691006),True
17485906,"3 Warnock Street, Broadmeadows, VIC 3047",144.934279,-37.688585,POINT (144.934279 -37.688585),True
17492577,"3 Gerbert Street, Broadmeadows, VIC 3047",144.93368,-37.688124,POINT (144.93368 -37.688124),True
17501831,"Rosebud Crescent, Broadmeadows, VIC 3047",144.90716,-37.680519,POINT (144.90716 -37.680519),True
17509534,"3 Housden Street, Broadmeadows, VIC 3047",144.930703,-37.691453,POINT (144.930703 -37.691453),True
17509805,"38 Nepean St, Broadmeadows, VIC 3047",144.927937,-37.68787,POINT (144.927937 -37.68787),True
17509914,"54 Cuthbert Street, Broadmeadows, VIC 3047",144.930782,-37.684491,POINT (144.930782 -37.684491),True
17511269,"11 Dacelo Avenue, Broadmeadows, VIC 3047",144.9212,-37.687667,POINT (144.9212 -37.687667),True
17512019,"Heywood Crescent, Broadmeadows, VIC 3047",144.912257,-37.677396,POINT (144.912257 -37.677396),True
17512271,"Railway Crescent, Broadmeadows, VIC 3047",144.923578,-37.675306,POINT (144.923578 -37.675306),True
17521082,"3 Gerbert Street, Broadmeadows, VIC 3047",144.93368,-37.688124,POINT (144.93368 -37.688124),True
17521250,"Cohuna Street, Broadmeadows, VIC 3047",144.924937,-37.682268,POINT (144.924937 -37.682268),True
17522935,"Academy Drive, Broadmeadows, VIC 3047",144.943456,-37.674441,POINT (144.943456 -37.674441),True
17525724,"44 Graham Street, Broadmeadows, VIC 3047",144.929379,-37.691839,POINT (144.929379 -37.691839),True
15307383,"9 Village Avenue Brunswick, East, VIC 3057",144.979265,-37.771859,POINT (144.979265 -37.771859),True
15668582,"3 Holmes Street Brunswick, East, VIC 3057",144.973845,-37.761424,POINT (144.973845 -37.761424),True
15668637,"3 Holmes Street Brunswick, East, VIC 3057",144.973845,-37.761424,POINT (144.973845 -37.761424),True
15796917,"270 Lygon Street Brunswick, East, VIC 3057",144.972108,-37.770333,POINT (144.972108 -37.770333),True
16752132,"92 Albert Street Brunswick, East, VIC 3057",144.973901,-37.77025,POINT (144.973901 -37.77025),True
17376355,"42 Hutchinson Street Brunswick, East, VIC 3057",144.976336,-37.770893,POINT (144.976336 -37.770893),True
17386479,"Elesbury Avenue Brunswick, East, VIC 3057",144.977239,-37.767509,POINT (144.977239 -37.767509),True
17389093,"222 Edward Street Brunswick, East, VIC 3057",144.975603,-37.775594,POINT (144.975603 -37.775594),True
17395578,"Hickford Street Brunswick, East, VIC 3057",144.976532,-37.76616,POINT (144.976532 -37.76616),True
17400012,"18a Linden Street Brunswick, East, VIC 3057",144.974522,-37.774197,POINT (144.974522 -37.774197),True
17403576,"Edward Street Brunswick, East, VIC 3057",144.971831,-37.775022,POINT (144.971831 -37.775022),True
17406003,"Timaru Avenue Brunswick, East, VIC 3057",144.976739,-37.764617,POINT (144.976739 -37.764617),True
17406447,"1 Brunswick Road Brunswick, East, VIC 3057",144.97761,-37.778833,POINT (144.97761 -37.778833),True
17406834,"15 Brunswick Road Brunswick, East, VIC 3057",144.976989,-37.778765,POINT (144.976989 -37.778765),True
17407689,"37 Holmes Street Brunswick, East, VIC 3057",144.974168,-37.759549,POINT (144.974168 -37.759549),True
17411433,"164 Nicholson Street Brunswick, East, VIC 3057",144.980683,-37.764803,POINT (144.980683 -37.764803),True
17415178,"67 Nicholson Street Brunswick, East, VIC 3057",144.978645,-37.775537,POINT (144.978645 -37.775537),True
17415311,"37 Lygon Street Brunswick, East, VIC 3057",144.970688,-37.778832,POINT (144.970688 -37.778832),True
17416595,"Barkly Street Brunswick, East, VIC 3057",144.970859,-37.777227,POINT (144.970859 -37.777227),True
17417272,"330 Lygon Street Brunswick, East, VIC 3057",144.972431,-37.768539,POINT (144.972431 -37.768539),True
14704433,"Jones Street, Foster, VIC 3960",146.206676,-38.657981,POINT (146.206676 -38.657981),True
17297770,"Canterbury Road Venus, Bay, VIC 3956",145.823232,-38.700876,POINT (145.823232 -38.700876),True
17400712,"7 Apex Court, Foster, VIC 3960",146.205711,-38.660566,POINT (146.205711 -38.660566),True
17408039,"187 Jupiter Boulevard Venus, Bay, VIC 3956",145.825557,-38.702314,POINT (145.825557 -38.702314),True
17408047,"Woorak Avenue Venus, Bay, VIC 3956",145.824947,-38.700661,POINT (145.824947 -38.700661),True
17411495,"6 Varney Road, Foster, VIC 3960",146.208472,-38.656697,POINT (146.208472 -38.656697),True
17416387,"Juno Road Venus, Bay, VIC 3956",145.823498,-38.704777,POINT (145.823498 -38.704777),True
17427389,"Hoddle Road, Foster, VIC 3960",146.201368,-38.653941,POINT (146.201368 -38.653941),True
17532136,"12 Trawalla Avenue, Toorak, VIC 3142",145.013566,-37.839582,POINT (145.013566 -37.839582),True
17532568,"41 Margaret Street South, Yarra, VIC 3141",144.98712,-37.844486,POINT (144.98712 -37.844486),True
17532729,"Brighton St, Richmond, VIC 3121",144.998618,-37.830904,POINT (144.998618 -37.830904),True
17533014,"18 Adam Street, Richmond, VIC 3121",145.003879,-37.819635,POINT (145.003879 -37.819635),True
17533063,"3 St Georges Road, Toorak, VIC 3142",145.01836,-37.84151,POINT (145.01836 -37.84151),True
17534207,"132 Burnley St, Richmond, VIC 3121",145.008396,-37.817442,POINT (145.008396 -37.817442),True
17534772,"25 Malmsbury Street, Hawthorn, VIC 3122",145.044301,-37.821379,POINT (145.044301 -37.821379),True
17534889,"28 Burnley St, Richmond, VIC 3121",145.009352,-37.812662,POINT (145.009352 -37.812662),True
17535024,"Oxley Road, Hawthorn, VIC 3122",145.039797,-37.824674,POINT (145.039797 -37.824674),True
17535177,"5a Torresdale Road, Toorak, VIC 3142",145.021179,-37.835538,POINT (145.021179 -37.835538),True
17535242,"703 Orrong Road, Toorak, VIC 3142",145.013682,-37.84136,POINT (145.013682 -37.84136),True
17535446,"425 Toorak Road, Toorak, VIC 3142",145.006543,-37.840635,POINT (145.006543 -37.840635),True
17535641,"26 Clowes Street South, Yarra, VIC 3141",144.986668,-37.830611,POINT (144.986668 -37.830611),True
17535662,"Brighton Street, Richmond, VIC 3121",144.998618,-37.830904,POINT (144.998618 -37.830904),True
17535749,"36a Cameron St, Richmond, VIC 3121",144.997959,-37.816733,POINT (144.997959 -37.816733),True
17535923,"2 Maple Grove, Toorak, VIC 3142",145.018149,-37.847274,POINT (145.018149 -37.847274),True
17535938,"Waltham St, Richmond, VIC 3121",144.996928,-37.819528,POINT (144.996928 -37.819528),True
17536355,"202 Burwood Rd, Hawthorn, VIC 3122",145.029785,-37.822129,POINT (145.029785 -37.822129),True
17536755,"May Rd, Toorak, VIC 3142",145.004776,-37.847312,POINT (145.004776 -37.847312),True
17536816,"2 Eastern Place, Hawthorn, VIC 3122",145.031704,-37.822814,POINT (145.031704 -37.822814),True
8440673,"216 Burwood Highway, Burwood, VIC 3125",145.11338,-37.850075,POINT (145.11338 -37.850075),True
8669228,"390 Burwood Highway, Burwood, VIC 3125",145.131095,-37.85209,POINT (145.131095 -37.85209),True
8669330,"390 Burwood Highway, Burwood, VIC 3125",145.131095,-37.85209,POINT (145.131095 -37.85209),True
17302190,"Sparks Avenue, Burwood, VIC 3125",145.126134,-37.855782,POINT (145.126134 -37.855782),True
17417494,"Parer Street, Burwood, VIC 3125",145.104254,-37.845923,POINT (145.104254 -37.845923),True
17430305,"Scott Grove, Burwood, VIC 3125",145.097774,-37.852167,POINT (145.097774 -37.852167),True
17441296,"Abrahams Court, Burwood, VIC 3125",145.130346,-37.84575,POINT (145.130346 -37.84575),True
17455392,"Rees St, Burwood, VIC 3125",145.130745,-37.855476,POINT (145.130745 -37.855476),True
17458067,"103 Station Street, Burwood, VIC 3125",145.119924,-37.847635,POINT (145.119924 -37.847635),True
17464517,"Warrigal Road, Burwood, VIC 3125",145.096476,-37.845644,POINT (145.096476 -37.845644),True
17469179,"362 Burwood Highway, Burwood, VIC 3125",145.128012,-37.851793,POINT (145.128012 -37.851793),True
17469247,"Christina Street, Burwood, VIC 3125",145.126098,-37.846558,POINT (145.126098 -37.846558),True
17474131,"399 Burwood Highway, Burwood, VIC 3125",145.131635,-37.851649,POINT (145.131635 -37.851649),True
17477029,"Cookson Way, Burwood, VIC 3125",145.109525,-37.8583,POINT (145.109525 -37.8583),True
17478651,"45a Meldan St, Burwood, VIC 3125",145.105622,-37.843206,POINT (145.105622 -37.843206),True
17479770,"443 Warrigal Road, Burwood, VIC 3125",145.096476,-37.845644,POINT (145.096476 -37.845644),True
17486703,"36 Finch St, Burwood, VIC 3125",145.123464,-37.854083,POINT (145.123464 -37.854083),True
17489904,"Glengarry Avenue, Burwood, VIC 3125",145.11892,-37.844125,POINT (145.11892 -37.844125),True
17379579,"151 Wattle Valley Road, Camberwell, VIC 3124",145.079984,-37.840858,POINT (145.079984 -37.840858),True
17381129,"949 Toorak Road, Camberwell, VIC 3124",145.061432,-37.846365,POINT (145.061432 -37.846365),True
17401191,"1a Iris Road, Camberwell, VIC 3124",145.069537,-37.843198,POINT (145.069537 -37.843198),True
17401373,"Ellsworth Crescent, Camberwell, VIC 3124",145.087634,-37.840739,POINT (145.087634 -37.840739),True
17405405,"Green Street, Camberwell, VIC 3124",145.095328,-37.838539,POINT (145.095328 -37.838539),True
17406101,"1269 Toorak Rd, Camberwell, VIC 3124",145.085156,-37.849024,POINT (145.085156 -37.849024),True
17416920,"903 Riversdale Road, Camberwell, VIC 3124",145.073681,-37.840615,POINT (145.073681 -37.840615),True
17418103,"5 Nevis Street, Camberwell, VIC 3124",145.078999,-37.842768,POINT (145.078999 -37.842768),True
17420307,"French Street, Camberwell, VIC 3124",145.090369,-37.844938,POINT (145.090369 -37.844938),True
17420939,"914 Toorak Road, Camberwell, VIC 3124",145.066147,-37.847062,POINT (145.066147 -37.847062),True
17431520,"249 Highfield Road, Camberwell, VIC 3124",145.082015,-37.847839,POINT (145.082015 -37.847839),True
17431607,"11 Eddy Street, Camberwell, VIC 3124",145.072969,-37.847196,POINT (145.072969 -37.847196),True
17432059,"68 Brinsley Road, Camberwell, VIC 3124",145.067998,-37.831556,POINT (145.067998 -37.831556),True
17433644,"10 Garden Road, Camberwell, VIC 3124",145.090846,-37.844277,POINT (145.090846 -37.844277),True
17436658,"553 Burke Road, Camberwell, VIC 3124",145.073681,-37.840615,POINT (145.073681 -37.840615),True
17438604,"1280 Toorak Road, Camberwell, VIC 3124",145.066147,-37.847062,POINT (145.066147 -37.847062),True
17440421,"136 Through Road, Camberwell, VIC 3124",145.0921,-37.83871,POINT (145.0921 -37.83871),True
17441469,"126 Wattle Valley Rd, Camberwell, VIC 3124",145.080998,-37.837556,POINT (145.080998 -37.837556),True
17444257,"10a Butler Street, Camberwell, VIC 3124",145.060451,-37.833039,POINT (145.060451 -37.833039),True
17445757,"6 Gilmour Road, Camberwell, VIC 3124",145.091004,-37.84126,POINT (145.091004 -37.84126),True
17339822,"101 Albert St, Sebastopol, VIC 3356",143.841315,-37.590747,POINT (143.841315 -37.590747),True
17450562,"Birdwood Avenue, Sebastopol, VIC 3356",143.832565,-37.597694,POINT (143.832565 -37.597694),True
17454163,"Edwards Street, Sebastopol, VIC 3356",143.835543,-37.604696,POINT (143.835543 -37.604696),True
17497870,"Alma Street, Sebastopol, VIC 3356",143.837533,-37.59994,POINT (143.837533 -37.59994),True
17512347,"Rowlands Street, Sebastopol, VIC 3356",143.83581,-37.593514,POINT (143.83581 -37.593514),True
17519274,"246 Howe Street Miners, Rest, VIC 3352",143.799822,-37.477155,POINT (143.799822 -37.477155),True
17526070,"Smythes Road, Delacombe, VIC 3356",143.815983,-37.588939,POINT (143.815983 -37.588939),True
17527225,"47 Yarrowee Street, Sebastopol, VIC 3356",143.843111,-37.587118,POINT (143.843111 -37.587118),True
17528024,"33 Albion Street, Sebastopol, VIC 3356",143.834439,-37.59618,POINT (143.834439 -37.59618),True
17529991,"Sasha Court, Sebastopol, VIC 3356",143.843619,-37.59545,POINT (143.843619 -37.59545),True
17530188,"Linkage Street, Bonshaw, VIC 3352",143.813312,-37.603313,POINT (143.813312 -37.603313),True
17530722,"28a Albion Street, Sebastopol, VIC 3356",143.833738,-37.596051,POINT (143.833738 -37.596051),True
17532031,"Greenhalghs Road, Delacombe, VIC 3356",143.80724,-37.584482,POINT (143.80724 -37.584482),True
17532074,"Yarra Park Dr, Sebastopol, VIC 3356",143.826317,-37.594155,POINT (143.826317 -37.594155),True
17532385,"Simmental Street, Bonshaw, VIC 3352",143.813312,-37.603313,POINT (143.813312 -37.603313),True
17536116,"Whidburn Place, Sebastopol, VIC 3356",143.827978,-37.594204,POINT (143.827978 -37.594204),True
17538417,"Edwards Street, Sebastopol, VIC 3356",143.835543,-37.604696,POINT (143.835543 -37.604696),True
17538516,"Albert Street, Sebastopol, VIC 3356",143.840875,-37.588162,POINT (143.840875 -37.588162),True
17458180,"3 Poplar Street, Thomastown, VIC 3074",145.024226,-37.678936,POINT (145.024226 -37.678936),True
17463935,"Augusta Avenue, Campbellfield, VIC 3061",144.95217,-37.671285,POINT (144.95217 -37.671285),True
17473622,"46a Norwich Court, Campbellfield, VIC 3061",144.959231,-37.662653,POINT (144.959231 -37.662653),True
17475131,"Sycamore Cres, Campbellfield, VIC 3061",144.961708,-37.674606,POINT (144.961708 -37.674606),True
17476481,"Whitfield Crescent, Craigieburn, VIC 3064",144.933042,-37.590804,POINT (144.933042 -37.590804),True
17476502,"Whitfield Crescent, Craigieburn, VIC 3064",144.933042,-37.590804,POINT (144.933042 -37.590804),True
17476546,"Whitfield Crescent, Craigieburn, VIC 3064",144.933042,-37.590804,POINT (144.933042 -37.590804),True
17476580,"Whitfield Crescent, Craigieburn, VIC 3064",144.933042,-37.590804,POINT (144.933042 -37.590804),True
17476613,"Whitfield Crescent, Craigieburn, VIC 3064",144.933042,-37.590804,POINT (144.933042 -37.590804),True
17478462,"Kennedy Parade Roxburgh, Park, VIC 3064",144.9263,-37.622268,POINT (144.9263 -37.622268),True
17480150,"Eremophila Circuit, Craigieburn, VIC 3064",144.933042,-37.590804,POINT (144.933042 -37.590804),True
17480263,"54 Dunstan Parade, Campbellfield, VIC 3061",144.947853,-37.667203,POINT (144.947853 -37.667203),True
17482779,"Whitfield Crescent, Craigieburn, VIC 3064",144.933042,-37.590804,POINT (144.933042 -37.590804),True
17487665,"Greenacres Street, Craigieburn, VIC 3064",144.93683,-37.593633,POINT (144.93683 -37.593633),True
17488625,"Derrick Street, Lalor, VIC 3075",145.02178,-37.671443,POINT (145.02178 -37.671443),True
17460769,"Ross Street, Maryborough, VIC 3465",143.747467,-37.02056,POINT (143.747467 -37.02056),True
17467968,"Holyrood Street, Maryborough, VIC 3465",143.735717,-37.034703,POINT (143.735717 -37.034703),True
17469208,"Primrose Street, Maryborough, VIC 3465",143.75189,-37.045309,POINT (143.75189 -37.045309),True
17486164,"Gladstone Street, Maryborough, VIC 3465",143.730548,-37.040291,POINT (143.730548 -37.040291),True
17490937,"38 Albert Street, Maryborough, VIC 3465",143.739964,-37.053886,POINT (143.739964 -37.053886),True
17499674,"Service Street, Clunes, VIC 3370",143.783937,-37.298566,POINT (143.783937 -37.298566),True
12896799,"Oakdene Crescent, Carnegie, VIC 3163",145.06429,-37.888248,POINT (145.06429 -37.888248),True
15173941,"405 Neerim Road, Carnegie, VIC 3163",145.06552,-37.890329,POINT (145.06552 -37.890329),True
17344881,"25 Elliott Avenue, Carnegie, VIC 3163",145.059833,-37.890253,POINT (145.059833 -37.890253),True
17376904,"161a Oakleigh Road, Carnegie, VIC 3163",145.061486,-37.900067,POINT (145.061486 -37.900067),True
17384293,"60 Moonya Road, Carnegie, VIC 3163",145.062317,-37.896989,POINT (145.062317 -37.896989),True
17388106,"9 Frogmore Road, Carnegie, VIC 3163",145.063983,-37.894376,POINT (145.063983 -37.894376),True
17398050,"Moonya Road, Carnegie, VIC 3163",145.060395,-37.89689,POINT (145.060395 -37.89689),True
17398661,"Neerim Road, Carnegie, VIC 3163",145.060282,-37.889576,POINT (145.060282 -37.889576),True
17401341,"5 Truganini Road, Carnegie, VIC 3163",145.055144,-37.886881,POINT (145.055144 -37.886881),True
17402131,"1260 Glen Huntly Road, Carnegie, VIC 3163",145.047229,-37.890197,POINT (145.047229 -37.890197),True
17404652,"14 Elliott Avenue, Carnegie, VIC 3163",145.060399,-37.889052,POINT (145.060399 -37.889052),True
17405296,"323 Neerim Road, Carnegie, VIC 3163",145.058308,-37.889497,POINT (145.058308 -37.889497),True
17406170,"30 Moonya Road, Carnegie, VIC 3163",145.059256,-37.896623,POINT (145.059256 -37.896623),True
17412402,"7b Rosanna St, Carnegie, VIC 3163",145.056729,-37.898322,POINT (145.056729 -37.898322),True
17413559,"382 Neerim Road, Carnegie, VIC 3163",145.063755,-37.889858,POINT (145.063755 -37.889858),True
17415827,"33 Mimosa Road, Carnegie, VIC 3163",145.051553,-37.891908,POINT (145.051553 -37.891908),True
17416243,"123 Grange Road, Carnegie, VIC 3163",145.044804,-37.889624,POINT (145.044804 -37.889624),True
17416372,"2 Maroona Road, Carnegie, VIC 3163",145.047767,-37.888115,POINT (145.047767 -37.888115),True
17418323,"Munster Avenue, Carnegie, VIC 3163",145.050352,-37.88489,POINT (145.050352 -37.88489),True
17343303,"8 Caulfield Boulevard Caulfield, North, VIC 3161",145.038701,-37.876182,POINT (145.038701 -37.876182),True
17343306,"8 Caulfield Boulevard Caulfield, North, VIC 3161",145.038701,-37.876182,POINT (145.038701 -37.876182),True
17454366,"8 Hudson Street Caulfield, North, VIC 3161",145.033557,-37.879444,POINT (145.033557 -37.879444),True
17482684,"9a Holland Grove Caulfield, North, VIC 3161",145.028913,-37.874067,POINT (145.028913 -37.874067),True
17484373,"8 Caulfield Boulevard Caulfield, North, VIC 3161",145.038701,-37.876182,POINT (145.038701 -37.876182),True
17485481,"3 Wilks Street Caulfield, North, VIC 3161",145.014363,-37.862909,POINT (145.014363 -37.862909),True
17487603,"35 Kooyong Rd Caulfield, North, VIC 3161",145.01843,-37.867085,POINT (145.01843 -37.867085),True
17487637,"30 Narong Road Caulfield, North, VIC 3161",145.02181,-37.868063,POINT (145.02181 -37.868063),True
17489390,"356 Orrong Road Caulfield, North, VIC 3161",145.010222,-37.863045,POINT (145.010222 -37.863045),True
17489510,"96 Hawthorn Road Caulfield, North, VIC 3161",145.024559,-37.872363,POINT (145.024559 -37.872363),True
17490471,"5 Beresford Street Caulfield, North, VIC 3161",145.017477,-37.86726,POINT (145.017477 -37.86726),True
17492105,"1 Village Mews Caulfield, North, VIC 3161",145.037504,-37.87671,POINT (145.037504 -37.87671),True
17495294,"38 Redan Road Caulfield, North, VIC 3161",145.034997,-37.875286,POINT (145.034997 -37.875286),True
17496138,"Hawthorn Avenue Caulfield, North, VIC 3161",145.023366,-37.873438,POINT (145.023366 -37.873438),True
17499066,"8 Caulfield Boulevard Caulfield, North, VIC 3161",145.038701,-37.876182,POINT (145.038701 -37.876182),True
17499317,"Salisbury Street Caulfield, North, VIC 3161",145.023315,-37.870873,POINT (145.023315 -37.870873),True
17500619,"Rowena Street Caulfield, North, VIC 3161",145.027309,-37.873694,POINT (145.027309 -37.873694),True
17500815,"8 Hudson St Caulfield, North, VIC 3161",145.033557,-37.879444,POINT (145.033557 -37.879444),True
17501653,"8 Caulfield Boulevard Caulfield, North, VIC 3161",145.038701,-37.876182,POINT (145.038701 -37.876182),True
17504462,"344 Orrong Road Caulfield, North, VIC 3161",145.010104,-37.86367,POINT (145.010104 -37.86367),True
17329785,"46a Mulkarra Dr, Chelsea, VIC 3196",145.127394,-38.046404,POINT (145.127394 -38.046404),True
17422864,"3 Swan Walk, Chelsea, VIC 3196",145.11602,-38.049359,POINT (145.11602 -38.049359),True
17450734,"59 Golden Avenue, Chelsea, VIC 3196",145.126432,-38.055776,POINT (145.126432 -38.055776),True
17477001,"Station Street, Chelsea, VIC 3196",145.116824,-38.052988,POINT (145.116824 -38.052988),True
17479150,"68 Swan Walk, Chelsea, VIC 3196",145.122481,-38.047896,POINT (145.122481 -38.047896),True
17488500,"Baxter Avenue, Chelsea, VIC 3196",145.123168,-38.046302,POINT (145.123168 -38.046302),True
17503231,"12 Glenola Road, Chelsea, VIC 3196",145.120376,-38.05661,POINT (145.120376 -38.05661),True
17508104,"69 Ella Grove, Chelsea, VIC 3196",145.124335,-38.042007,POINT (145.124335 -38.042007),True
17509953,"26 Sherwood Avenue, Chelsea, VIC 3196",145.120638,-38.05321,POINT (145.120638 -38.05321),True
17513825,"25 Woodbine Grove, Chelsea, VIC 3196",145.120984,-38.053873,POINT (145.120984 -38.053873),True
17515772,"42 Embankment Grove, Chelsea, VIC 3196",145.120015,-38.047509,POINT (145.120015 -38.047509),True
17515886,"69 Argyle Street, Chelsea, VIC 3196",145.121397,-38.049824,POINT (145.121397 -38.049824),True
17515949,"The Esplanade, Edithvale, VIC 3196",145.106871,-38.038705,POINT (145.106871 -38.038705),True
17516123,"Embankment Gr, Chelsea, VIC 3196",145.121983,-38.046684,POINT (145.121983 -38.046684),True
17519151,"28 Glenola Road, Chelsea, VIC 3196",145.122066,-38.056033,POINT (145.122066 -38.056033),True
17520823,"1 Golden Avenue, Chelsea, VIC 3196",145.11952,-38.058105,POINT (145.11952 -38.058105),True
17521971,"74 Elsie Grove, Chelsea, VIC 3196",145.119374,-38.043156,POINT (145.119374 -38.043156),True
17523106,"359b Nepean Hwy, Chelsea, VIC 3196",145.113936,-38.048622,POINT (145.113936 -38.048622),True
17531837,"40b Chelsea Rd, Chelsea, VIC 3196",145.119,-38.050726,POINT (145.119 -38.050726),True
15631831,"1305 Nepean Hwy, Cheltenham, VIC 3192",145.058868,-37.966394,POINT (145.058868 -37.966394),True
15791396,"5 Pallisades Boulevard, Cheltenham, VIC 3192",145.040103,-37.961698,POINT (145.040103 -37.961698),True
16618160,"1228 Nepean Highway, Cheltenham, VIC 3192",145.057392,-37.965819,POINT (145.057392 -37.965819),True
16851448,"Tintern Mews, Cheltenham, VIC 3192",145.059012,-37.951148,POINT (145.059012 -37.951148),True
17431900,"1 Mcivor Street, Cheltenham, VIC 3192",145.057646,-37.962879,POINT (145.057646 -37.962879),True
17440360,"1 Moola Court, Cheltenham, VIC 3192",145.052819,-37.963898,POINT (145.052819 -37.963898),True
17443000,"23 Higham Street, Cheltenham, VIC 3192",145.057363,-37.971164,POINT (145.057363 -37.971164),True
17450231,"1383 Nepean Hwy, Cheltenham, VIC 3192",145.064663,-37.973637,POINT (145.064663 -37.973637),True
17450294,"138 Centre Dandenong Rd, Cheltenham, VIC 3192",145.073268,-37.968389,POINT (145.073268 -37.968389),True
17450424,"Kristine Ct, Cheltenham, VIC 3192",145.079571,-37.964866,POINT (145.079571 -37.964866),True
17453516,"6 Railway Road, Cheltenham, VIC 3192",145.056328,-37.966144,POINT (145.056328 -37.966144),True
17455667,"310 Warrigal Road, Cheltenham, VIC 3192",145.075755,-37.96599,POINT (145.075755 -37.96599),True
17460356,"Argus Street, Cheltenham, VIC 3192",145.058586,-37.958238,POINT (145.058586 -37.958238),True
17464111,"38 Jean Street, Cheltenham, VIC 3192",145.050894,-37.959843,POINT (145.050894 -37.959843),True
17464294,"8 Railway Road, Cheltenham, VIC 3192",145.056936,-37.966219,POINT (145.056936 -37.966219),True
17465077,"1228 Nepean Highway, Cheltenham, VIC 3192",145.057392,-37.965819,POINT (145.057392 -37.965819),True
17465333,"103 Herald Street, Cheltenham, VIC 3192",145.072616,-37.95596,POINT (145.072616 -37.95596),True
17465976,"102 Centre Dandenong Road, Cheltenham, VIC 3192",145.069622,-37.967302,POINT (145.069622 -37.967302),True
17466564,"5 Weymar Street, Cheltenham, VIC 3192",145.060316,-37.961816,POINT (145.060316 -37.961816),True
8643667,"1728 Dandenong Road, Clayton, VIC 3168",145.124255,-37.913018,POINT (145.124255 -37.913018),True
15621102,"Jeanette Street, Clayton, VIC 3168",145.112292,-37.928773,POINT (145.112292 -37.928773),True
15776779,"2 Mary Street, Clayton, VIC 3168",145.121894,-37.921719,POINT (145.121894 -37.921719),True
16747039,"Marshall Avenue, Clayton, VIC 3168",145.127375,-37.908263,POINT (145.127375 -37.908263),True
16831174,"36 Oakes Avenue, Clayton, VIC 3168",145.132717,-37.935828,POINT (145.132717 -37.935828),True
17316948,"Beddoe Avenue, Clayton, VIC 3168",145.128484,-37.908391,POINT (145.128484 -37.908391),True
17389421,"36a Harlington Street, Clayton, VIC 3168",145.111443,-37.922911,POINT (145.111443 -37.922911),True
17405801,"24 Wright Street, Clayton, VIC 3168",145.124979,-37.922084,POINT (145.124979 -37.922084),True
17419363,"67b Kanooka Grove, Clayton, VIC 3168",145.125583,-37.92317,POINT (145.125583 -37.92317),True
17419715,"Brushbox Court, Clayton, VIC 3168",145.129508,-37.922477,POINT (145.129508 -37.922477),True
17422638,"1 Greenfield Drive, Clayton, VIC 3168",145.128168,-37.923144,POINT (145.128168 -37.923144),True
17423787,"19 Seascape Street, Clayton, VIC 3168",145.129918,-37.917361,POINT (145.129918 -37.917361),True
17424815,"864 Blackburn Road, Clayton, VIC 3168",145.140017,-37.92202,POINT (145.140017 -37.92202),True
17425150,"6 Clarkson Court, Clayton, VIC 3168",145.128111,-37.903979,POINT (145.128111 -37.903979),True
17426461,"2 Connam Avenue, Clayton, VIC 3168",145.140017,-37.92202,POINT (145.140017 -37.92202),True
17429184,"Wright Street, Clayton, VIC 3168",145.124409,-37.921875,POINT (145.124409 -37.921875),True
17429442,"43 Ormond Road, Clayton, VIC 3168",145.112049,-37.923594,POINT (145.112049 -37.923594),True
17430508,"10 Prince Street, Clayton, VIC 3168",145.124554,-37.91671,POINT (145.124554 -37.91671),True
17157049,"58 Alexandra Parade Clifton, Hill, VIC 3068",144.988977,-37.793849,POINT (144.988977 -37.793849),True
17223699,"Clifton Avenue Clifton, Hill, VIC 3068",144.997403,-37.791652,POINT (144.997403 -37.791652),True
17296704,"56 John Street Clifton, Hill, VIC 3068",144.995804,-37.787323,POINT (144.995804 -37.787323),True
17401785,"Stan Street Clifton, Hill, VIC 3068",144.999216,-37.794692,POINT (144.999216 -37.794692),True
17421822,"58 Alexandra Parade Clifton, Hill, VIC 3068",144.988977,-37.793849,POINT (144.988977 -37.793849),True
17431822,"122 Roseneath Street Clifton, Hill, VIC 3068",144.999147,-37.793144,POINT (144.999147 -37.793144),True
17436516,"139 Noone Street Clifton, Hill, VIC 3068",144.99864,-37.794348,POINT (144.99864 -37.794348),True
17441485,"Smith Street Clifton, Hill, VIC 3068",144.997721,-37.79139,POINT (144.997721 -37.79139),True
17444835,"5 Berry Street Clifton, Hill, VIC 3068",144.997212,-37.78983,POINT (144.997212 -37.78983),True
17446318,"Roseneath Street Clifton, Hill, VIC 3068",144.997572,-37.792774,POINT (144.997572 -37.792774),True
17446713,"122 Rupert Street, Collingwood, VIC 3066",144.989596,-37.804336,POINT (144.989596 -37.804336),True
17447320,"231 Moor Street, Fitzroy, VIC 3065",144.983528,-37.802015,POINT (144.983528 -37.802015),True
17447610,"43 Gertrude Street, Fitzroy, VIC 3065",144.975698,-37.805431,POINT (144.975698 -37.805431),True
17447688,"36 Boothby Street, Northcote, VIC 3070",145.01304,-37.771118,POINT (145.01304 -37.771118),True
17447732,"Leonard Street, Northcote, VIC 3070",145.013346,-37.781889,POINT (145.013346 -37.781889),True
17448752,"Horne Street Clifton, Hill, VIC 3068",144.998774,-37.791296,POINT (144.998774 -37.791296),True
17449477,"1 Bik Lane Fitzroy, North, VIC 3068",144.978196,-37.784031,POINT (144.978196 -37.784031),True
17450131,"Fenwick Street Clifton, Hill, VIC 3068",145.00008,-37.789346,POINT (145.00008 -37.789346),True
15505953,"Madeira Drive Clyde, North, VIC 3978",145.354085,-38.149821,POINT (145.354085 -38.149821),True
15803432,"Blacksmith Way Clyde, North, VIC 3978",145.354085,-38.149821,POINT (145.354085 -38.149821),True
16412170,"Connewara Crescent Clyde, North, VIC 3978",145.354085,-38.149821,POINT (145.354085 -38.149821),True
16478280,"Freiberger Grove Clyde, North, VIC 3978",145.354085,-38.149821,POINT (145.354085 -38.149821),True
17394179,"Wenn Avenue Clyde, North, VIC 3978",145.354085,-38.149821,POINT (145.354085 -38.149821),True
17412553,"Generation Drive Clyde, North, VIC 3978",145.354085,-38.149821,POINT (145.354085 -38.149821),True
17412581,"Carora Circuit Clyde, North, VIC 3978",145.354085,-38.149821,POINT (145.354085 -38.149821),True
17423431,"Khillari Circuit Clyde, North, VIC 3978",145.354085,-38.149821,POINT (145.354085 -38.149821),True
17423578,"Ritchie Drive Clyde, North, VIC 3978",145.354085,-38.149821,POINT (145.354085 -38.149821),True
17425642,"Skylark Boulevard Clyde, North, VIC 3978",145.354085,-38.149821,POINT (145.354085 -38.149821),True
17427675,"Taupe Circuit Clyde, North, VIC 3978",145.354085,-38.149821,POINT (145.354085 -38.149821),True
17427790,"Grandstand Crescent Clyde, North, VIC 3978",145.354085,-38.149821,POINT (145.354085 -38.149821),True
17428048,"Pajaro Walk Clyde, North, VIC 3978",145.354085,-38.149821,POINT (145.354085 -38.149821),True
17429132,"Mocha Gr Clyde, North, VIC 3978",145.354085,-38.149821,POINT (145.354085 -38.149821),True
17430272,"Maeve Circuit Clyde, North, VIC 3978",145.354085,-38.149821,POINT (145.354085 -38.149821),True
17436616,"Chitwan Street Clyde, North, VIC 3978",145.354085,-38.149821,POINT (145.354085 -38.149821),True
17436638,"Heart Loop Clyde, North, VIC 3978",145.354085,-38.149821,POINT (145.354085 -38.149821),True
17436792,"Burnett Way Clyde, North, VIC 3978",145.354085,-38.149821,POINT (145.354085 -38.149821),True
17437085,"Guiling Rise Clyde, North, VIC 3978",145.354085,-38.149821,POINT (145.354085 -38.149821),True
13457961,"Danthonia Street Coburg, North, VIC 3058",144.978687,-37.729339,POINT (144.978687 -37.729339),True
15243419,"Elizabeth Street Coburg, North, VIC 3058",144.967452,-37.726946,POINT (144.967452 -37.726946),True
15705295,"2 Hudson Street, Coburg, VIC 3058",144.962253,-37.74418,POINT (144.962253 -37.74418),True
16457922,"1 Lake Grove Coburg, North, VIC 3058",144.966484,-37.733582,POINT (144.966484 -37.733582),True
17491613,"Louvain Street Coburg, North, VIC 3058",144.952632,-37.731501,POINT (144.952632 -37.731501),True
17492072,"Mathieson Street Coburg, North, VIC 3058",144.96775,-37.720773,POINT (144.96775 -37.720773),True
17526870,"Jenkin Street Coburg, North, VIC 3058",144.967452,-37.726946,POINT (144.967452 -37.726946),True
17527621,"Manly Court Coburg, North, VIC 3058",144.969761,-37.720479,POINT (144.969761 -37.720479),True
17528730,"Fame Street Coburg, North, VIC 3058",144.96311,-37.728893,POINT (144.96311 -37.728893),True
17530530,"Spectrum Way Coburg, North, VIC 3058",144.982374,-37.727207,POINT (144.982374 -37.727207),True
17532818,"21a Rodney Avenue Coburg, North, VIC 3058",144.953818,-37.721162,POINT (144.953818 -37.721162),True
17538358,"32 Galeka Street Coburg, North, VIC 3058",144.957435,-37.721243,POINT (144.957435 -37.721243),True
17538494,"32 Galeka Street Coburg, North, VIC 3058",144.957435,-37.721243,POINT (144.957435 -37.721243),True
17539727,"Bakers Road Coburg, North, VIC 3058",144.963674,-37.727436,POINT (144.963674 -37.727436),True
17541933,"156 Leamington Street, Reservoir, VIC 3073",144.992675,-37.711097,POINT (144.992675 -37.711097),True
17542501,"866 Pascoe Vale Road, Glenroy, VIC 3046",144.915343,-37.70116,POINT (144.915343 -37.70116),True
17542535,"Olive Street, Reservoir, VIC 3073",145.004064,-37.717831,POINT (145.004064 -37.717831),True
17543320,"43 High Street, Preston, VIC 3072",145.001689,-37.750782,POINT (145.001689 -37.750782),True
17545821,"42 Park Street Pascoe, Vale, VIC 3044",144.924223,-37.725046,POINT (144.924223 -37.725046),True
16841803,"Gibson Circuit, Colac, VIC 3250",143.585664,-38.341175,POINT (143.585664 -38.341175),True
17407751,"Adrian St, Colac, VIC 3250",143.57297,-38.33657,POINT (143.57297 -38.33657),True
17416617,"Church Street, Colac, VIC 3250",143.60233,-38.343125,POINT (143.60233 -38.343125),True
17416703,"Ligar Street, Colac, VIC 3250",143.578623,-38.33596,POINT (143.578623 -38.33596),True
17423423,"Wallace Street, Colac, VIC 3250",143.596928,-38.342016,POINT (143.596928 -38.342016),True
17426656,"Bilson Street, Colac, VIC 3250",143.568832,-38.330864,POINT (143.568832 -38.330864),True
17447158,"26 William Street Gol, Gol, NSW 2738",142.221973,-34.178766,POINT (142.221973 -34.178766),True
17467341,"10b Dawn Avenue Gol, Gol, NSW 2738",142.212912,-34.173285,POINT (142.212912 -34.173285),True
17512184,"Adelaide Street Gol, Gol, NSW 2738",142.221213,-34.17991,POINT (142.221213 -34.17991),True
17340476,"154 Cremorne Street, Cremorne, VIC 3121",144.990135,-37.829828,POINT (144.990135 -37.829828),True
17435804,"Blanche St, Cremorne, VIC 3121",144.989728,-37.826933,POINT (144.989728 -37.826933),True
17469137,"Green Street, Cremorne, VIC 3121",144.994588,-37.829123,POINT (144.994588 -37.829123),True
17476192,"154 Cremorne Street, Cremorne, VIC 3121",144.990135,-37.829828,POINT (144.990135 -37.829828),True
17478611,"154 Cremorne Street, Cremorne, VIC 3121",144.990135,-37.829828,POINT (144.990135 -37.829828),True
17478868,"166 Cubitt St, Cremorne, VIC 3121",144.991774,-37.83138,POINT (144.991774 -37.83138),True
17485773,"Green Street, Cremorne, VIC 3121",144.994588,-37.829123,POINT (144.994588 -37.829123),True
17487738,"154 Cremorne St, Cremorne, VIC 3121",144.990135,-37.829828,POINT (144.990135 -37.829828),True
17491106,"35 Fitzgerald Street South, Yarra, VIC 3141",144.992861,-37.842304,POINT (144.992861 -37.842304),True
17491207,"408 Lonsdale St, Melbourne, VIC 3004",144.960402,-37.812598,POINT (144.960402 -37.812598),True
17491395,"1 Dyer Street, Richmond, VIC 3121",145.003598,-37.81656,POINT (145.003598 -37.81656),True
17491547,"33 La Trobe Street, Melbourne, VIC 3004",144.970359,-37.807906,POINT (144.970359 -37.807906),True
17491893,"2 Cromwell Road South, Yarra, VIC 3141",144.999684,-37.847122,POINT (144.999684 -37.847122),True
17492361,"2 Belgravia St, Richmond, VIC 3121",145.010468,-37.826148,POINT (145.010468 -37.826148),True
17492607,"41 Park Street South, Yarra, VIC 3141",144.981799,-37.836663,POINT (144.981799 -37.836663),True
17493051,"59 Stawell Street, Richmond, VIC 3121",145.010404,-37.822014,POINT (145.010404 -37.822014),True
17493117,"200 Spencer Street, Melbourne, VIC 3000",144.953168,-37.8163,POINT (144.953168 -37.8163),True
17493248,"Hobson Street South, Yarra, VIC 3141",145.001469,-37.846937,POINT (145.001469 -37.846937),True
17493922,"6 Lord Street, Richmond, VIC 3121",145.004963,-37.819772,POINT (145.004963 -37.819772),True
13559433,"89 Pultney Street, Dandenong, VIC 3175",145.220116,-37.994404,POINT (145.220116 -37.994404),True
15692711,"13 Canberra Avenue, Dandenong, VIC 3175",145.207966,-37.995655,POINT (145.207966 -37.995655),True
16349629,"Wilma Avenue, Dandenong, VIC 3175",145.202606,-37.980882,POINT (145.202606 -37.980882),True
16588779,"114 Princes Highway, Dandenong, VIC 3175",145.207326,-37.978069,POINT (145.207326 -37.978069),True
17390764,"Ronald Street, Dandenong, VIC 3175",145.222876,-37.988279,POINT (145.222876 -37.988279),True
17393605,"1 Hemmings Street, Dandenong, VIC 3175",145.210758,-37.983952,POINT (145.210758 -37.983952),True
17430482,"33 Ann, Dandenong, VIC 3175",145.214281,-37.978608,POINT (145.214281 -37.978608),True
17439138,"1 Maurice Street, Dandenong, VIC 3175",145.197798,-37.971831,POINT (145.197798 -37.971831),True
17440892,"23 Belfort Street, Dandenong, VIC 3175",145.198809,-37.979526,POINT (145.198809 -37.979526),True
17453319,"3 Close Avenue, Dandenong, VIC 3175",145.210701,-37.982888,POINT (145.210701 -37.982888),True
17456933,"1 Fox Street, Dandenong, VIC 3175",145.22353,-37.993491,POINT (145.22353 -37.993491),True
17457141,"103 Mccrae Street, Dandenong, VIC 3175",145.22287,-37.992061,POINT (145.22287 -37.992061),True
17458027,"Power Street, Dandenong, VIC 3175",145.222738,-37.99085,POINT (145.222738 -37.99085),True
17458859,"Keneally Street, Dandenong, VIC 3175",145.204436,-37.992829,POINT (145.204436 -37.992829),True
17461894,"23 Edith Street, Dandenong, VIC 3175",145.2188,-37.982208,POINT (145.2188 -37.982208),True
17463450,"8 Jolly Street, Dandenong, VIC 3175",145.198833,-37.978443,POINT (145.198833 -37.978443),True
17466702,"Rodd Street, Dandenong, VIC 3175",145.210168,-37.985218,POINT (145.210168 -37.985218),True
17466947,"56 Hemmings Street, Dandenong, VIC 3175",145.203986,-37.982659,POINT (145.203986 -37.982659),True
17467590,"3 Herbert Street, Dandenong, VIC 3175",145.210229,-37.977645,POINT (145.210229 -37.977645),True
17470773,"51 Birdwood Avenue, Dandenong, VIC 3175",145.197558,-37.980125,POINT (145.197558 -37.980125),True
15920859,"17 Ware Street, Camperdown, VIC 3260",143.142481,-38.232611,POINT (143.142481 -38.232611),True
16326528,"5 Elgar Court, Doncaster, VIC 3108",145.124036,-37.788639,POINT (145.124036 -37.788639),True
17302229,"Goodson Street, Doncaster, VIC 3108",145.128783,-37.784934,POINT (145.128783 -37.784934),True
17411191,"23 Anthony Avenue, Doncaster, VIC 3108",145.10985,-37.77509,POINT (145.10985 -37.77509),True
17425593,"Doncaster Road, Doncaster, VIC 3108",145.128974,-37.78732,POINT (145.128974 -37.78732),True
17439614,"Manningham Road, Doncaster, VIC 3108",145.12198,-37.778806,POINT (145.12198 -37.778806),True
17455105,"36 Boyd Street, Doncaster, VIC 3108",145.124165,-37.792344,POINT (145.124165 -37.792344),True
17459148,"330 Manningham Road, Doncaster, VIC 3108",145.116965,-37.775887,POINT (145.116965 -37.775887),True
17467946,"Ryall Court, Doncaster, VIC 3108",145.143643,-37.781141,POINT (145.143643 -37.781141),True
17478463,"Boyd Street, Doncaster, VIC 3108",145.124517,-37.79224,POINT (145.124517 -37.79224),True
17480946,"Stables Circuit, Doncaster, VIC 3108",145.116762,-37.78718,POINT (145.116762 -37.78718),True
17481387,"Heritage Boulevard, Doncaster, VIC 3108",145.11555,-37.784782,POINT (145.11555 -37.784782),True
17481569,"74 Williamsons Road, Doncaster, VIC 3108",145.124346,-37.78169,POINT (145.124346 -37.78169),True
17481994,"632 Doncaster Road, Doncaster, VIC 3108",145.126612,-37.787536,POINT (145.126612 -37.787536),True
17482031,"Vintage Avenue, Doncaster, VIC 3108",145.116858,-37.779694,POINT (145.116858 -37.779694),True
17482033,"93 Tram Road, Doncaster, VIC 3108",145.124917,-37.789142,POINT (145.124917 -37.789142),True
17483679,"Gray Street, Doncaster, VIC 3108",145.108963,-37.789755,POINT (145.108963 -37.789755),True
17486907,"765 Doncaster Road, Doncaster, VIC 3108",145.135016,-37.786461,POINT (145.135016 -37.786461),True
17487726,"Makybe Walk, Doncaster, VIC 3108",145.117007,-37.786548,POINT (145.117007 -37.786548),True
17488721,"Cantala Drive, Doncaster, VIC 3108",145.128015,-37.777029,POINT (145.128015 -37.777029),True
17489006,"30 Fromhold Drive, Doncaster, VIC 3108",145.142929,-37.782475,POINT (145.142929 -37.782475),True
14369284,"Horning St, Doreen, VIC 3754",145.123811,-37.605662,POINT (145.123811 -37.605662),True
16364609,"Besra Drive, Doreen, VIC 3754",145.123924,-37.583317,POINT (145.123924 -37.583317),True
17342739,"Wallaroo Way, Doreen, VIC 3754",145.107945,-37.610812,POINT (145.107945 -37.610812),True
17344187,"Mulwala Drive, Doreen, VIC 3754",145.13639,-37.606381,POINT (145.13639 -37.606381),True
17358386,"Vantage Point Boulevard, Doreen, VIC 3754",145.112032,-37.606,POINT (145.112032 -37.606),True
17366834,"Ferlie Place, Doreen, VIC 3754",145.126454,-37.608188,POINT (145.126454 -37.608188),True
17375585,"Braford Drive, Doreen, VIC 3754",145.122774,-37.593284,POINT (145.122774 -37.593284),True
17376718,"Wicybush Street, Doreen, VIC 3754",145.126619,-37.605524,POINT (145.126619 -37.605524),True
17377436,"Lakeland Drive, Doreen, VIC 3754",145.133672,-37.58999,POINT (145.133672 -37.58999),True
17382827,"Spirit Avenue, Doreen, VIC 3754",145.115799,-37.611155,POINT (145.115799 -37.611155),True
17386907,"Echelon Road, Doreen, VIC 3754",145.110403,-37.600148,POINT (145.110403 -37.600148),True
17387890,"Beltons Way, Doreen, VIC 3754",145.123572,-37.58856,POINT (145.123572 -37.58856),True
17392378,"Mollison Drive, Doreen, VIC 3754",145.120629,-37.579359,POINT (145.120629 -37.579359),True
17403829,"Bedervale Loop, Doreen, VIC 3754",145.124509,-37.589145,POINT (145.124509 -37.589145),True
17408629,"Nesci Street, Doreen, VIC 3754",145.123447,-37.608616,POINT (145.123447 -37.608616),True
17409136,"Braeburn Street, Doreen, VIC 3754",145.129248,-37.610748,POINT (145.129248 -37.610748),True
17410367,"Tilt Road, Doreen, VIC 3754",145.125316,-37.577272,POINT (145.125316 -37.577272),True
17414682,"Berkshire Street, Doreen, VIC 3754",145.112939,-37.605933,POINT (145.112939 -37.605933),True
17418435,"Elation Boulevard, Doreen, VIC 3754",145.124419,-37.614862,POINT (145.124419 -37.614862),True
17419576,"Coorigil Place, Doreen, VIC 3754",145.15,-37.6,POINT (145.15 -37.6),True
15321160,"Leura Street, Drouin, VIC 3818",145.861696,-38.127426,POINT (145.861696 -38.127426),True
15414202,"Bertram Street, Drouin, VIC 3818",145.858302,-38.129694,POINT (145.858302 -38.129694),True
16315844,"Jarrah Crescent, Warragul, VIC 3820",145.952617,-38.150275,POINT (145.952617 -38.150275),True
17460637,"1 Landsborough Street, Warragul, VIC 3820",145.931097,-38.172872,POINT (145.931097 -38.172872),True
17516633,"16a Longwarry Road, Drouin, VIC 3818",145.846024,-38.128518,POINT (145.846024 -38.128518),True
17522386,"Sutherland Way, Drouin, VIC 3818",145.842719,-38.129979,POINT (145.842719 -38.129979),True
17522484,"Staghorn Way, Drouin, VIC 3818",145.847064,-38.116213,POINT (145.847064 -38.116213),True
17523142,"Peachtree Drive, Drouin, VIC 3818",145.825831,-38.098753,POINT (145.825831 -38.098753),True
17524210,"Lantana Avenue, Warragul, VIC 3820",145.910736,-38.145998,POINT (145.910736 -38.145998),True
17525043,"Ballast Drive, Warragul, VIC 3820",145.934879,-38.161766,POINT (145.934879 -38.161766),True
17525184,"Penrith Avenue, Warragul, VIC 3820",145.934879,-38.161766,POINT (145.934879 -38.161766),True
17525400,"Brynwood Avenue, Drouin, VIC 3818",145.860438,-38.135241,POINT (145.860438 -38.135241),True
17530371,"Nolan Drive, Warragul, VIC 3820",145.934741,-38.127755,POINT (145.934741 -38.127755),True
17531814,"1 Gould Street, Drouin, VIC 3818",145.855947,-38.142342,POINT (145.855947 -38.142342),True
17532210,"Pepperell Drive, Drouin, VIC 3818",145.853265,-38.105996,POINT (145.853265 -38.105996),True
17532369,"Emma Close, Drouin, VIC 3818",145.848339,-38.139206,POINT (145.848339 -38.139206),True
17533615,"4 Logan Street, Warragul, VIC 3820",145.922218,-38.155258,POINT (145.922218 -38.155258),True
17534037,"Skyline Drive, Warragul, VIC 3820",145.90935,-38.145537,POINT (145.90935 -38.145537),True
17536331,"Queen Street, Warragul, VIC 3820",145.935621,-38.164912,POINT (145.935621 -38.164912),True
15673342,"Ritchie Street, Leongatha, VIC 3953",145.944412,-38.480622,POINT (145.944412 -38.480622),True
16379321,"13 Hassett Street, Leongatha, VIC 3953",145.952667,-38.479807,POINT (145.952667 -38.479807),True
16587005,"Jeffrey Street, Leongatha, VIC 3953",145.954261,-38.477058,POINT (145.954261 -38.477058),True
16767879,"Blackmore Avenue, Leongatha, VIC 3953",145.950794,-38.482129,POINT (145.950794 -38.482129),True
17424074,"Peacock Street Mirboo, North, VIC 3871",146.164229,-38.402586,POINT (146.164229 -38.402586),True
17468743,"Rena Court Venus, Bay, VIC 3956",145.827751,-38.700621,POINT (145.827751 -38.700621),True
17492695,"108 Mccartin Street, Leongatha, VIC 3953",145.940702,-38.479751,POINT (145.940702 -38.479751),True
17531386,"Royle Court East, Bairnsdale, VIC 3875",147.651408,-37.829116,POINT (147.651408 -37.829116),True
17540324,"327 Main Street, Bairnsdale, VIC 3875",147.619003,-37.829019,POINT (147.619003 -37.829019),True
17540866,"Bull Street, Bairnsdale, VIC 3875",147.613923,-37.82423,POINT (147.613923 -37.82423),True
17541347,"Eastcoast Court East, Bairnsdale, VIC 3875",147.648396,-37.826862,POINT (147.648396 -37.826862),True
17543491,"Main Street, Bairnsdale, VIC 3875",147.602262,-37.835176,POINT (147.602262 -37.835176),True
10052231,"Kilpatrick Avenue, Shepparton, VIC 3630",145.405057,-36.365153,POINT (145.405057 -36.365153),True
10936709,"Clive Street, Shepparton, VIC 3630",145.412538,-36.368231,POINT (145.412538 -36.368231),True
12511322,"Orchard Circuit, Shepparton, VIC 3630",145.408336,-36.359981,POINT (145.408336 -36.359981),True
15043482,"69 Mcdonald Street, Shepparton, VIC 3630",145.411828,-36.392329,POINT (145.411828 -36.392329),True
15803013,"21 Barker Avenue, Shepparton, VIC 3630",145.409561,-36.374421,POINT (145.409561 -36.374421),True
17418892,"Savoy Nook, Shepparton, VIC 3630",145.424876,-36.408858,POINT (145.424876 -36.408858),True
17418986,"Phillips, Shepparton, VIC 3630",145.395184,-36.362332,POINT (145.395184 -36.362332),True
17419216,"Westmorland Crescent, Shepparton, VIC 3630",145.411533,-36.401786,POINT (145.411533 -36.401786),True
17420035,"Lake Street, Shepparton, VIC 3630",145.399153,-36.391841,POINT (145.399153 -36.391841),True
17420904,"Hummingbird Place, Shepparton, VIC 3630",145.414856,-36.359791,POINT (145.414856 -36.359791),True
17421293,"Erwen Court, Shepparton, VIC 3630",145.410975,-36.397767,POINT (145.410975 -36.397767),True
17422440,"2 Welsford Street, Shepparton, VIC 3630",145.398851,-36.374021,POINT (145.398851 -36.374021),True
17423732,"Hawdon Street, Shepparton, VIC 3630",145.415755,-36.36878,POINT (145.415755 -36.36878),True
17424086,"34 Chertsey Road, Shepparton, VIC 3630",145.413128,-36.375053,POINT (145.413128 -36.375053),True
17425802,"Donmaria, Shepparton, VIC 3630",145.406836,-36.36548,POINT (145.406836 -36.36548),True
17425898,"50a Guthrie Street, Shepparton, VIC 3630",145.390262,-36.398597,POINT (145.390262 -36.398597),True
17426447,"Donmaria Court, Shepparton, VIC 3630",145.406836,-36.36548,POINT (145.406836 -36.36548),True
17429922,"Batman Avenue, Shepparton, VIC 3630",145.383932,-36.359405,POINT (145.383932 -36.359405),True
17430791,"71 Callister Street, Shepparton, VIC 3630",145.415498,-36.391178,POINT (145.415498 -36.391178),True
17159392,"30 St Andrews Place East, Melbourne, VIC 3002",144.976176,-37.811771,POINT (144.976176 -37.811771),True
17490295,"Hotham Street East, Melbourne, VIC 3002",144.989406,-37.814616,POINT (144.989406 -37.814616),True
17496731,"322 Albert Street East, Melbourne, VIC 3002",144.980274,-37.80984,POINT (144.980274 -37.80984),True
17500722,"62 Simpson Street East, Melbourne, VIC 3002",144.988346,-37.815001,POINT (144.988346 -37.815001),True
17503548,"192a George Street East, Melbourne, VIC 3002",144.983579,-37.814937,POINT (144.983579 -37.814937),True
17504787,"35 George Street East, Melbourne, VIC 3002",144.989208,-37.815848,POINT (144.989208 -37.815848),True
17505749,"1235 Hoddle Street East, Melbourne, VIC 3002",144.990776,-37.811424,POINT (144.990776 -37.811424),True
17507244,"58 Charles St East, Melbourne, VIC 3002",144.981404,-37.81723,POINT (144.981404 -37.81723),True
17507617,"162 Albert Street East, Melbourne, VIC 3002",144.985531,-37.810043,POINT (144.985531 -37.810043),True
17507619,"322 Albert Street East, Melbourne, VIC 3002",144.980274,-37.80984,POINT (144.980274 -37.80984),True
17508496,"Victoria Parade East, Melbourne, VIC 3002",144.975852,-37.808411,POINT (144.975852 -37.808411),True
17509478,"30 Grey Street East, Melbourne, VIC 3002",144.990168,-37.81215,POINT (144.990168 -37.81215),True
17510710,"150 Clarendon Street East, Melbourne, VIC 3002",144.983539,-37.812236,POINT (144.983539 -37.812236),True
17513709,"66 Simpson St East, Melbourne, VIC 3002",144.988368,-37.81487,POINT (144.988368 -37.81487),True
17514698,"Gipps Street East, Melbourne, VIC 3002",144.987078,-37.813111,POINT (144.987078 -37.813111),True
17515775,"296 Victoria Parade East, Melbourne, VIC 3002",144.981443,-37.809306,POINT (144.981443 -37.809306),True
17519359,"108 George Street East, Melbourne, VIC 3002",144.986789,-37.815255,POINT (144.986789 -37.815255),True
17520548,"4 Garden Avenue East, Melbourne, VIC 3002",144.988962,-37.816514,POINT (144.988962 -37.816514),True
17522383,"191 Powlett Street East, Melbourne, VIC 3002",144.986005,-37.810055,POINT (144.986005 -37.810055),True
17532456,"280 Albert Street East, Melbourne, VIC 3002",144.981764,-37.809741,POINT (144.981764 -37.809741),True
11869815,"4 Kinsey Street, Moama, NSW 2731",144.757031,-36.108754,POINT (144.757031 -36.108754),True
15759888,"High Street, Echuca, VIC 3564",144.751123,-36.140504,POINT (144.751123 -36.140504),True
16236166,"5 Maiden Street, Moama, NSW 2731",144.75795,-36.110053,POINT (144.75795 -36.110053),True
17355838,"9 Mcswain Road, Echuca, VIC 3564",144.728833,-36.144419,POINT (144.728833 -36.144419),True
17427539,"Hopwood Street, Echuca, VIC 3564",144.746672,-36.134652,POINT (144.746672 -36.134652),True
17457792,"Chanter Street, Moama, NSW 2731",144.771105,-36.114899,POINT (144.771105 -36.114899),True
17459325,"20 Simms Street, Moama, NSW 2731",144.762621,-36.11462,POINT (144.762621 -36.11462),True
17459938,"Landsborough Street, Echuca, VIC 3564",144.746897,-36.124656,POINT (144.746897 -36.124656),True
17463335,"Martin Street, Moama, NSW 2731",144.760866,-36.108184,POINT (144.760866 -36.108184),True
17466985,"9 Hare Street, Echuca, VIC 3564",144.752253,-36.139646,POINT (144.752253 -36.139646),True
17468466,"9 Hare Street, Echuca, VIC 3564",144.752253,-36.139646,POINT (144.752253 -36.139646),True
17479505,"Roberts Court, Echuca, VIC 3564",144.768211,-36.13772,POINT (144.768211 -36.13772),True
17485747,"Lakeview Drive, Moama, NSW 2731",144.735231,-36.097137,POINT (144.735231 -36.097137),True
17489330,"Wharparilla Road, Echuca, VIC 3564",144.750017,-36.129592,POINT (144.750017 -36.129592),True
17492310,"Magnolia Drive, Echuca, VIC 3564",144.721383,-36.135235,POINT (144.721383 -36.135235),True
15615401,"Leviticus Street, Epping, VIC 3076",145.000536,-37.62159,POINT (145.000536 -37.62159),True
15713404,"Brigantia Street, Epping, VIC 3076",144.996645,-37.621221,POINT (144.996645 -37.621221),True
17008714,"46 Coulstock Street, Epping, VIC 3076",145.028256,-37.649738,POINT (145.028256 -37.649738),True
17156548,"Cover Link, Epping, VIC 3076",145.019555,-37.634042,POINT (145.019555 -37.634042),True
17292513,"Calendula Circuit, Epping, VIC 3076",145.056635,-37.648627,POINT (145.056635 -37.648627),True
17377823,"Cascade Crescent, Epping, VIC 3076",145.032106,-37.62711,POINT (145.032106 -37.62711),True
17408984,"Wyena Grove, Epping, VIC 3076",145.020224,-37.632996,POINT (145.020224 -37.632996),True
17417855,"Chandra Place, Epping, VIC 3076",144.998396,-37.624254,POINT (144.998396 -37.624254),True
17420933,"Gammage Boulevard, Epping, VIC 3076",145.005777,-37.625088,POINT (145.005777 -37.625088),True
17422938,"Granite Outlook, Epping, VIC 3076",145.035448,-37.631259,POINT (145.035448 -37.631259),True
17427157,"Shields Street, Epping, VIC 3076",145.009792,-37.626924,POINT (145.009792 -37.626924),True
17427268,"2b Narin Court, Epping, VIC 3076",145.054151,-37.647824,POINT (145.054151 -37.647824),True
17427620,"Manley Street, Epping, VIC 3076",145.031417,-37.631843,POINT (145.031417 -37.631843),True
17427668,"Salvador Drive, Epping, VIC 3076",145.022416,-37.63542,POINT (145.022416 -37.63542),True
17429710,"Gottloh Street, Epping, VIC 3076",145.003388,-37.633081,POINT (145.003388 -37.633081),True
17431854,"Lynch Close, Epping, VIC 3076",145.033644,-37.646002,POINT (145.033644 -37.646002),True
17432183,"Edgards Road, Epping, VIC 3076",145.025908,-37.641564,POINT (145.025908 -37.641564),True
17433047,"Cauduro Way, Epping, VIC 3076",145.011285,-37.623546,POINT (145.011285 -37.623546),True
17433422,"City View Crescent, Epping, VIC 3076",145.015256,-37.623107,POINT (145.015256 -37.623107),True
17433452,"Gibbons Drive, Epping, VIC 3076",145.059239,-37.64875,POINT (145.059239 -37.64875),True
17219634,"Moreland Road, Essendon, VIC 3040",144.926144,-37.750977,POINT (144.926144 -37.750977),True
17442222,"35 King Street, Essendon, VIC 3040",144.90599,-37.746551,POINT (144.90599 -37.746551),True
17460280,"1046 Mount Alexander Road, Essendon, VIC 3040",144.913598,-37.748725,POINT (144.913598 -37.748725),True
17483959,"Edward Street, Essendon, VIC 3040",144.91242,-37.752908,POINT (144.91242 -37.752908),True
17484093,"14 Forrester Street, Essendon, VIC 3040",144.905921,-37.753019,POINT (144.905921 -37.753019),True
17485467,"1 Forrester Street, Essendon, VIC 3040",144.906767,-37.753499,POINT (144.906767 -37.753499),True
17487431,"100 Keilor Road, Essendon, VIC 3040",144.91246,-37.7512,POINT (144.91246 -37.7512),True
17488005,"7 Garnet Street, Essendon, VIC 3040",144.91246,-37.7512,POINT (144.91246 -37.7512),True
17488585,"5 Flower Street, Essendon, VIC 3040",144.914024,-37.755674,POINT (144.914024 -37.755674),True
17490391,"1 Fuller Street, Essendon, VIC 3040",144.91342,-37.744118,POINT (144.91342 -37.744118),True
17491098,"77 Ogilvie St, Essendon, VIC 3040",144.89282,-37.747319,POINT (144.89282 -37.747319),True
17492098,"69 Lincoln Road, Essendon, VIC 3040",144.908782,-37.750444,POINT (144.908782 -37.750444),True
17492459,"55 Collins Street, Essendon, VIC 3040",144.907453,-37.743623,POINT (144.907453 -37.743623),True
17494127,"40 Collins St, Essendon, VIC 3040",144.908107,-37.743878,POINT (144.908107 -37.743878),True
17494250,"2 Fitzgerald Rd, Essendon, VIC 3040",144.926687,-37.757989,POINT (144.926687 -37.757989),True
17494828,"312 Pascoe Vale Road, Essendon, VIC 3040",144.925637,-37.746907,POINT (144.925637 -37.746907),True
17496518,"23 Brewster St, Essendon, VIC 3040",144.92269,-37.751492,POINT (144.92269 -37.751492),True
17497126,"202a Pascoe Vale Road, Essendon, VIC 3040",144.926249,-37.755724,POINT (144.926249 -37.755724),True
17497641,"97c Ogilvie Street, Essendon, VIC 3040",144.893075,-37.745836,POINT (144.893075 -37.745836),True
17498273,"32 Napier Street, Essendon, VIC 3040",144.918203,-37.754075,POINT (144.918203 -37.754075),True
13486029,"Boolite Street, Eynesbury, VIC 3338",144.545118,-37.790348,POINT (144.545118 -37.790348),True
16346164,"Cobram Drive, Eynesbury, VIC 3338",144.549925,-37.783931,POINT (144.549925 -37.783931),True
16404745,"Green Hill Road, Eynesbury, VIC 3338",144.542568,-37.788979,POINT (144.542568 -37.788979),True
16446569,"Echuca Avenue, Eynesbury, VIC 3338",144.550448,-37.782224,POINT (144.550448 -37.782224),True
16846574,"Seville Avenue, Eynesbury, VIC 3338",144.545409,-37.78133,POINT (144.545409 -37.78133),True
16892371,"Crowlands Circuit, Eynesbury, VIC 3338",144.600248,-37.759451,POINT (144.600248 -37.759451),True
16908378,"Crowlands Circuit, Eynesbury, VIC 3338",144.600248,-37.759451,POINT (144.600248 -37.759451),True
16932289,"Rochester Crescent, Eynesbury, VIC 3338",144.551569,-37.783181,POINT (144.551569 -37.783181),True
17061229,"Bundalong Drive, Eynesbury, VIC 3338",144.600248,-37.759451,POINT (144.600248 -37.759451),True
17100318,"Green Hill Road, Eynesbury, VIC 3338",144.542568,-37.788979,POINT (144.542568 -37.788979),True
17217691,"Joel Way, Eynesbury, VIC 3338",144.600248,-37.759451,POINT (144.600248 -37.759451),True
17467237,"Cobram Drive, Eynesbury, VIC 3338",144.549925,-37.783931,POINT (144.549925 -37.783931),True
17467735,"Bowenvale Street, Eynesbury, VIC 3338",144.600248,-37.759451,POINT (144.600248 -37.759451),True
17467867,"Bowenvale Street, Eynesbury, VIC 3338",144.600248,-37.759451,POINT (144.600248 -37.759451),True
17468340,"Bowenvale Street, Eynesbury, VIC 3338",144.600248,-37.759451,POINT (144.600248 -37.759451),True
17470708,"Mitiamo Street, Eynesbury, VIC 3338",144.600248,-37.759451,POINT (144.600248 -37.759451),True
17490652,"Hazelmere Avenue, Eynesbury, VIC 3338",144.546872,-37.780152,POINT (144.546872 -37.780152),True
17492800,"Eynesbury Road, Eynesbury, VIC 3338",144.562994,-37.773393,POINT (144.562994 -37.773393),True
17500516,"Edenhope Place, Eynesbury, VIC 3338",144.54965,-37.787341,POINT (144.54965 -37.787341),True
17501222,"Cobram Drive, Eynesbury, VIC 3338",144.549925,-37.783931,POINT (144.549925 -37.783931),True
14668756,"17 Penn Court, Fawkner, VIC 3060",144.966708,-37.703253,POINT (144.966708 -37.703253),True
15911812,"Argyle Street, Fawkner, VIC 3060",144.967684,-37.717346,POINT (144.967684 -37.717346),True
16480063,", Fawkner, VIC 3060",144.969606,-37.705235,POINT (144.969606 -37.705235),True
17074949,", Fawkner, VIC 3060",144.969606,-37.705235,POINT (144.969606 -37.705235),True
17155198,", Fawkner, VIC 3060",144.969606,-37.705235,POINT (144.969606 -37.705235),True
17268152,"137a Jukes Road, Fawkner, VIC 3060",144.964503,-37.701764,POINT (144.964503 -37.701764),True
17366056,"11 Twyford Street, Fawkner, VIC 3060",144.974287,-37.698175,POINT (144.974287 -37.698175),True
17401159,"48 Argyle Street, Fawkner, VIC 3060",144.97142,-37.717627,POINT (144.97142 -37.717627),True
17454044,"104 Lynch Rd, Fawkner, VIC 3060",144.964503,-37.710902,POINT (144.964503 -37.710902),True
17465744,"Bruce Street, Fawkner, VIC 3060",144.972343,-37.709884,POINT (144.972343 -37.709884),True
17469370,"Sandra Ave, Fawkner, VIC 3060",144.9603,-37.695896,POINT (144.9603 -37.695896),True
17470544,"37 Murray Street, Fawkner, VIC 3060",144.963347,-37.705466,POINT (144.963347 -37.705466),True
17472141,"26 Tyson Street, Fawkner, VIC 3060",144.973303,-37.700271,POINT (144.973303 -37.700271),True
17477864,"60 Murray Street, Fawkner, VIC 3060",144.961354,-37.704945,POINT (144.961354 -37.704945),True
17478164,"1b Undera Court, Fawkner, VIC 3060",144.972821,-37.713695,POINT (144.972821 -37.713695),True
17478625,"18 Dorothy Street, Fawkner, VIC 3060",144.966844,-37.69352,POINT (144.966844 -37.69352),True
17483802,"2 Bailey Cres Oak, Park, VIC 3046",144.922025,-37.720679,POINT (144.922025 -37.720679),True
17484272,"166 Waterloo Road Oak, Park, VIC 3046",144.922381,-37.719101,POINT (144.922381 -37.719101),True
17484598,"Valley Crescent, Glenroy, VIC 3046",144.905231,-37.701252,POINT (144.905231 -37.701252),True
16323436,"98 Leicester Street, Fitzroy, VIC 3065",144.980132,-37.795476,POINT (144.980132 -37.795476),True
16330399,"98 Leicester Street, Fitzroy, VIC 3065",144.980132,-37.795476,POINT (144.980132 -37.795476),True
17327053,"363 George Street, Fitzroy, VIC 3065",144.981753,-37.798308,POINT (144.981753 -37.798308),True
17492377,"5 St David Street, Fitzroy, VIC 3065",144.978691,-37.800545,POINT (144.978691 -37.800545),True
17521241,"178 George Street, Fitzroy, VIC 3065",144.981257,-37.803591,POINT (144.981257 -37.803591),True
17525039,"1 St David Street, Fitzroy, VIC 3065",144.978691,-37.800545,POINT (144.978691 -37.800545),True
17530142,"74 Nicholson Street, Fitzroy, VIC 3065",144.973598,-37.806114,POINT (144.973598 -37.806114),True
17533261,"John Street, Fitzroy, VIC 3065",144.97629,-37.800772,POINT (144.97629 -37.800772),True
17534750,"Gore Street, Fitzroy, VIC 3065",144.983121,-37.79864,POINT (144.983121 -37.79864),True
17534848,"Moor Street, Fitzroy, VIC 3065",144.983159,-37.802124,POINT (144.983159 -37.802124),True
17534925,"Moor Street, Fitzroy, VIC 3065",144.983159,-37.802124,POINT (144.983159 -37.802124),True
17535170,"George Street, Fitzroy, VIC 3065",144.982621,-37.794388,POINT (144.982621 -37.794388),True
17537570,"150 Kerr Street, Fitzroy, VIC 3065",144.980421,-37.797088,POINT (144.980421 -37.797088),True
17538603,"250 Gore Street, Fitzroy, VIC 3065",144.982754,-37.801859,POINT (144.982754 -37.801859),True
17540583,"239 Napier St, Fitzroy, VIC 3065",144.980157,-37.800612,POINT (144.980157 -37.800612),True
17541026,"Kerr Street, Fitzroy, VIC 3065",144.98279,-37.797178,POINT (144.98279 -37.797178),True
17542830,"Gore Street, Fitzroy, VIC 3065",144.983121,-37.79864,POINT (144.983121 -37.79864),True
17543608,"185 Rose Street, Fitzroy, VIC 3065",144.983948,-37.796368,POINT (144.983948 -37.796368),True
17545718,"250 Gore Street, Fitzroy, VIC 3065",144.982754,-37.801859,POINT (144.982754 -37.801859),True
17546789,"2 Rochester Street, Fitzroy, VIC 3065",144.981128,-37.798922,POINT (144.981128 -37.798922),True
16822136,"Bass Street, Flinders, VIC 3929",145.02124,-38.476542,POINT (145.02124 -38.476542),True
16923745,"Frankston Flinders Road, Shoreham, VIC 3916",145.050073,-38.416609,POINT (145.050073 -38.416609),True
17133276,"Leon Avenue, Rosebud, VIC 3939",144.912925,-38.363381,POINT (144.912925 -38.363381),True
17154370,"39 Cook Street, Flinders, VIC 3929",145.017946,-38.474267,POINT (145.017946 -38.474267),True
17220538,"46 Cook Street, Flinders, VIC 3929",145.017379,-38.473688,POINT (145.017379 -38.473688),True
17287885,"41 Cook Street, Flinders, VIC 3929",145.017752,-38.474243,POINT (145.017752 -38.474243),True
17307879,"Frankston Flinders Road, Shoreham, VIC 3916",145.050073,-38.416609,POINT (145.050073 -38.416609),True
17332508,"Cook Street, Flinders, VIC 3929",145.019189,-38.474162,POINT (145.019189 -38.474162),True
17333832,"Rest Drive, Flinders, VIC 3929",145.02517,-38.465794,POINT (145.02517 -38.465794),True
17363174,"Mornington Flinders Road, Flinders, VIC 3929",144.98123,-38.42293,POINT (144.98123 -38.42293),True
17385106,"Boneo Road, Flinders, VIC 3929",145.003694,-38.472668,POINT (145.003694 -38.472668),True
17407397,"The Avenue, Flinders, VIC 3929",145.021877,-38.472099,POINT (145.021877 -38.472099),True
17430256,"13 Mark Street, Rosebud, VIC 3939",144.913428,-38.359327,POINT (144.913428 -38.359327),True
17430738,"Anne Street, Rosebud, VIC 3939",144.913754,-38.375157,POINT (144.913754 -38.375157),True
17433904,"Foam Street, Rosebud, VIC 3939",144.907912,-38.363441,POINT (144.907912 -38.363441),True
17441389,"Blackwood Place, Rosebud, VIC 3939",144.91403,-38.378268,POINT (144.91403 -38.378268),True
17441472,"5 Sherwood Avenue, Rosebud, VIC 3939",144.914718,-38.381364,POINT (144.914718 -38.381364),True
17441821,"Spray Street, Rosebud, VIC 3939",144.904883,-38.362825,POINT (144.904883 -38.362825),True
16225021,"Victor Crescent Forest, Hill, VIC 3131",145.167677,-37.843176,POINT (145.167677 -37.843176),True
16398931,"13a Victor Crescent Forest, Hill, VIC 3131",145.167334,-37.842716,POINT (145.167334 -37.842716),True
16512109,"Course Close Forest, Hill, VIC 3131",145.169384,-37.839588,POINT (145.169384 -37.839588),True
16793996,"Marong Terrace Forest, Hill, VIC 3131",145.167363,-37.834728,POINT (145.167363 -37.834728),True
17370121,"305 Canterbury Road Forest, Hill, VIC 3131",145.174039,-37.833905,POINT (145.174039 -37.833905),True
17391629,"Springvale Road Forest, Hill, VIC 3131",145.172708,-37.835159,POINT (145.172708 -37.835159),True
17424341,"Vanbrook Street Forest, Hill, VIC 3131",145.177159,-37.839821,POINT (145.177159 -37.839821),True
17441124,"21 Norma Road Forest, Hill, VIC 3131",145.168903,-37.841768,POINT (145.168903 -37.841768),True
17441558,"25 Quentin Street Forest, Hill, VIC 3131",145.172929,-37.838882,POINT (145.172929 -37.838882),True
17457742,"Ashmore Road Forest, Hill, VIC 3131",145.182747,-37.838657,POINT (145.182747 -37.838657),True
17465743,"Hampshire Road Forest, Hill, VIC 3131",145.179198,-37.841994,POINT (145.179198 -37.841994),True
17466329,"Stevens Road Forest, Hill, VIC 3131",145.171264,-37.837884,POINT (145.171264 -37.837884),True
17467432,"305 Canterbury Road Forest, Hill, VIC 3131",145.174039,-37.833905,POINT (145.174039 -37.833905),True
17467670,"18 Lernes Street Forest, Hill, VIC 3131",145.180781,-37.836872,POINT (145.180781 -37.836872),True
17470191,"Lasiandra Avenue Forest, Hill, VIC 3131",145.183742,-37.832772,POINT (145.183742 -37.832772),True
17470807,"11 Quentin Street Forest, Hill, VIC 3131",145.173117,-37.841926,POINT (145.173117 -37.841926),True
17479136,"2 Golden Glen Road Forest, Hill, VIC 3131",145.164569,-37.844455,POINT (145.164569 -37.844455),True
17481136,"Maldon Terrace Forest, Hill, VIC 3131",145.167812,-37.839144,POINT (145.167812 -37.839144),True
17483799,"Stringybark Close Forest, Hill, VIC 3131",145.166524,-37.832873,POINT (145.166524 -37.832873),True
16078544,"Roberts Street, Frankston, VIC 3199",145.139798,-38.155516,POINT (145.139798 -38.155516),True
16851013,"Naranga Crescent, Frankston, VIC 3199",145.163712,-38.148145,POINT (145.163712 -38.148145),True
16945958,"Karingal Drive, Frankston, VIC 3199",145.158878,-38.142594,POINT (145.158878 -38.142594),True
17337332,"Williams Street, Frankston, VIC 3199",145.125372,-38.152571,POINT (145.125372 -38.152571),True
17451503,"28a Williams Street, Frankston, VIC 3199",145.11974,-38.151249,POINT (145.11974 -38.151249),True
17488030,"Argyle Street, Frankston, VIC 3199",145.126146,-38.153749,POINT (145.126146 -38.153749),True
17497553,"Nolan Street, Frankston, VIC 3199",145.11979,-38.149639,POINT (145.11979 -38.149639),True
17497677,"9 Allenby Street, Frankston, VIC 3199",145.130616,-38.147239,POINT (145.130616 -38.147239),True
17499907,"3 Ashleigh Street, Frankston, VIC 3199",145.14396,-38.144397,POINT (145.14396 -38.144397),True
17500497,"Murawa Street, Frankston, VIC 3199",145.132688,-38.158796,POINT (145.132688 -38.158796),True
17501293,"Parwan Court, Frankston, VIC 3199",145.167766,-38.136966,POINT (145.167766 -38.136966),True
17501728,"Isabella Crescent, Frankston, VIC 3199",145.157105,-38.174247,POINT (145.157105 -38.174247),True
17501955,"74 Beach Street, Frankston, VIC 3199",145.130245,-38.142531,POINT (145.130245 -38.142531),True
17501999,"11 Williams Street, Frankston, VIC 3199",145.117463,-38.150176,POINT (145.117463 -38.150176),True
17502279,"Finlay Street, Frankston, VIC 3199",145.131631,-38.140278,POINT (145.131631 -38.140278),True
17503034,"4 Muir Street, Frankston, VIC 3199",145.118378,-38.15191,POINT (145.118378 -38.15191),True
17503449,"5 Kars Street, Frankston, VIC 3199",145.120743,-38.149161,POINT (145.120743 -38.149161),True
17392726,"146 Bellerine Street, Geelong, VIC 3220",144.362537,-38.153242,POINT (144.362537 -38.153242),True
17394334,"44 Ryrie Street, Geelong, VIC 3220",144.3552,-38.148231,POINT (144.3552 -38.148231),True
17395600,"134 Little Ryrie Street, Geelong, VIC 3220",144.363034,-38.151811,POINT (144.363034 -38.151811),True
17398186,"146 Bellerine Street, Geelong, VIC 3220",144.362537,-38.153242,POINT (144.362537 -38.153242),True
17399688,"18 Malone Street, Geelong, VIC 3220",144.355811,-38.140737,POINT (144.355811 -38.140737),True
17399773,"Alexandra Avenue, Geelong, VIC 3220",144.371207,-38.149046,POINT (144.371207 -38.149046),True
17402432,"98 Mckillop Street, Geelong, VIC 3220",144.362258,-38.155109,POINT (144.362258 -38.155109),True
17402661,"Bellerine Street, Geelong, VIC 3220",144.363296,-38.154039,POINT (144.363296 -38.154039),True
17405609,"York Street, Geelong, VIC 3220",144.35408,-38.136423,POINT (144.35408 -38.136423),True
17405740,"50 Eastern Beach Road, Geelong, VIC 3220",144.370974,-38.14797,POINT (144.370974 -38.14797),True
17406229,"63 Swanston Street, Geelong, VIC 3220",144.366859,-38.153068,POINT (144.366859 -38.153068),True
17407159,"2 Bayley Street, Geelong, VIC 3220",144.357551,-38.144722,POINT (144.357551 -38.144722),True
17409046,"44 Ryrie Street, Geelong, VIC 3220",144.3552,-38.148231,POINT (144.3552 -38.148231),True
17411643,"312 Moorabool Street, Geelong, VIC 3220",144.357075,-38.154656,POINT (144.357075 -38.154656),True
17411974,"10 Fitzroy Street, Geelong, VIC 3220",144.370794,-38.149377,POINT (144.370794 -38.149377),True
17412621,"2 Park Street, Geelong, VIC 3220",144.368477,-38.15075,POINT (144.368477 -38.15075),True
17413584,"103 Kilgour Street, Geelong, VIC 3220",144.360622,-38.156149,POINT (144.360622 -38.156149),True
17414099,"Alexandra Avenue, Geelong, VIC 3220",144.371207,-38.149046,POINT (144.371207 -38.149046),True
17418450,"21 Lonsdale Street, Geelong, VIC 3220",144.360272,-38.158287,POINT (144.360272 -38.158287),True
14563972,"116 Isabella Street Geelong, West, VIC 3218",144.340282,-38.132045,POINT (144.340282 -38.132045),True
16876735,"Hope Street Geelong, West, VIC 3218",144.344925,-38.141776,POINT (144.344925 -38.141776),True
17470614,"4d Addis Street Geelong, West, VIC 3218",144.336452,-38.144368,POINT (144.336452 -38.144368),True
17472434,"Hope Street Geelong, West, VIC 3218",144.344925,-38.141776,POINT (144.344925 -38.141776),True
17473097,"16 Mcnicol Street Geelong, West, VIC 3218",144.351938,-38.145357,POINT (144.351938 -38.145357),True
17480039,"Clarence Street Geelong, West, VIC 3218",144.342634,-38.139195,POINT (144.342634 -38.139195),True
17481540,"French Street Geelong, West, VIC 3218",144.339006,-38.142364,POINT (144.339006 -38.142364),True
17486630,"4 Howe Court Geelong, West, VIC 3218",144.346266,-38.133863,POINT (144.346266 -38.133863),True
17488102,"46 Clarence Street Geelong, West, VIC 3218",144.344758,-38.139113,POINT (144.344758 -38.139113),True
17489471,"Britannia Street Geelong, West, VIC 3218",144.343586,-38.134216,POINT (144.343586 -38.134216),True
17490442,"Potter Street Geelong, West, VIC 3218",144.344423,-38.145901,POINT (144.344423 -38.145901),True
17491059,"Aberdeen Street Geelong, West, VIC 3218",144.351528,-38.147289,POINT (144.351528 -38.147289),True
17493066,"2 Aberdeen Street Geelong, West, VIC 3218",144.352009,-38.147181,POINT (144.352009 -38.147181),True
17495472,"Britannia Street Geelong, West, VIC 3218",144.343586,-38.134216,POINT (144.343586 -38.134216),True
17496369,"Shannon Avenue Geelong, West, VIC 3218",144.34493,-38.138976,POINT (144.34493 -38.138976),True
17496662,"21 Ann Street Geelong, West, VIC 3218",144.34119,-38.135458,POINT (144.34119 -38.135458),True
17497895,"156 Aberdeen Street Geelong, West, VIC 3218",144.339564,-38.145698,POINT (144.339564 -38.145698),True
17499230,"Britannia Street Geelong, West, VIC 3218",144.343586,-38.134216,POINT (144.343586 -38.134216),True
17504358,"7 Scarlett Street Geelong, West, VIC 3218",144.34442,-38.136958,POINT (144.34442 -38.136958),True
16800630,"12 Gavan Street, Bright, VIC 3741",146.948494,-36.726807,POINT (146.948494 -36.726807),True
17396151,"Damms Court Tawonga, South, VIC 3698",147.153827,-36.732014,POINT (147.153827 -36.732014),True
17444842,"Fiddleback Drive Tawonga, South, VIC 3698",147.146569,-36.721688,POINT (147.146569 -36.721688),True
17466101,"Mystic Lane, Bright, VIC 3741",146.971883,-36.744036,POINT (146.971883 -36.744036),True
17477591,"10 Gavan Street, Bright, VIC 3741",146.948425,-36.726573,POINT (146.948425 -36.726573),True
17478729,"Woodlands Grove, Bright, VIC 3741",146.958339,-36.732242,POINT (146.958339 -36.732242),True
14333837,"Ainsworth Crescent Diggers, Rest, VIC 3427",144.709135,-37.627259,POINT (144.709135 -37.627259),True
14977517,"9 Lakes Drive, Sunbury, VIC 3429",144.74824,-37.582552,POINT (144.74824 -37.582552),True
16056680,"Bouquet Circuit Diggers, Rest, VIC 3427",144.712882,-37.62508,POINT (144.712882 -37.62508),True
16120384,"Maroon Way Diggers, Rest, VIC 3427",144.696184,-37.625961,POINT (144.696184 -37.625961),True
16904616,"Voisin Drive Diggers, Rest, VIC 3427",144.702016,-37.616654,POINT (144.702016 -37.616654),True
16927451,"Mcewen Drive, Sunbury, VIC 3429",144.729488,-37.563208,POINT (144.729488 -37.563208),True
17015583,"Colonus Street, Kurunjang, VIC 3337",144.589705,-37.653978,POINT (144.589705 -37.653978),True
17154279,"Peters Road, Gisborne, VIC 3437",144.64173,-37.485355,POINT (144.64173 -37.485355),True
17459182,"Needlebush Drive, Sunbury, VIC 3429",144.72144,-37.578841,POINT (144.72144 -37.578841),True
17465027,"Regner Dr, Sunbury, VIC 3429",144.72144,-37.578841,POINT (144.72144 -37.578841),True
17482707,"Eutaxia Street, Sunbury, VIC 3429",144.72144,-37.578841,POINT (144.72144 -37.578841),True
17485080,"Shirley Street, Sunbury, VIC 3429",144.72144,-37.578841,POINT (144.72144 -37.578841),True
17487484,"Fragrant Crescent Diggers, Rest, VIC 3427",144.697606,-37.624537,POINT (144.697606 -37.624537),True
17490443,"Rynas Way Diggers, Rest, VIC 3427",144.712882,-37.62508,POINT (144.712882 -37.62508),True
17493636,"Mulgutherie Way, Gisborne, VIC 3437",144.579339,-37.489921,POINT (144.579339 -37.489921),True
17494189,"Palmerston Street, Melton, VIC 3337",144.583296,-37.683876,POINT (144.583296 -37.683876),True
17494207,"30 Lindsay Ave, Sunbury, VIC 3429",144.704897,-37.574723,POINT (144.704897 -37.574723),True
17494563,"Gleneagles Drive Melton, West, VIC 3337",144.543652,-37.683535,POINT (144.543652 -37.683535),True
15790571,"Anchor Parade Cape, Paterson, VIC 3995",145.612729,-38.669522,POINT (145.612729 -38.669522),True
15911458,"Stewart Street, Wonthaggi, VIC 3995",145.59525,-38.616704,POINT (145.59525 -38.616704),True
16314790,"Fault Crescent North, Wonthaggi, VIC 3995",145.593784,-38.590538,POINT (145.593784 -38.590538),True
16723697,"Colliery Avenue North, Wonthaggi, VIC 3995",145.593784,-38.590538,POINT (145.593784 -38.590538),True
17033218,"Surf Beach Rd Cape, Paterson, VIC 3995",145.613602,-38.67329,POINT (145.613602 -38.67329),True
17170226,"Norfolk Street North, Wonthaggi, VIC 3995",145.593784,-38.590538,POINT (145.593784 -38.590538),True
17386850,"Turner Street North, Wonthaggi, VIC 3995",145.599466,-38.592776,POINT (145.599466 -38.592776),True
17388754,"Cavil Drive North, Wonthaggi, VIC 3995",145.593784,-38.590538,POINT (145.593784 -38.590538),True
17415908,"Seaward Drive Cape, Paterson, VIC 3995",145.613111,-38.671372,POINT (145.613111 -38.671372),True
17423880,"Merrin Crescent, Wonthaggi, VIC 3995",145.591293,-38.614909,POINT (145.591293 -38.614909),True
17425484,"17b Nelson Street North, Wonthaggi, VIC 3995",145.593662,-38.591752,POINT (145.593662 -38.591752),True
17429262,"Fuller Road North, Wonthaggi, VIC 3995",145.593784,-38.590538,POINT (145.593784 -38.590538),True
17430876,"Noonflower Close Cape, Paterson, VIC 3995",145.613111,-38.671372,POINT (145.613111 -38.671372),True
17434119,"44 Baillieu Street West, Wonthaggi, VIC 3995",145.583997,-38.608717,POINT (145.583997 -38.608717),True
17435258,"Hagelthorn Street, Wonthaggi, VIC 3995",145.57864,-38.612098,POINT (145.57864 -38.612098),True
17436459,"Korumburra Road, Wonthaggi, VIC 3995",145.593691,-38.602484,POINT (145.593691 -38.602484),True
17352247,"Tooronga Road Glen, Iris, VIC 3146",145.042226,-37.852809,POINT (145.042226 -37.852809),True
17370768,"1645 Malvern Road Glen, Iris, VIC 3146",145.054949,-37.857187,POINT (145.054949 -37.857187),True
17384476,"Valley Parade Glen, Iris, VIC 3146",145.057415,-37.85261,POINT (145.057415 -37.85261),True
17387195,"38 Osborne Avenue Glen, Iris, VIC 3146",145.047287,-37.85479,POINT (145.047287 -37.85479),True
17388462,"Rowen Street Glen, Iris, VIC 3146",145.089856,-37.858296,POINT (145.089856 -37.858296),True
17389479,"Great Valley Road Glen, Iris, VIC 3146",145.056825,-37.853403,POINT (145.056825 -37.853403),True
17394253,"15 Belmont Avenue Glen, Iris, VIC 3146",145.048018,-37.857027,POINT (145.048018 -37.857027),True
17396324,"5 Scott Grove Glen, Iris, VIC 3146",145.048833,-37.858168,POINT (145.048833 -37.858168),True
17399704,"Nepean Street Glen, Iris, VIC 3146",145.054858,-37.848576,POINT (145.054858 -37.848576),True
17403087,"1494 High Street Glen, Iris, VIC 3146",145.045242,-37.858824,POINT (145.045242 -37.858824),True
17403919,"1517 Malvern Road Glen, Iris, VIC 3146",145.045309,-37.853264,POINT (145.045309 -37.853264),True
17404410,"Ellis Road Glen, Iris, VIC 3146",145.046574,-37.86026,POINT (145.046574 -37.86026),True
17405036,"2 Scott Grove Glen, Iris, VIC 3146",145.049802,-37.858546,POINT (145.049802 -37.858546),True
17405723,"245 Burke Road Glen, Iris, VIC 3146",145.051721,-37.856195,POINT (145.051721 -37.856195),True
17406704,"8 Lithgow Street Glen, Iris, VIC 3146",145.08129,-37.849804,POINT (145.08129 -37.849804),True
17407338,"1429 High Street Glen, Iris, VIC 3146",145.046788,-37.858682,POINT (145.046788 -37.858682),True
17411503,"63 Edgar Street North Glen, Iris, VIC 3146",145.045911,-37.850509,POINT (145.045911 -37.850509),True
17415264,"Finch Street Glen, Iris, VIC 3146",145.045144,-37.861569,POINT (145.045144 -37.861569),True
17415341,"42 Wills Street Glen, Iris, VIC 3146",145.05614,-37.855982,POINT (145.05614 -37.855982),True
17415511,"1395 High Street Glen, Iris, VIC 3146",145.042742,-37.858199,POINT (145.042742 -37.858199),True
14271772,"39b Hampshire Road Glen, Waverley, VIC 3150",145.1465,-37.900932,POINT (145.1465 -37.900932),True
15885195,"Madigan Drive Glen, Waverley, VIC 3150",145.188463,-37.890347,POINT (145.188463 -37.890347),True
15958159,"Plymouth Street Glen, Waverley, VIC 3150",145.174334,-37.864445,POINT (145.174334 -37.864445),True
16400528,"Delmore Crescent Glen, Waverley, VIC 3150",145.153036,-37.864279,POINT (145.153036 -37.864279),True
16412737,"20 Melaleuca Drive Glen, Waverley, VIC 3150",145.157334,-37.891631,POINT (145.157334 -37.891631),True
17403096,"3 Juniper Avenue Glen, Waverley, VIC 3150",145.157883,-37.889004,POINT (145.157883 -37.889004),True
17445600,"Fiander Avenue Glen, Waverley, VIC 3150",145.149295,-37.878938,POINT (145.149295 -37.878938),True
17457746,"Torwood Avenue Glen, Waverley, VIC 3150",145.187295,-37.880421,POINT (145.187295 -37.880421),True
17478056,"Northam Street Glen, Waverley, VIC 3150",145.190191,-37.889806,POINT (145.190191 -37.889806),True
17478589,"Gaynor Crescent Glen, Waverley, VIC 3150",145.178661,-37.866448,POINT (145.178661 -37.866448),True
17493774,"576 Highbury Road Glen, Waverley, VIC 3150",145.157714,-37.860772,POINT (145.157714 -37.860772),True
17496496,"25 Osullivan Road Glen, Waverley, VIC 3150",145.164178,-37.876386,POINT (145.164178 -37.876386),True
17496931,"39 Kingsway Glen, Waverley, VIC 3150",145.163684,-37.87987,POINT (145.163684 -37.87987),True
17498413,"Panoramic Grove Glen, Waverley, VIC 3150",145.169309,-37.880278,POINT (145.169309 -37.880278),True
17498532,"29a Monterey Avenue Glen, Waverley, VIC 3150",145.158643,-37.89056,POINT (145.158643 -37.89056),True
17499161,"Folkestone Road Glen, Waverley, VIC 3150",145.153773,-37.861075,POINT (145.153773 -37.861075),True
17499611,"Franklin Court Glen, Waverley, VIC 3150",145.148436,-37.885312,POINT (145.148436 -37.885312),True
17500011,"Kauri Grove Glen, Waverley, VIC 3150",145.154851,-37.893127,POINT (145.154851 -37.893127),True
17500058,"26 Tobias Avenue Glen, Waverley, VIC 3150",145.168677,-37.888107,POINT (145.168677 -37.888107),True
17500150,"30 Cambridge Drive Glen, Waverley, VIC 3150",145.148687,-37.89155,POINT (145.148687 -37.89155),True
16128216,"Harvey Court Hampton, Park, VIC 3976",145.278129,-38.042506,POINT (145.278129 -38.042506),True
16658530,"7 Beth Court Hampton, Park, VIC 3976",145.274597,-38.032679,POINT (145.274597 -38.032679),True
16989341,"Landscape Boulevard Hampton, Park, VIC 3976",145.274628,-38.027241,POINT (145.274628 -38.027241),True
17027084,"41 Coral Drive Hampton, Park, VIC 3976",145.269683,-38.036122,POINT (145.269683 -38.036122),True
17343929,"4 Justin Circuit Hampton, Park, VIC 3976",145.270916,-38.027857,POINT (145.270916 -38.027857),True
17466598,"Garnet Court Hampton, Park, VIC 3976",145.248071,-38.027936,POINT (145.248071 -38.027936),True
17467065,"The Parkway Hampton, Park, VIC 3976",145.275232,-38.051567,POINT (145.275232 -38.051567),True
17471163,"Mahogany Close Hampton, Park, VIC 3976",145.275413,-38.050113,POINT (145.275413 -38.050113),True
17483828,"Sunshine Court Hampton, Park, VIC 3976",145.261555,-38.042877,POINT (145.261555 -38.042877),True
17488892,"Ellaswood Court Hampton, Park, VIC 3976",145.261476,-38.024739,POINT (145.261476 -38.024739),True
17500434,"26 Beckington Crescent Hampton, Park, VIC 3976",145.257363,-38.026325,POINT (145.257363 -38.026325),True
17505361,"Erin Court Hampton, Park, VIC 3976",145.278154,-38.04329,POINT (145.278154 -38.04329),True
17515767,"Aldridge Court Hampton, Park, VIC 3976",145.280511,-38.032511,POINT (145.280511 -38.032511),True
17518190,"Strong Drive Hampton, Park, VIC 3976",145.273738,-38.035135,POINT (145.273738 -38.035135),True
17518212,"Blackwood Drive Hampton, Park, VIC 3976",145.271997,-38.025233,POINT (145.271997 -38.025233),True
17522833,"Springfield Crescent Hampton, Park, VIC 3976",145.272041,-38.040987,POINT (145.272041 -38.040987),True
17523293,"Fordholm Road Hampton, Park, VIC 3976",145.265403,-38.035447,POINT (145.265403 -38.035447),True
17532498,"Pauline Court Hampton, Park, VIC 3976",145.278938,-38.045178,POINT (145.278938 -38.045178),True
17538970,"Denver Court Hampton, Park, VIC 3976",145.265213,-38.040266,POINT (145.265213 -38.040266),True
17541742,"Andrew Street Hampton, Park, VIC 3976",145.256773,-38.036836,POINT (145.256773 -38.036836),True
17519802,"1429 High Street Glen, Iris, VIC 3146",145.046788,-37.858682,POINT (145.046788 -37.858682),True
17536096,"2b Trafalgar Road, Camberwell, VIC 3124",145.064065,-37.829334,POINT (145.064065 -37.829334),True
17537460,"Croydon Road Surrey, Hills, VIC 3127",145.089899,-37.822906,POINT (145.089899 -37.822906),True
17537836,"4 Georgina Parade, Camberwell, VIC 3124",145.074615,-37.844124,POINT (145.074615 -37.844124),True
17538367,"18 Leopold Street Glen, Iris, VIC 3146",145.043051,-37.85958,POINT (145.043051 -37.85958),True
17538373,"Compton St, Canterbury, VIC 3126",145.083942,-37.832907,POINT (145.083942 -37.832907),True
17539655,"96 Camberwell Road Hawthorn, East, VIC 3123",145.051663,-37.827163,POINT (145.051663 -37.827163),True
17541160,"1295 Toorak Road, Camberwell, VIC 3124",145.087708,-37.84934,POINT (145.087708 -37.84934),True
17541244,"27 Auburn Grove Hawthorn, East, VIC 3123",145.04809,-37.825345,POINT (145.04809 -37.825345),True
17541335,"Tourello Avenue Hawthorn, East, VIC 3123",145.052984,-37.838695,POINT (145.052984 -37.838695),True
17541393,"Gilbert Parade, Camberwell, VIC 3124",145.073641,-37.843689,POINT (145.073641 -37.843689),True
17541492,"46 Wattle Valley Road, Canterbury, VIC 3126",145.082616,-37.829057,POINT (145.082616 -37.829057),True
17542179,"1705 Malvern Road Glen, Iris, VIC 3146",145.056083,-37.858402,POINT (145.056083 -37.858402),True
17542188,"Havelock Road Hawthorn, East, VIC 3123",145.052421,-37.832866,POINT (145.052421 -37.832866),True
17542723,"Warburton Road, Canterbury, VIC 3126",145.073497,-37.826174,POINT (145.073497 -37.826174),True
17543393,"24 Rochester Road, Canterbury, VIC 3126",145.08208,-37.821299,POINT (145.08208 -37.821299),True
16040042,"71 Riversdale Rd, Hawthorn, VIC 3122",145.032349,-37.828361,POINT (145.032349 -37.828361),True
16905797,"174 Power Street, Hawthorn, VIC 3122",145.025419,-37.82566,POINT (145.025419 -37.82566),True
17460960,"41 Morang Rd, Hawthorn, VIC 3122",145.024246,-37.823658,POINT (145.024246 -37.823658),True
17477990,"Illawarra Road, Hawthorn, VIC 3122",145.040087,-37.831509,POINT (145.040087 -37.831509),True
17483152,"Chrystobel Crescent, Hawthorn, VIC 3122",145.033124,-37.818962,POINT (145.033124 -37.818962),True
17484964,"205 Auburn Road, Hawthorn, VIC 3122",145.044388,-37.827183,POINT (145.044388 -37.827183),True
17486128,"19 Park Street, Hawthorn, VIC 3122",145.03756,-37.819843,POINT (145.03756 -37.819843),True
17486549,"523 Burwood Road, Hawthorn, VIC 3122",145.041355,-37.823161,POINT (145.041355 -37.823161),True
17487248,"60 Hawthorn Grove, Hawthorn, VIC 3122",145.034167,-37.81584,POINT (145.034167 -37.81584),True
17487339,"Morang Road, Hawthorn, VIC 3122",145.024082,-37.824083,POINT (145.024082 -37.824083),True
17488795,"28 Pine Street, Hawthorn, VIC 3122",145.0218,-37.814067,POINT (145.0218 -37.814067),True
17489643,"2 Golding Street, Hawthorn, VIC 3122",145.032887,-37.822147,POINT (145.032887 -37.822147),True
17495107,"19a Hawthorn Grove, Hawthorn, VIC 3122",145.03141,-37.815149,POINT (145.03141 -37.815149),True
17496172,"18 Connell Street, Hawthorn, VIC 3122",145.023485,-37.818527,POINT (145.023485 -37.818527),True
17497084,"Malmsbury Street, Hawthorn, VIC 3122",145.043942,-37.821385,POINT (145.043942 -37.821385),True
17497324,"523 Burwood Road, Hawthorn, VIC 3122",145.041355,-37.823161,POINT (145.041355 -37.823161),True
17497821,"Belgrave Street, Hawthorn, VIC 3122",145.040974,-37.828724,POINT (145.040974 -37.828724),True
17498625,"31 Queens Avenue, Hawthorn, VIC 3122",145.04428,-37.82286,POINT (145.04428 -37.82286),True
17498813,"7 Lyndhurst Crescent, Hawthorn, VIC 3122",145.042879,-37.818588,POINT (145.042879 -37.818588),True
17499085,"Lennox Street, Hawthorn, VIC 3122",145.024082,-37.820443,POINT (145.024082 -37.820443),True
15524691,"Hill Drive, Kyneton, VIC 3444",144.448251,-37.262682,POINT (144.448251 -37.262682),True
15531724,"Quinn Crescent, Kyneton, VIC 3444",144.470047,-37.252897,POINT (144.470047 -37.252897),True
15814112,"Simpson Street, Kyneton, VIC 3444",144.451814,-37.250056,POINT (144.451814 -37.250056),True
17383670,"3b Jacobs Avenue, Kyneton, VIC 3444",144.463263,-37.244057,POINT (144.463263 -37.244057),True
17418327,"Wedge Street, Kyneton, VIC 3444",144.446107,-37.246068,POINT (144.446107 -37.246068),True
17425213,"Castles Crescent, Kyneton, VIC 3444",144.467353,-37.254404,POINT (144.467353 -37.254404),True
17430011,"Blair Drive, Kyneton, VIC 3444",144.465233,-37.24752,POINT (144.465233 -37.24752),True
17433006,"High Street, Kyneton, VIC 3444",144.47022,-37.259363,POINT (144.47022 -37.259363),True
16710449,"9 Martin Street, Heidelberg, VIC 3084",145.059664,-37.754165,POINT (145.059664 -37.754165),True
17505083,"Dee St, Heidelberg, VIC 3084",145.064406,-37.749971,POINT (145.064406 -37.749971),True
17510386,"466 Upper Heidelberg Road, Heidelberg, VIC 3084",145.056882,-37.753426,POINT (145.056882 -37.753426),True
17512085,"82 Hawdon Street, Heidelberg, VIC 3084",145.064732,-37.756641,POINT (145.064732 -37.756641),True
17513823,"3 Cartmell Street, Heidelberg, VIC 3084",145.066584,-37.755335,POINT (145.066584 -37.755335),True
17513927,"76 Darebin Street, Heidelberg, VIC 3084",145.061194,-37.753434,POINT (145.061194 -37.753434),True
17513999,"76 Darebin Street, Heidelberg, VIC 3084",145.061194,-37.753434,POINT (145.061194 -37.753434),True
17516611,"Martin Street, Heidelberg, VIC 3084",145.060176,-37.752477,POINT (145.060176 -37.752477),True
17522459,"11 Bronte Street, Heidelberg, VIC 3084",145.059953,-37.748582,POINT (145.059953 -37.748582),True
17522737,"Brown Street, Heidelberg, VIC 3084",145.062855,-37.75181,POINT (145.062855 -37.75181),True
17523517,"156 Burgundy Street, Heidelberg, VIC 3084",145.065024,-37.755916,POINT (145.065024 -37.755916),True
17523939,"Weyburn Court, Heidelberg, VIC 3084",145.066405,-37.753525,POINT (145.066405 -37.753525),True
17524339,"8 Martin Street, Heidelberg, VIC 3084",145.059979,-37.754669,POINT (145.059979 -37.754669),True
17524382,"Berkeley Avenue, Heidelberg, VIC 3084",145.081775,-37.747076,POINT (145.081775 -37.747076),True
17525556,"Manton Street, Heidelberg, VIC 3084",145.067239,-37.749602,POINT (145.067239 -37.749602),True
17528546,"37 Burgundy Street, Heidelberg, VIC 3084",145.068833,-37.756699,POINT (145.068833 -37.756699),True
17529537,"49 Hawdon Street, Heidelberg, VIC 3084",145.063919,-37.758836,POINT (145.063919 -37.758836),True
17531069,"57 Darebin Street, Heidelberg, VIC 3084",145.063782,-37.754078,POINT (145.063782 -37.754078),True
17532444,"184 Hawdon Street, Heidelberg, VIC 3084",145.066497,-37.749045,POINT (145.066497 -37.749045),True
17532969,"Berkeley Avenue, Heidelberg, VIC 3084",145.081775,-37.747076,POINT (145.081775 -37.747076),True
16345322,"Steel Road, Hamilton, VIC 3300",142.031118,-37.753969,POINT (142.031118 -37.753969),True
16904171,"Gordon Street, Hamilton, VIC 3300",142.019215,-37.728441,POINT (142.019215 -37.728441),True
17443021,"Scotts Street, Hamilton, VIC 3300",142.028719,-37.743278,POINT (142.028719 -37.743278),True
17446245,"Woodbridge Street, Hamilton, VIC 3300",142.037854,-37.746851,POINT (142.037854 -37.746851),True
17458268,"3 Shakespeare Street, Hamilton, VIC 3300",142.022737,-37.739029,POINT (142.022737 -37.739029),True
17467700,"Kenny Street, Hamilton, VIC 3300",141.99879,-37.734619,POINT (141.99879 -37.734619),True
17470812,"Kent Manor, Hamilton, VIC 3300",142.016392,-37.726982,POINT (142.016392 -37.726982),True
17470823,"Carmichael Street, Hamilton, VIC 3300",142.016828,-37.747175,POINT (142.016828 -37.747175),True
17471038,"95 Kennedy Street, Hamilton, VIC 3300",142.019851,-37.743844,POINT (142.019851 -37.743844),True
17471291,"Dinwoodie Street, Hamilton, VIC 3300",142.02923,-37.740317,POINT (142.02923 -37.740317),True
17477492,"47 Hamilton Place, Hamilton, VIC 3300",142.017043,-37.74281,POINT (142.017043 -37.74281),True
17483156,"Digby Road, Hamilton, VIC 3300",142.028719,-37.743278,POINT (142.028719 -37.743278),True
17484227,"Station Street, Hamilton, VIC 3300",142.028482,-37.745838,POINT (142.028482 -37.745838),True
17485721,"Byron Street, Hamilton, VIC 3300",142.017313,-37.740527,POINT (142.017313 -37.740527),True
16174198,"Golden Square Crescent Hoppers, Crossing, VIC 3029",144.667007,-37.868564,POINT (144.667007 -37.868564),True
17312533,"Powell Drive Hoppers, Crossing, VIC 3029",144.695856,-37.884547,POINT (144.695856 -37.884547),True
17375126,"Durham Crescent Hoppers, Crossing, VIC 3029",144.68658,-37.872448,POINT (144.68658 -37.872448),True
17386779,"18 Elder Road Hoppers, Crossing, VIC 3029",144.689462,-37.861321,POINT (144.689462 -37.861321),True
17386912,"Westmill Drive Hoppers, Crossing, VIC 3029",144.672503,-37.868601,POINT (144.672503 -37.868601),True
17387392,"32 Clay Avenue Hoppers, Crossing, VIC 3029",144.688777,-37.874053,POINT (144.688777 -37.874053),True
17387502,"4 Rita Court Hoppers, Crossing, VIC 3029",144.694282,-37.871665,POINT (144.694282 -37.871665),True
17387841,"547 Tarneit Road Hoppers, Crossing, VIC 3029",144.667978,-37.859555,POINT (144.667978 -37.859555),True
17396288,"44 Hogans Road Hoppers, Crossing, VIC 3029",144.696741,-37.863904,POINT (144.696741 -37.863904),True
17401236,"105 Hogans Road Hoppers, Crossing, VIC 3029",144.688881,-37.863503,POINT (144.688881 -37.863503),True
17404109,"Shearer Close Hoppers, Crossing, VIC 3029",144.706687,-37.863452,POINT (144.706687 -37.863452),True
17406383,"Lorraine Close Hoppers, Crossing, VIC 3029",144.676183,-37.856074,POINT (144.676183 -37.856074),True
17414189,"Baggott Drive Hoppers, Crossing, VIC 3029",144.692071,-37.871863,POINT (144.692071 -37.871863),True
17414398,"Wilmington Avenue Hoppers, Crossing, VIC 3029",144.667029,-37.863848,POINT (144.667029 -37.863848),True
17414454,"2 Fowler Street Hoppers, Crossing, VIC 3029",144.700462,-37.867383,POINT (144.700462 -37.867383),True
17415235,"Patton Lane Hoppers, Crossing, VIC 3029",144.704556,-37.877096,POINT (144.704556 -37.877096),True
17415369,"Dyer Street Hoppers, Crossing, VIC 3029",144.695135,-37.874695,POINT (144.695135 -37.874695),True
17415503,"Hunter Avenue Hoppers, Crossing, VIC 3029",144.688138,-37.869499,POINT (144.688138 -37.869499),True
17415864,"Nicklaus Drive Hoppers, Crossing, VIC 3029",144.704254,-37.863808,POINT (144.704254 -37.863808),True
17416229,"The Glades Hoppers, Crossing, VIC 3029",144.679698,-37.872806,POINT (144.679698 -37.872806),True
17138817,"4 Stewart Street, Horsham, VIC 3400",142.193709,-36.706158,POINT (142.193709 -36.706158),True
17294200,"Queen Street, Horsham, VIC 3400",142.199798,-36.701643,POINT (142.199798 -36.701643),True
17351333,"15 Bleakley Street, Horsham, VIC 3400",142.202862,-36.69919,POINT (142.202862 -36.69919),True
17373293,"254 Baillie Street, Horsham, VIC 3400",142.19002,-36.711509,POINT (142.19002 -36.711509),True
17386523,"4 Burgess Street, Horsham, VIC 3400",142.188514,-36.710994,POINT (142.188514 -36.710994),True
17390719,"Paterson Street, Horsham, VIC 3400",142.197603,-36.699367,POINT (142.197603 -36.699367),True
17398676,"22 O Connor Street, Horsham, VIC 3400",142.196233,-36.718918,POINT (142.196233 -36.718918),True
17399986,"Noske Place, Horsham, VIC 3400",142.203625,-36.699563,POINT (142.203625 -36.699563),True
17402532,"Arnott Street, Horsham, VIC 3400",142.210301,-36.71391,POINT (142.210301 -36.71391),True
17403331,"Simpson Court, Horsham, VIC 3400",142.197356,-36.728413,POINT (142.197356 -36.728413),True
17403774,"Banool Street, Horsham, VIC 3400",142.17719,-36.721069,POINT (142.17719 -36.721069),True
17404197,"Waterlink Esplanade, Horsham, VIC 3400",142.212416,-36.719945,POINT (142.212416 -36.719945),True
17406979,"Queen Street, Horsham, VIC 3400",142.199798,-36.701643,POINT (142.199798 -36.701643),True
