property_id,address,longitude,latitude,coordinates,geocode_success
14968399,"23 Allwyn Crescent Mill, Park, VIC 3082",145.077118,-37.656693,POINT (145.077118 -37.656693),True
15113347,"Bachli Close Mill, Park, VIC 3082",145.047392,-37.659532,POINT (145.047392 -37.659532),True
15606040,"24 Oleander Drive Mill, Park, VIC 3082",145.079864,-37.652535,POINT (145.079864 -37.652535),True
15849612,"Mockridge Drive Mill, Park, VIC 3082",145.051519,-37.663326,POINT (145.051519 -37.663326),True
15853533,"Centenary Drive Mill, Park, VIC 3082",145.076981,-37.657756,POINT (145.076981 -37.657756),True
15862882,"Scullin Court Mill, Park, VIC 3082",145.071006,-37.658858,POINT (145.071006 -37.658858),True
15865178,"30 Bush Blvd Mill, Park, VIC 3082",145.077403,-37.653605,POINT (145.077403 -37.653605),True
15865539,"San Marco Place Mill, Park, VIC 3082",145.05918,-37.675492,POINT (145.05918 -37.675492),True
15867218,"Flemington Drive Mill, Park, VIC 3082",145.062078,-37.670247,POINT (145.062078 -37.670247),True
15876095,"Childs Road Mill, Park, VIC 3082",145.068818,-37.670226,POINT (145.068818 -37.670226),True
15880395,"Timmins Court Mill, Park, VIC 3082",145.047112,-37.658241,POINT (145.047112 -37.658241),True
15884586,"Cunningham Drive Mill, Park, VIC 3082",145.063486,-37.661524,POINT (145.063486 -37.661524),True
15887987,"19a Cuthbert Drive Mill, Park, VIC 3082",145.051826,-37.665452,POINT (145.051826 -37.665452),True
15888644,"Dunlop Crescent Mill, Park, VIC 3082",145.05778,-37.653373,POINT (145.05778 -37.653373),True
15891094,"Blossom Park Drive Mill, Park, VIC 3082",145.077251,-37.672734,POINT (145.077251 -37.672734),True
15891114,"Daphne Close Mill, Park, VIC 3082",145.07173,-37.67175,POINT (145.07173 -37.67175),True
15893625,"Kenthurst Court Mill, Park, VIC 3082",145.053224,-37.654263,POINT (145.053224 -37.654263),True
15893865,"Centenary Drive Mill, Park, VIC 3082",145.076981,-37.657756,POINT (145.076981 -37.657756),True
15712074,"Ridgway Mirboo, North, VIC 3871",146.161849,-38.401137,POINT (146.161849 -38.401137),True
15918826,"25b Couper Street Mirboo, North, VIC 3871",146.158927,-38.399466,POINT (146.158927 -38.399466),True
15931760,"Thorpdale Road Mirboo, North, VIC 3871",146.165536,-38.394839,POINT (146.165536 -38.394839),True
15940835,"Trembaths Road Mirboo, North, VIC 3871",146.186348,-38.352895,POINT (146.186348 -38.352895),True
15942963,"St Ellens Road Mirboo, North, VIC 3871",146.101787,-38.409078,POINT (146.101787 -38.409078),True
15943769,"Haw Street, Leongatha, VIC 3953",145.940966,-38.481421,POINT (145.940966 -38.481421),True
15943823,"Bellingham Street, Leongatha, VIC 3953",145.942831,-38.474908,POINT (145.942831 -38.474908),True
15943930,"2a Miles Lane, Leongatha, VIC 3953",145.95011,-38.480466,POINT (145.95011 -38.480466),True
15202825,"Hampton St, Moe, VIC 3825",146.25783,-38.188009,POINT (146.25783 -38.188009),True
15831498,"177 Lloyd Street, Moe, VIC 3825",146.243548,-38.182608,POINT (146.243548 -38.182608),True
15897752,"4 Parkin Street, Moe, VIC 3825",146.242686,-38.183206,POINT (146.242686 -38.183206),True
15927257,"Service Road, Moe, VIC 3825",146.251322,-38.185881,POINT (146.251322 -38.185881),True
15939699,"21 South St, Moe, VIC 3825",146.26251,-38.18445,POINT (146.26251 -38.18445),True
15939762,"Fowler St, Moe, VIC 3825",146.261673,-38.183821,POINT (146.261673 -38.183821),True
15943905,"York Street, Moe, VIC 3825",146.264756,-38.172185,POINT (146.264756 -38.172185),True
15944272,"Vale Street, Moe, VIC 3825",146.259355,-38.181525,POINT (146.259355 -38.181525),True
15944734,"9 Hyland Street, Moe, VIC 3825",146.266932,-38.165734,POINT (146.266932 -38.165734),True
15949095,"John St, Moe, VIC 3825",146.244739,-38.186862,POINT (146.244739 -38.186862),True
15950702,"17a Hawker Street, Moe, VIC 3825",146.253581,-38.180828,POINT (146.253581 -38.180828),True
15951789,"51 Scorpio Drive, Moe, VIC 3825",146.245918,-38.191876,POINT (146.245918 -38.191876),True
15952834,"41a Wirraway St, Moe, VIC 3825",146.254729,-38.184811,POINT (146.254729 -38.184811),True
15953645,"7 Stamford Street, Newborough, VIC 3825",146.276157,-38.180899,POINT (146.276157 -38.180899),True
15954386,"Maranoa Pl, Moe, VIC 3825",146.244545,-38.176786,POINT (146.244545 -38.176786),True
15955093,"Princes Highway, Trafalgar, VIC 3824",146.149402,-38.208422,POINT (146.149402 -38.208422),True
15955850,"16 Sweetwater Place, Moe, VIC 3825",146.246147,-38.17728,POINT (146.246147 -38.17728),True
13860600,"Virginia Court, Montmorency, VIC 3094",145.136296,-37.718843,POINT (145.136296 -37.718843),True
14261247,"96 Para Road, Montmorency, VIC 3094",145.114844,-37.716915,POINT (145.114844 -37.716915),True
15812540,"31 Hoban Avenue, Montmorency, VIC 3094",145.118572,-37.715599,POINT (145.118572 -37.715599),True
15821021,"28 Hoban Avenue, Montmorency, VIC 3094",145.118937,-37.715934,POINT (145.118937 -37.715934),True
15851538,"63 Para Road, Montmorency, VIC 3094",145.112769,-37.720894,POINT (145.112769 -37.720894),True
15851546,"41 Coventry Street, Montmorency, VIC 3094",145.120587,-37.722169,POINT (145.120587 -37.722169),True
15864817,"151 Grand Boulevard, Montmorency, VIC 3094",145.133904,-37.720691,POINT (145.133904 -37.720691),True
15869101,"A Sherbourne Road, Montmorency, VIC 3094",145.126417,-37.718219,POINT (145.126417 -37.718219),True
15872068,"5 Rattray Road, Montmorency, VIC 3094",145.114703,-37.718794,POINT (145.114703 -37.718794),True
15896561,"43 Edward Street, Macleod, VIC 3085",145.075969,-37.725283,POINT (145.075969 -37.725283),True
15897800,"Everett Court, Macleod, VIC 3085",145.062452,-37.717049,POINT (145.062452 -37.717049),True
15899477,"26 Pryor Street, Eltham, VIC 3095",145.151264,-37.713797,POINT (145.151264 -37.713797),True
15364804,"5 Central Ave, Mooroolbark, VIC 3138",145.309519,-37.78808,POINT (145.309519 -37.78808),True
15853319,"Pavitt Lane, Kilsyth, VIC 3137",145.316837,-37.806843,POINT (145.316837 -37.806843),True
15867122,"18 Belle Vue, Lilydale, VIC 3140",145.358138,-37.758751,POINT (145.358138 -37.758751),True
15871551,"Cambridge Road, Kilsyth, VIC 3137",145.326391,-37.798072,POINT (145.326391 -37.798072),True
15877166,"27a Lomond Avenue, Kilsyth, VIC 3137",145.309957,-37.800204,POINT (145.309957 -37.800204),True
15879403,"18 Hansen Road, Kilsyth, VIC 3137",145.322639,-37.802769,POINT (145.322639 -37.802769),True
15889349,"Lockhart Court, Kilsyth, VIC 3137",145.322214,-37.810099,POINT (145.322214 -37.810099),True
15891046,"Margaret Street, Kilsyth, VIC 3137",145.315825,-37.799596,POINT (145.315825 -37.799596),True
15892791,"Liverpool Road, Kilsyth, VIC 3137",145.316939,-37.818376,POINT (145.316939 -37.818376),True
14949212,"Taylor Street Moonee, Ponds, VIC 3039",144.920962,-37.763993,POINT (144.920962 -37.763993),True
15302327,"40 Hall Street Moonee, Ponds, VIC 3039",144.921789,-37.765569,POINT (144.921789 -37.765569),True
15903192,"284a Union Road Moonee, Ponds, VIC 3039",144.916646,-37.769994,POINT (144.916646 -37.769994),True
15905490,"133 Park Street Moonee, Ponds, VIC 3039",144.908214,-37.760968,POINT (144.908214 -37.760968),True
15908120,"Ormond Road Moonee, Ponds, VIC 3039",144.92958,-37.772838,POINT (144.92958 -37.772838),True
15917480,"75 Bent Street Moonee, Ponds, VIC 3039",144.934991,-37.762186,POINT (144.934991 -37.762186),True
15928949,"Bent Street Moonee, Ponds, VIC 3039",144.927955,-37.761951,POINT (144.927955 -37.761951),True
15929646,"Holmes Road Moonee, Ponds, VIC 3039",144.911561,-37.765741,POINT (144.911561 -37.765741),True
15931886,"342 Ascot Vale Road Moonee, Ponds, VIC 3039",144.924728,-37.769119,POINT (144.924728 -37.769119),True
15942366,"26 Hopetoun Street Moonee, Ponds, VIC 3039",144.912693,-37.766613,POINT (144.912693 -37.766613),True
15946405,"14 Athol Street Moonee, Ponds, VIC 3039",144.918622,-37.769944,POINT (144.918622 -37.769944),True
15947510,"Bent Street Moonee, Ponds, VIC 3039",144.927955,-37.761951,POINT (144.927955 -37.761951),True
15948622,"57 Buckley Street Moonee, Ponds, VIC 3039",144.922983,-37.758385,POINT (144.922983 -37.758385),True
15949209,"Park Street Moonee, Ponds, VIC 3039",144.905827,-37.760526,POINT (144.905827 -37.760526),True
15951606,"55 Buckley Street Moonee, Ponds, VIC 3039",144.923292,-37.757982,POINT (144.923292 -37.757982),True
15952000,"834 Mt Alexander Rd Moonee, Ponds, VIC 3039",144.920783,-37.759127,POINT (144.920783 -37.759127),True
15952158,"24 Park Street Moonee, Ponds, VIC 3039",144.919521,-37.761811,POINT (144.919521 -37.761811),True
15952940,"28 Grandison St Moonee, Ponds, VIC 3039",144.91865,-37.760405,POINT (144.91865 -37.760405),True
14559145,"Macdonald Grove, Mornington, VIC 3931",145.046232,-38.225774,POINT (145.046232 -38.225774),True
15098194,"Robertson Drive, Mornington, VIC 3931",145.061479,-38.224992,POINT (145.061479 -38.224992),True
15911483,"19 Pitt Street, Mornington, VIC 3931",145.0372,-38.230298,POINT (145.0372 -38.230298),True
15913515,"Serenity Way, Mornington, VIC 3931",145.067768,-38.242012,POINT (145.067768 -38.242012),True
15925449,"Nepean Highway, Mornington, VIC 3931",145.04797,-38.226739,POINT (145.04797 -38.226739),True
15933452,"9a Hargreaves Street, Mornington, VIC 3931",145.030608,-38.226618,POINT (145.030608 -38.226618),True
15935343,"George Street, Mornington, VIC 3931",145.031857,-38.234991,POINT (145.031857 -38.234991),True
15936012,"Beleura Hill Road, Mornington, VIC 3931",145.052416,-38.22033,POINT (145.052416 -38.22033),True
15937259,"Rainbow Place, Mornington, VIC 3931",145.041714,-38.220287,POINT (145.041714 -38.220287),True
15940865,"20 Lucerne Avenue, Mornington, VIC 3931",145.050502,-38.222558,POINT (145.050502 -38.222558),True
15941125,"Hillpark Drive, Mornington, VIC 3931",145.06559,-38.217715,POINT (145.06559 -38.217715),True
15942726,"8 Ti Tree Grove, Mornington, VIC 3931",145.031909,-38.237502,POINT (145.031909 -38.237502),True
15942838,"17 Lucerne Avenue, Mornington, VIC 3931",145.051166,-38.222445,POINT (145.051166 -38.222445),True
15945782,"2 Beach Grove, Mornington, VIC 3931",145.034407,-38.223952,POINT (145.034407 -38.223952),True
15945975,"4a Philip St, Mornington, VIC 3931",145.040097,-38.218219,POINT (145.040097 -38.218219),True
15946634,"Sunningdale Avenue, Mornington, VIC 3931",145.033979,-38.243079,POINT (145.033979 -38.243079),True
15947206,"Wandella Road, Mornington, VIC 3931",145.043877,-38.24272,POINT (145.043877 -38.24272),True
12167003,"Merrill Street, Mulgrave, VIC 3170",145.170404,-37.928201,POINT (145.170404 -37.928201),True
15900956,"Namatjira Court, Mulgrave, VIC 3170",145.164675,-37.912798,POINT (145.164675 -37.912798),True
15909842,"Alderbrook Ave, Mulgrave, VIC 3170",145.203963,-37.927063,POINT (145.203963 -37.927063),True
15920980,"Roberts Avenue, Mulgrave, VIC 3170",145.148603,-37.926054,POINT (145.148603 -37.926054),True
15923760,"Dougherty Court, Mulgrave, VIC 3170",145.19841,-37.929902,POINT (145.19841 -37.929902),True
15937485,"22 Haverbrack Drive, Mulgrave, VIC 3170",145.202084,-37.926322,POINT (145.202084 -37.926322),True
15945774,"Lea Road, Mulgrave, VIC 3170",145.168343,-37.9266,POINT (145.168343 -37.9266),True
15946524,"39 Lotus Crescent, Mulgrave, VIC 3170",145.175013,-37.929934,POINT (145.175013 -37.929934),True
15949622,"Windy Hill Drive, Mulgrave, VIC 3170",145.188599,-37.93071,POINT (145.188599 -37.93071),True
15953016,"Stadium Circuit, Mulgrave, VIC 3170",145.187464,-37.92705,POINT (145.187464 -37.92705),True
15956140,"Stadium Circuit, Mulgrave, VIC 3170",145.187464,-37.92705,POINT (145.187464 -37.92705),True
15956244,"7 Green Avenue, Mulgrave, VIC 3170",145.158009,-37.92653,POINT (145.158009 -37.92653),True
15957214,"Portland Street, Mulgrave, VIC 3170",145.205372,-37.937091,POINT (145.205372 -37.937091),True
15957420,"Newport Drive, Mulgrave, VIC 3170",145.192134,-37.932717,POINT (145.192134 -37.932717),True
15959450,"Albany Drive, Mulgrave, VIC 3170",145.172074,-37.932816,POINT (145.172074 -37.932816),True
15961784,"Glencairn Street, Mulgrave, VIC 3170",145.165205,-37.93095,POINT (145.165205 -37.93095),True
15962151,"Waverley Park Drive, Mulgrave, VIC 3170",145.19012,-37.925812,POINT (145.19012 -37.925812),True
15968657,"Newcastle Drive, Mulgrave, VIC 3170",145.192062,-37.930696,POINT (145.192062 -37.930696),True
15968745,"Fernbank Crescent, Mulgrave, VIC 3170",145.20678,-37.932529,POINT (145.20678 -37.932529),True
12274829,"Warren Close Narre, Warren, VIC 3805",145.311361,-38.032861,POINT (145.311361 -38.032861),True
14720849,"14 Wallowa Crescent Narre, Warren, VIC 3805",145.297966,-38.008307,POINT (145.297966 -38.008307),True
15833405,"Billy Buttons Drive Narre, Warren, VIC 3805",145.289384,-38.021288,POINT (145.289384 -38.021288),True
15917867,"Daintree Grove Narre, Warren, VIC 3805",145.317792,-38.014158,POINT (145.317792 -38.014158),True
15926007,"Jacksons Road Narre, Warren, VIC 3805",145.305437,-38.000143,POINT (145.305437 -38.000143),True
15926299,"Westleigh Crescent Narre, Warren, VIC 3805",145.296914,-38.01416,POINT (145.296914 -38.01416),True
15931904,"Ravensthorpe Crescent Narre, Warren, VIC 3805",145.318549,-38.03594,POINT (145.318549 -38.03594),True
15933019,"Norman Place Narre, Warren, VIC 3805",145.317518,-38.043423,POINT (145.317518 -38.043423),True
15937124,"Farmers Way Narre, Warren, VIC 3805",145.30091,-38.024629,POINT (145.30091 -38.024629),True
15938343,"Emily Drive Narre, Warren, VIC 3805",145.290906,-38.00512,POINT (145.290906 -38.00512),True
15938388,"4 Shrives Road Narre, Warren, VIC 3805",145.30205,-38.027296,POINT (145.30205 -38.027296),True
15943540,"Badger Court Narre, Warren, VIC 3805",145.298747,-38.001211,POINT (145.298747 -38.001211),True
15947961,"Kialoa Court Narre, Warren, VIC 3805",145.308593,-38.007227,POINT (145.308593 -38.007227),True
15952877,"Armadale Drive Narre, Warren, VIC 3805",145.30751,-38.036188,POINT (145.30751 -38.036188),True
15953350,"Keys Court Narre, Warren, VIC 3805",145.311074,-38.02804,POINT (145.311074 -38.02804),True
15956063,"Billy Buttons Drive Narre, Warren, VIC 3805",145.289384,-38.021288,POINT (145.289384 -38.021288),True
15956877,"Wauchope Avenue Narre, Warren, VIC 3805",145.314069,-38.028393,POINT (145.314069 -38.028393),True
15960117,"Greenmount Close Narre, Warren, VIC 3805",145.288908,-38.010628,POINT (145.288908 -38.010628),True
15960850,"2 Heyington Circle Narre, Warren, VIC 3805",145.307435,-38.014548,POINT (145.307435 -38.014548),True
15963036,"50 Tinks Road Narre, Warren, VIC 3805",145.292841,-38.006647,POINT (145.292841 -38.006647),True
15549201,"12 Mcmillan Grove, Paynesville, VIC 3880",147.728668,-37.903861,POINT (147.728668 -37.903861),True
15855104,"21 Robb Street East, Bairnsdale, VIC 3875",147.64282,-37.827865,POINT (147.64282 -37.827865),True
15859805,"Whistler Drive, Bairnsdale, VIC 3875",147.614768,-37.833065,POINT (147.614768 -37.833065),True
15861628,"8 Reynolds Street, Paynesville, VIC 3880",147.71585,-37.917319,POINT (147.71585 -37.917319),True
15866576,"2 Stokes Court, Bairnsdale, VIC 3875",147.612564,-37.818797,POINT (147.612564 -37.818797),True
15869424,"Mistana Court, Eastwood, VIC 3875",147.635676,-37.81653,POINT (147.635676 -37.81653),True
15870443,"Infinity Court, Paynesville, VIC 3880",147.723333,-37.905105,POINT (147.723333 -37.905105),True
15877873,"17 Langford Parade, Paynesville, VIC 3880",147.719387,-37.917526,POINT (147.719387 -37.917526),True
15878697,"Timbarra Drive, Eastwood, VIC 3875",147.640025,-37.811641,POINT (147.640025 -37.811641),True
15878753,"Cameron Crescent East, Bairnsdale, VIC 3875",147.652171,-37.824867,POINT (147.652171 -37.824867),True
15879262,"89 Princes Highway, Lucknow, VIC 3875",147.650027,-37.818645,POINT (147.650027 -37.818645),True
15883183,"Davies Street, Bairnsdale, VIC 3875",147.613217,-37.832842,POINT (147.613217 -37.832842),True
15883313,"Flinns Road, Eastwood, VIC 3875",147.635114,-37.811821,POINT (147.635114 -37.811821),True
15884488,"58 Vaughan Street, Paynesville, VIC 3880",147.718323,-37.907367,POINT (147.718323 -37.907367),True
15885191,"Warde Street, Bairnsdale, VIC 3875",147.614244,-37.819845,POINT (147.614244 -37.819845),True
15886891,"21b Callistemon Court, Bairnsdale, VIC 3875",147.614768,-37.833065,POINT (147.614768 -37.833065),True
15887048,"150 Princes Highway, Lucknow, VIC 3875",147.656194,-37.819763,POINT (147.656194 -37.819763),True
11849624,"91 Blackshaws Road, Newport, VIC 3015",144.875292,-37.834551,POINT (144.875292 -37.834551),True
15639701,"1b Basil Street, Newport, VIC 3015",144.865563,-37.846961,POINT (144.865563 -37.846961),True
15809453,"2a Bruce Street, Newport, VIC 3015",144.874188,-37.835424,POINT (144.874188 -37.835424),True
15866774,"40 Rosshire Road, Newport, VIC 3015",144.863647,-37.847814,POINT (144.863647 -37.847814),True
15873411,"Graham Street, Newport, VIC 3015",144.868085,-37.837073,POINT (144.868085 -37.837073),True
15876872,"Alma Terrace, Newport, VIC 3015",144.891393,-37.849685,POINT (144.891393 -37.849685),True
15877297,"30 Blenheim Road, Newport, VIC 3015",144.864157,-37.845675,POINT (144.864157 -37.845675),True
15881149,"Melbourne Road, Newport, VIC 3015",144.88661,-37.847598,POINT (144.88661 -37.847598),True
15881367,"3 North Road, Newport, VIC 3015",144.893551,-37.845491,POINT (144.893551 -37.845491),True
15885030,"6 Paine Street, Newport, VIC 3015",144.888733,-37.847867,POINT (144.888733 -37.847867),True
15887649,"40 Clyde Street, Newport, VIC 3015",144.865777,-37.841456,POINT (144.865777 -37.841456),True
15887656,"Market Street, Newport, VIC 3015",144.880142,-37.846627,POINT (144.880142 -37.846627),True
15888384,"Melbourne Road, Newport, VIC 3015",144.88661,-37.847598,POINT (144.88661 -37.847598),True
15888584,"222 Mason Street, Newport, VIC 3015",144.864991,-37.84034,POINT (144.864991 -37.84034),True
15889940,"30 Blenheim Road, Newport, VIC 3015",144.864157,-37.845675,POINT (144.864157 -37.845675),True
15891939,"Blackshaws Road, Newport, VIC 3015",144.881962,-37.835225,POINT (144.881962 -37.835225),True
15892116,", Newport, VIC 3015",144.882222,-37.837628,POINT (144.882222 -37.837628),True
15896548,"Elphin Street, Newport, VIC 3015",144.888186,-37.842509,POINT (144.888186 -37.842509),True
15897978,"35 Elizabeth Street, Newport, VIC 3015",144.878413,-37.83723,POINT (144.878413 -37.83723),True
15901344,"Mason Street, Newport, VIC 3015",144.882678,-37.842396,POINT (144.882678 -37.842396),True
15901980,"Railway Parade, Newport, VIC 3015",144.87027,-37.849164,POINT (144.87027 -37.849164),True
15902668,"136 Mason Street, Newport, VIC 3015",144.871498,-37.84103,POINT (144.871498 -37.84103),True
15904177,"53 Bunbury Street, Newport, VIC 3015",144.889059,-37.849655,POINT (144.889059 -37.849655),True
11322761,"53 Buckley Street Noble, Park, VIC 3174",145.174653,-37.968656,POINT (145.174653 -37.968656),True
15637031,"Chandler Road Noble, Park, VIC 3174",145.185008,-37.978141,POINT (145.185008 -37.978141),True
15862325,"Henry Street Noble, Park, VIC 3174",145.170157,-37.966937,POINT (145.170157 -37.966937),True
15870651,"1a Comber Street Noble, Park, VIC 3174",145.168409,-37.963085,POINT (145.168409 -37.963085),True
15874930,"85 Buckley Street Noble, Park, VIC 3174",145.173853,-37.971792,POINT (145.173853 -37.971792),True
15877924,"34 Stuart Street Noble, Park, VIC 3174",145.176337,-37.971712,POINT (145.176337 -37.971712),True
15878616,"22 Moodermere Street Noble, Park, VIC 3174",145.176712,-37.969411,POINT (145.176712 -37.969411),True
15885875,"Parramatta Crescent Noble, Park, VIC 3174",145.167912,-37.979877,POINT (145.167912 -37.979877),True
15886678,"45 Chandler Road Noble, Park, VIC 3174",145.187129,-37.9681,POINT (145.187129 -37.9681),True
15886857,"137 Corrigan Road Noble, Park, VIC 3174",145.168334,-37.966546,POINT (145.168334 -37.966546),True
15887805,"Vitis Avenue Noble, Park, VIC 3174",145.16028,-37.980041,POINT (145.16028 -37.980041),True
15888862,"25 Holmes Street Noble, Park, VIC 3174",145.188867,-37.971574,POINT (145.188867 -37.971574),True
15888992,"1234 Heatherton Road Noble, Park, VIC 3174",145.185028,-37.966572,POINT (145.185028 -37.966572),True
15890241,"Railway Parade Noble, Park, VIC 3174",145.19189,-37.977938,POINT (145.19189 -37.977938),True
15890378,"57 Ardgower Road Noble, Park, VIC 3174",145.176212,-37.952951,POINT (145.176212 -37.952951),True
15891081,"Jasper Street Noble, Park, VIC 3174",145.17571,-37.964044,POINT (145.17571 -37.964044),True
15892189,"Edith Street Noble, Park, VIC 3174",145.182525,-37.975912,POINT (145.182525 -37.975912),True
15893341,"54a Ambrie Crescent Noble, Park, VIC 3174",145.175231,-37.951054,POINT (145.175231 -37.951054),True
15894909,"1057 Heatherton Road Noble, Park, VIC 3174",145.167658,-37.964155,POINT (145.167658 -37.964155),True
15896481,"34 Kelvinside Road Noble, Park, VIC 3174",145.177308,-37.963094,POINT (145.177308 -37.963094),True
15796903,"1 Cobargo Court, Norlane, VIC 3214",144.348569,-38.094429,POINT (144.348569 -38.094429),True
15799110,"Donnybrook Road, Norlane, VIC 3214",144.339856,-38.085763,POINT (144.339856 -38.085763),True
15819988,"Curlew Crescent, Norlane, VIC 3214",144.353995,-38.085657,POINT (144.353995 -38.085657),True
15841779,"Donnybrook Road, Norlane, VIC 3214",144.339856,-38.085763,POINT (144.339856 -38.085763),True
15842581,"Plume Street, Norlane, VIC 3214",144.35882,-38.093686,POINT (144.35882 -38.093686),True
15854515,"Waterford Avenue, Norlane, VIC 3214",144.339039,-38.088709,POINT (144.339039 -38.088709),True
15858635,"Princes Highway, Norlane, VIC 3214",144.355442,-38.096229,POINT (144.355442 -38.096229),True
15860444,"Alkira Avenue, Norlane, VIC 3214",144.349442,-38.093375,POINT (144.349442 -38.093375),True
15864023,"Croatia Place, Norlane, VIC 3214",144.341183,-38.086814,POINT (144.341183 -38.086814),True
15865992,"Swallow Crescent, Norlane, VIC 3214",144.355049,-38.087399,POINT (144.355049 -38.087399),True
15873369,"Plume Street, Norlane, VIC 3214",144.35882,-38.093686,POINT (144.35882 -38.093686),True
15873455,"Robin Avenue, Norlane, VIC 3214",144.350088,-38.08394,POINT (144.350088 -38.08394),True
15874473,"Dunloe Avenue, Norlane, VIC 3214",144.346284,-38.089704,POINT (144.346284 -38.089704),True
15883077,"Darebin Street, Norlane, VIC 3214",144.346306,-38.089894,POINT (144.346306 -38.089894),True
15888166,"2a Finch Street, Norlane, VIC 3214",144.356442,-38.088264,POINT (144.356442 -38.088264),True
15891184,"67 Station Street, Norlane, VIC 3214",144.365054,-38.093641,POINT (144.365054 -38.093641),True
15896645,"Lumeah Street, Norlane, VIC 3214",144.362485,-38.097848,POINT (144.362485 -38.097848),True
15896646,"Gull Street, Norlane, VIC 3214",144.3497,-38.085667,POINT (144.3497 -38.085667),True
15897561,"Pettitt Crescent, Norlane, VIC 3214",144.358873,-38.097517,POINT (144.358873 -38.097517),True
15908857,"64 Waterloo Road, Northcote, VIC 3070",145.002658,-37.773557,POINT (145.002658 -37.773557),True
15918450,"46 Mitchell Street, Northcote, VIC 3070",145.002433,-37.772634,POINT (145.002433 -37.772634),True
15925412,"332 High Street, Northcote, VIC 3070",144.999017,-37.77035,POINT (144.999017 -37.77035),True
15928893,"Kellett Street, Northcote, VIC 3070",145.012995,-37.767702,POINT (145.012995 -37.767702),True
15935275,"242 Clarke Street, Northcote, VIC 3070",145.002433,-37.777275,POINT (145.002433 -37.777275),True
15936346,"7a St Georges Road, Northcote, VIC 3070",144.989595,-37.775912,POINT (144.989595 -37.775912),True
15938526,"5 Emmaline Street, Northcote, VIC 3070",144.995783,-37.764104,POINT (144.995783 -37.764104),True
15938638,"Beaconsfield Parade, Northcote, VIC 3070",144.998361,-37.765025,POINT (144.998361 -37.765025),True
15941373,"6 Mccracken Avenue, Northcote, VIC 3070",144.992123,-37.769755,POINT (144.992123 -37.769755),True
15944668,"Mason St, Northcote, VIC 3070",145.002224,-37.777598,POINT (145.002224 -37.777598),True
15952440,"270a High Street, Northcote, VIC 3070",144.998557,-37.772379,POINT (144.998557 -37.772379),True
15952466,"168 Victoria Road, Northcote, VIC 3070",145.011744,-37.770237,POINT (145.011744 -37.770237),True
15953023,"Dennis Street, Northcote, VIC 3070",145.002199,-37.765955,POINT (145.002199 -37.765955),True
15954138,"20 Separation Street, Northcote, VIC 3070",145.000472,-37.769652,POINT (145.000472 -37.769652),True
15954526,"7 Wastell Street, Northcote, VIC 3070",145.007822,-37.778286,POINT (145.007822 -37.778286),True
15954712,"High Street, Northcote, VIC 3070",144.996021,-37.784021,POINT (144.996021 -37.784021),True
15955031,"111 Herbert Street, Northcote, VIC 3070",144.995955,-37.769339,POINT (144.995955 -37.769339),True
15955269,"77a Victoria Road, Northcote, VIC 3070",145.010454,-37.776633,POINT (145.010454 -37.776633),True
15957099,"Claude Street, Northcote, VIC 3070",144.996256,-37.770754,POINT (144.996256 -37.770754),True
15958043,"433 High Street, Northcote, VIC 3070",144.996021,-37.784021,POINT (144.996021 -37.784021),True
11075797,"7 Station Street, Oakleigh, VIC 3166",145.088482,-37.898989,POINT (145.088482 -37.898989),True
14878177,"1525 Dandenong Road, Oakleigh, VIC 3166",145.090513,-37.892894,POINT (145.090513 -37.892894),True
14878178,"1525 Dandenong Road, Oakleigh, VIC 3166",145.090513,-37.892894,POINT (145.090513 -37.892894),True
15393339,"301 Huntingdale Road, Oakleigh, VIC 3166",145.103508,-37.909962,POINT (145.103508 -37.909962),True
15588639,"26a Haughton Road, Oakleigh, VIC 3166",145.089184,-37.901619,POINT (145.089184 -37.901619),True
15789866,"27 Estelle Street, Oakleigh, VIC 3166",145.104007,-37.892656,POINT (145.104007 -37.892656),True
15820959,"103 Atherton Road, Oakleigh, VIC 3166",145.095016,-37.899296,POINT (145.095016 -37.899296),True
15851919,"21 Logie Street, Oakleigh, VIC 3166",145.091597,-37.894494,POINT (145.091597 -37.894494),True
15853827,"41 Railway Avenue, Oakleigh, VIC 3166",145.103312,-37.9106,POINT (145.103312 -37.9106),True
15861644,"119 Atkinson Street, Oakleigh, VIC 3166",145.092369,-37.897615,POINT (145.092369 -37.897615),True
15873705,"119 Atkinson Street, Oakleigh, VIC 3166",145.092369,-37.897615,POINT (145.092369 -37.897615),True
15876069,"Dalgety Street, Oakleigh, VIC 3166",145.092356,-37.892069,POINT (145.092356 -37.892069),True
15879557,"22 Palmerston Grove, Oakleigh, VIC 3166",145.091775,-37.897121,POINT (145.091775 -37.897121),True
15885303,"Oxford Street, Oakleigh, VIC 3166",145.092793,-37.901131,POINT (145.092793 -37.901131),True
15886140,"126 Atherton Road, Oakleigh, VIC 3166",145.097717,-37.900822,POINT (145.097717 -37.900822),True
15893605,"65 Atherton Road, Oakleigh, VIC 3166",145.092766,-37.898948,POINT (145.092766 -37.898948),True
15896939,"14a Oxford Street, Oakleigh, VIC 3166",145.093142,-37.900269,POINT (145.093142 -37.900269),True
15898518,"86 Atherton Road, Oakleigh, VIC 3166",145.09378,-37.89942,POINT (145.09378 -37.89942),True
15900679,"Abbeygate Street, Oakleigh, VIC 3166",145.089802,-37.906798,POINT (145.089802 -37.906798),True
15900872,"120 Ferntree Gully Road, Oakleigh, VIC 3166",145.099051,-37.8961,POINT (145.099051 -37.8961),True
13236410,"Goulburn Place, Pakenham, VIC 3810",145.443818,-38.062575,POINT (145.443818 -38.062575),True
15429229,"Sir Thomas Drive, Pakenham, VIC 3810",145.501396,-38.067703,POINT (145.501396 -38.067703),True
15853042,"Station Street, Pakenham, VIC 3810",145.483644,-38.079142,POINT (145.483644 -38.079142),True
15859891,"Renoir Avenue, Pakenham, VIC 3810",145.482521,-38.090112,POINT (145.482521 -38.090112),True
15860376,"26 Meaby Drive, Pakenham, VIC 3810",145.483197,-38.058425,POINT (145.483197 -38.058425),True
15863775,"Meaby Drive, Pakenham, VIC 3810",145.486002,-38.058933,POINT (145.486002 -38.058933),True
15874805,"Woodbine Street, Pakenham, VIC 3810",145.489376,-38.07634,POINT (145.489376 -38.07634),True
15874834,"Park Orchard Drive, Pakenham, VIC 3810",145.442055,-38.073875,POINT (145.442055 -38.073875),True
15876164,"Shiraz Way, Pakenham, VIC 3810",145.456669,-38.058343,POINT (145.456669 -38.058343),True
15880162,"Union Avenue, Pakenham, VIC 3810",145.482805,-38.060249,POINT (145.482805 -38.060249),True
15883731,"Paxton Link, Pakenham, VIC 3810",145.439819,-38.063482,POINT (145.439819 -38.063482),True
15884240,"28a Ahern Road, Pakenham, VIC 3810",145.484447,-38.067566,POINT (145.484447 -38.067566),True
15885392,"Herbert Street, Pakenham, VIC 3810",145.496223,-38.063309,POINT (145.496223 -38.063309),True
15885914,"Overland Rise, Pakenham, VIC 3810",145.468965,-38.081923,POINT (145.468965 -38.081923),True
15887823,"Belmont Crescent, Pakenham, VIC 3810",145.44223,-38.060091,POINT (145.44223 -38.060091),True
15891588,"Rosalie Court, Pakenham, VIC 3810",145.476511,-38.07974,POINT (145.476511 -38.07974),True
15892577,"Matthews Court, Pakenham, VIC 3810",145.464203,-38.067896,POINT (145.464203 -38.067896),True
15894513,"Corymbia Promenade, Pakenham, VIC 3810",145.510433,-38.057268,POINT (145.510433 -38.057268),True
15896056,"Salvia Avenue, Pakenham, VIC 3810",145.460418,-38.085253,POINT (145.460418 -38.085253),True
15896057,"Algerd Way, Pakenham, VIC 3810",145.492141,-38.063578,POINT (145.492141 -38.063578),True
13387907,"122 Beach Road, Parkdale, VIC 3195",145.071279,-37.995761,POINT (145.071279 -37.995761),True
13731631,"25 Ti Tree Grove East, Parkdale, VIC 3195",145.075614,-37.995927,POINT (145.075614 -37.995927),True
15127284,"134 Lower Dandenong Road, Parkdale, VIC 3195",145.08808,-37.984203,POINT (145.08808 -37.984203),True
15676028,"12 Warrigal Road, Parkdale, VIC 3195",145.069557,-37.992809,POINT (145.069557 -37.992809),True
15850457,"25 Ti Tree Grove, Parkdale, VIC 3195",145.075614,-37.995927,POINT (145.075614 -37.995927),True
15851117,"156 Lower Dandenong Road, Parkdale, VIC 3195",145.090358,-37.985185,POINT (145.090358 -37.985185),True
15855825,"51 Como Parade East, Parkdale, VIC 3195",145.07134,-37.988267,POINT (145.07134 -37.988267),True
15859128,"40 Rennison Street, Parkdale, VIC 3195",145.079748,-37.999369,POINT (145.079748 -37.999369),True
15870518,"Fifth Street, Parkdale, VIC 3195",145.075055,-37.98754,POINT (145.075055 -37.98754),True
15876862,"8 Laburnum Street, Parkdale, VIC 3195",145.081536,-37.994576,POINT (145.081536 -37.994576),True
15877306,"64b Keith Street, Parkdale, VIC 3195",145.089635,-37.992709,POINT (145.089635 -37.992709),True
15877740,"16 Rennison Street, Parkdale, VIC 3195",145.079402,-38.001256,POINT (145.079402 -38.001256),True
15879483,"17 Cedric Street, Parkdale, VIC 3195",145.09008,-37.996807,POINT (145.09008 -37.996807),True
15879484,"37 Rennison Street, Parkdale, VIC 3195",145.079357,-37.99959,POINT (145.079357 -37.99959),True
15880000,"52 Parkers Road, Parkdale, VIC 3195",145.076677,-37.995269,POINT (145.076677 -37.995269),True
15884270,"22 Warrigal Road, Parkdale, VIC 3195",145.069944,-37.992003,POINT (145.069944 -37.992003),True
15885463,"44 Evan Street, Parkdale, VIC 3195",145.085369,-37.987861,POINT (145.085369 -37.987861),True
15886444,"10a Margaret Street, Parkdale, VIC 3195",145.090972,-37.985503,POINT (145.090972 -37.985503),True
15890072,"Rennison St, Parkdale, VIC 3195",145.07952,-37.99969,POINT (145.07952 -37.99969),True
15893930,"1a Spray Street, Parkdale, VIC 3195",145.07474,-37.998088,POINT (145.07474 -37.998088),True
15080249,"6 Arndt Road Pascoe, Vale, VIC 3044",144.934843,-37.720559,POINT (144.934843 -37.720559),True
15141678,"242 Boundary Road Pascoe, Vale, VIC 3044",144.937457,-37.716435,POINT (144.937457 -37.716435),True
15915306,"36 Bolingbroke Street Pascoe, Vale, VIC 3044",144.934023,-37.731638,POINT (144.934023 -37.731638),True
15920685,"Kinross Street Pascoe, Vale, VIC 3044",144.940722,-37.733402,POINT (144.940722 -37.733402),True
15921400,"40 Railway Parade Pascoe, Vale, VIC 3044",144.928425,-37.728298,POINT (144.928425 -37.728298),True
15926967,"Crowley Court Pascoe, Vale, VIC 3044",144.932686,-37.717224,POINT (144.932686 -37.717224),True
15931766,"6 Vale Street Pascoe, Vale, VIC 3044",144.924575,-37.725076,POINT (144.924575 -37.725076),True
15934292,"432 Gaffney Street Pascoe, Vale, VIC 3044",144.934274,-37.731037,POINT (144.934274 -37.731037),True
15942856,"238 Cumberland Road Pascoe, Vale, VIC 3044",144.94034,-37.721614,POINT (144.94034 -37.721614),True
15943197,"23 Westgate Street Pascoe, Vale, VIC 3044",144.939874,-37.7246,POINT (144.939874 -37.7246),True
15945528,"32 Shanley Street Pascoe, Vale, VIC 3044",144.941141,-37.719079,POINT (144.941141 -37.719079),True
15951808,"17 Dale Avenue Pascoe, Vale, VIC 3044",144.938849,-37.733579,POINT (144.938849 -37.733579),True
15954494,"26 Arndt Road Pascoe, Vale, VIC 3044",144.932069,-37.720118,POINT (144.932069 -37.720118),True
15955181,"578 Bell Street Street Pascoe, Vale, VIC 3044",144.939874,-37.7246,POINT (144.939874 -37.7246),True
15955224,"Bolingbroke Street Pascoe, Vale, VIC 3044",144.936893,-37.732641,POINT (144.936893 -37.732641),True
15961448,"8 Stewart Street Pascoe, Vale, VIC 3044",144.926218,-37.727513,POINT (144.926218 -37.727513),True
15962960,"124 Essex Street Pascoe, Vale, VIC 3044",144.935407,-37.725328,POINT (144.935407 -37.725328),True
15964361,"Alexandra Street Pascoe, Vale, VIC 3044",144.942581,-37.717987,POINT (144.942581 -37.717987),True
15965122,"220 Boundary Road Pascoe, Vale, VIC 3044",144.940486,-37.716718,POINT (144.940486 -37.716718),True
15965325,"59 Austin Crescent Pascoe, Vale, VIC 3044",144.930427,-37.723941,POINT (144.930427 -37.723941),True
10945022,"Schooner Terrace, Paynesville, VIC 3880",147.722842,-37.90952,POINT (147.722842 -37.90952),True
10945023,"2 Fort King Place, Paynesville, VIC 3880",147.726669,-37.907101,POINT (147.726669 -37.907101),True
15694504,"78a Wellington Street, Paynesville, VIC 3880",147.724128,-37.912281,POINT (147.724128 -37.912281),True
15859092,"Haylock Drive, Paynesville, VIC 3880",147.720467,-37.909982,POINT (147.720467 -37.909982),True
15889781,"Brown Street, Bairnsdale, VIC 3875",147.593087,-37.823993,POINT (147.593087 -37.823993),True
15890108,"9a Moroney Street, Bairnsdale, VIC 3875",147.613682,-37.823272,POINT (147.613682 -37.823272),True
15890562,"12 Mcmillan Grove, Paynesville, VIC 3880",147.728668,-37.903861,POINT (147.728668 -37.903861),True
15890755,"Harbour Court, Paynesville, VIC 3880",147.722236,-37.91342,POINT (147.722236 -37.91342),True
15891442,"Ashley Street, Paynesville, VIC 3880",147.715909,-37.911812,POINT (147.715909 -37.911812),True
15892653,"Mitchell Street, Bairnsdale, VIC 3875",147.623126,-37.822809,POINT (147.623126 -37.822809),True
15011532,"Shenandoah Drive Coronet, Bay, VIC 3984",145.44328,-38.436366,POINT (145.44328 -38.436366),True
15213576,"Hamelin Close, Corinella, VIC 3984",145.437229,-38.411626,POINT (145.437229 -38.411626),True
15387771,"127 Smythe Street, Corinella, VIC 3984",145.423911,-38.41054,POINT (145.423911 -38.41054),True
15884197,"Norsemens Road Coronet, Bay, VIC 3984",145.437849,-38.430659,POINT (145.437849 -38.430659),True
15889207,"Lorna Doone Drive Coronet, Bay, VIC 3984",145.442764,-38.437859,POINT (145.442764 -38.437859),True
15890731,"20 Hamilton Street, Corinella, VIC 3984",145.43007,-38.411982,POINT (145.43007 -38.411982),True
15899991,"Guy Road, Corinella, VIC 3984",145.432356,-38.415812,POINT (145.432356 -38.415812),True
15904974,"Gaudi Blvd, Corinella, VIC 3984",145.429349,-38.415797,POINT (145.429349 -38.415797),True
15907391,"Gellibrand Street Coronet, Bay, VIC 3984",145.440667,-38.436543,POINT (145.440667 -38.436543),True
15195689,"35 Gipps Street Port, Fairy, VIC 3284",142.240275,-38.386972,POINT (142.240275 -38.386972),True
15929309,"Elizabeth St Port, Fairy, VIC 3284",142.22312,-38.386432,POINT (142.22312 -38.386432),True
15957013,"Mcgill Court Port, Fairy, VIC 3284",142.231349,-38.375736,POINT (142.231349 -38.375736),True
11326068,"110 Smythe Street, Portarlington, VIC 3223",144.65217,-38.120924,POINT (144.65217 -38.120924),True
11326069,"110 Smythe Street, Portarlington, VIC 3223",144.65217,-38.120924,POINT (144.65217 -38.120924),True
11326070,"110 Smythe Street, Portarlington, VIC 3223",144.65217,-38.120924,POINT (144.65217 -38.120924),True
11326071,"110 Smythe Street, Portarlington, VIC 3223",144.65217,-38.120924,POINT (144.65217 -38.120924),True
11326072,"110 Smythe Street, Portarlington, VIC 3223",144.65217,-38.120924,POINT (144.65217 -38.120924),True
11326073,"110 Smythe Street, Portarlington, VIC 3223",144.65217,-38.120924,POINT (144.65217 -38.120924),True
11326074,"110 Smythe Street, Portarlington, VIC 3223",144.65217,-38.120924,POINT (144.65217 -38.120924),True
11326075,"110 Smythe Street, Portarlington, VIC 3223",144.65217,-38.120924,POINT (144.65217 -38.120924),True
11326109,"110 Smythe Street, Portarlington, VIC 3223",144.65217,-38.120924,POINT (144.65217 -38.120924),True
11326111,"110 Smythe Street, Portarlington, VIC 3223",144.65217,-38.120924,POINT (144.65217 -38.120924),True
13622329,"Tower Road, Portarlington, VIC 3223",144.661543,-38.125841,POINT (144.661543 -38.125841),True
15804405,"Skipper Way, Portarlington, VIC 3223",144.653704,-38.124532,POINT (144.653704 -38.124532),True
15857396,"Sproat Street, Portarlington, VIC 3223",144.645169,-38.119749,POINT (144.645169 -38.119749),True
15858875,"161 Newcombe Street, Portarlington, VIC 3223",144.662696,-38.115567,POINT (144.662696 -38.115567),True
15879901,"Reaby Street, Portarlington, VIC 3223",144.640766,-38.121406,POINT (144.640766 -38.121406),True
15884373,"San Fernando Avenue, Portarlington, VIC 3223",144.649113,-38.121161,POINT (144.649113 -38.121161),True
15884493,"Lincoln Drive, Portarlington, VIC 3223",144.64359,-38.118173,POINT (144.64359 -38.118173),True
15890637,"70 Stevens Street, Portarlington, VIC 3223",144.655387,-38.117825,POINT (144.655387 -38.117825),True
15893962,"Mueller Street, Portarlington, VIC 3223",144.635261,-38.120755,POINT (144.635261 -38.120755),True
12733044,"Brady Street, Portland, VIC 3305",141.609756,-38.363491,POINT (141.609756 -38.363491),True
15235540,"Otway Street, Portland, VIC 3305",141.604159,-38.34217,POINT (141.604159 -38.34217),True
15321981,"Tyers Street, Portland, VIC 3305",141.599854,-38.344076,POINT (141.599854 -38.344076),True
15402226,"Must Street, Portland, VIC 3305",141.592694,-38.358808,POINT (141.592694 -38.358808),True
15667289,"116 Percy St, Portland, VIC 3305",141.603992,-38.344606,POINT (141.603992 -38.344606),True
15787330,"Percy St, Portland, VIC 3305",141.603771,-38.344073,POINT (141.603771 -38.344073),True
15787954,"65 Findlay St, Portland, VIC 3305",141.616138,-38.360706,POINT (141.616138 -38.360706),True
15819823,"205a Dutton Way, Portland, VIC 3305",141.605307,-38.371829,POINT (141.605307 -38.371829),True
15843073,"227 Hurd St, Portland, VIC 3305",141.60207,-38.327914,POINT (141.60207 -38.327914),True
15848231,"Short Street, Portland, VIC 3305",141.609446,-38.362439,POINT (141.609446 -38.362439),True
15854136,"Tamora Cres, Portland, VIC 3305",141.619555,-38.368847,POINT (141.619555 -38.368847),True
15857732,"36 Short St, Portland, VIC 3305",141.609415,-38.362296,POINT (141.609415 -38.362296),True
15862658,"Browning St, Portland, VIC 3305",141.592593,-38.328453,POINT (141.592593 -38.328453),True
15863054,"227 Hurd St, Portland, VIC 3305",141.60207,-38.327914,POINT (141.60207 -38.327914),True
15864908,"8 Barkly Street, Portland, VIC 3305",141.6148,-38.358404,POINT (141.6148 -38.358404),True
15871713,"2 Gore Pl, Portland, VIC 3305",141.60552,-38.350006,POINT (141.60552 -38.350006),True
15882732,"Wellington Road, Portland, VIC 3305",141.61415,-38.369001,POINT (141.61415 -38.369001),True
15884782,"Barkly Street, Portland, VIC 3305",141.615663,-38.358844,POINT (141.615663 -38.358844),True
15889709,"Percy St, Portland, VIC 3305",141.603771,-38.344073,POINT (141.603771 -38.344073),True
15702666,"Mcnamara Street, Preston, VIC 3072",144.987683,-37.729462,POINT (144.987683 -37.729462),True
15751539,"High Street, Preston, VIC 3072",145.005347,-37.7303,POINT (145.005347 -37.7303),True
15767907,"143 High Street, Preston, VIC 3072",145.002186,-37.747649,POINT (145.002186 -37.747649),True
15828257,"143 High Street, Preston, VIC 3072",145.002186,-37.747649,POINT (145.002186 -37.747649),True
15880285,"2 Arthur Street, Preston, VIC 3072",144.999873,-37.744079,POINT (144.999873 -37.744079),True
15901446,"Kathleen Street, Preston, VIC 3072",145.022804,-37.737721,POINT (145.022804 -37.737721),True
15902332,"Sylvester Grove, Preston, VIC 3072",145.017611,-37.737644,POINT (145.017611 -37.737644),True
15905803,"Miller Street, Preston, VIC 3072",144.98861,-37.751089,POINT (144.98861 -37.751089),True
15905911,"439 Gilbert Road, Preston, VIC 3072",144.990331,-37.735203,POINT (144.990331 -37.735203),True
15927548,"9 Bartlett Street, Preston, VIC 3072",144.993678,-37.731507,POINT (144.993678 -37.731507),True
15929680,"777 Bell Street, Preston, VIC 3072",144.98239,-37.743329,POINT (144.98239 -37.743329),True
15931675,"105 Dundas Street, Preston, VIC 3072",145.010443,-37.753138,POINT (145.010443 -37.753138),True
15937072,"Larne Grove, Preston, VIC 3072",145.005542,-37.7514,POINT (145.005542 -37.7514),True
15942119,"Hurlstone Avenue, Preston, VIC 3072",145.008511,-37.750319,POINT (145.008511 -37.750319),True
15949619,"61 Spring Street, Preston, VIC 3072",145.000061,-37.731936,POINT (145.000061 -37.731936),True
15949931,"29 Gregory Grove, Preston, VIC 3072",145.013061,-37.738233,POINT (145.013061 -37.738233),True
15950197,"10 Plenty Road, Preston, VIC 3072",145.003376,-37.750135,POINT (145.003376 -37.750135),True
15952810,"18 Cormac Street, Preston, VIC 3072",145.01516,-37.747369,POINT (145.01516 -37.747369),True
15953325,"97 Gower Street, Preston, VIC 3072",145.020799,-37.74252,POINT (145.020799 -37.74252),True
15332653,"Hidcote Road Point, Cook, VIC 3030",144.755815,-37.90321,POINT (144.755815 -37.90321),True
15838575,"England St, Werribee, VIC 3030",144.661343,-37.89479,POINT (144.661343 -37.89479),True
15838624,"England St, Werribee, VIC 3030",144.661343,-37.89479,POINT (144.661343 -37.89479),True
15839505,"Mullavey Place, Werribee, VIC 3030",144.661343,-37.89479,POINT (144.661343 -37.89479),True
15857332,"Allambie Street, Tarneit, VIC 3029",144.658229,-37.833257,POINT (144.658229 -37.833257),True
15864970,"Mullavey Place, Werribee, VIC 3030",144.661343,-37.89479,POINT (144.661343 -37.89479),True
15876734,"Mullavey Place, Werribee, VIC 3030",144.661343,-37.89479,POINT (144.661343 -37.89479),True
15885830,"Medallion Boulevard, Tarneit, VIC 3029",144.678391,-37.825233,POINT (144.678391 -37.825233),True
15889336,"18 Welwyn Parade Deer, Park, VIC 3023",144.771176,-37.764848,POINT (144.771176 -37.764848),True
15892406,"England St, Werribee, VIC 3030",144.661343,-37.89479,POINT (144.661343 -37.89479),True
15892451,"Mullavey Place, Werribee, VIC 3030",144.661343,-37.89479,POINT (144.661343 -37.89479),True
15899963,"93 Furlong Road, Cairnlea, VIC 3023",144.790482,-37.757524,POINT (144.790482 -37.757524),True
15900075,"England St, Werribee, VIC 3030",144.661343,-37.89479,POINT (144.661343 -37.89479),True
15900101,"England St, Werribee, VIC 3030",144.661343,-37.89479,POINT (144.661343 -37.89479),True
15900131,"England St, Werribee, VIC 3030",144.661343,-37.89479,POINT (144.661343 -37.89479),True
15900132,"England St, Werribee, VIC 3030",144.661343,-37.89479,POINT (144.661343 -37.89479),True
15900142,"Mullavey Place, Werribee, VIC 3030",144.661343,-37.89479,POINT (144.661343 -37.89479),True
15902737,"Morris Road Hoppers, Crossing, VIC 3029",144.702841,-37.870928,POINT (144.702841 -37.870928),True
15902794,"Dodd Lane Caroline, Springs, VIC 3023",144.738086,-37.742039,POINT (144.738086 -37.742039),True
15902888,"Ryan Close Deer, Park, VIC 3023",144.759536,-37.775865,POINT (144.759536 -37.775865),True
11322568,"391 Church Street, Richmond, VIC 3121",144.998342,-37.824536,POINT (144.998342 -37.824536),True
15295113,"2 Mcgoun Street, Richmond, VIC 3121",144.995547,-37.817008,POINT (144.995547 -37.817008),True
15295215,"2 Mcgoun Street, Richmond, VIC 3121",144.995547,-37.817008,POINT (144.995547 -37.817008),True
15895786,"312 Swan Street, Richmond, VIC 3121",145.001522,-37.826244,POINT (145.001522 -37.826244),True
15896259,"30 Burnley Street, Richmond, VIC 3121",145.009352,-37.812662,POINT (145.009352 -37.812662),True
15899130,"8 Burnley Street, Richmond, VIC 3121",145.009515,-37.811606,POINT (145.009515 -37.811606),True
15899218,"Crimea Street, Richmond, VIC 3121",145.003879,-37.819635,POINT (145.003879 -37.819635),True
15899221,"39 Appleton Street, Richmond, VIC 3121",145.011409,-37.815489,POINT (145.011409 -37.815489),True
15899449,"Balmain Street, Richmond, VIC 3121",145.003879,-37.819635,POINT (145.003879 -37.819635),True
15899604,"218 Lennox Street, Richmond, VIC 3121",144.99384,-37.82127,POINT (144.99384 -37.82127),True
15901284,"69 River Street, Richmond, VIC 3121",145.013148,-37.818948,POINT (145.013148 -37.818948),True
15901510,"361 Church Street, Richmond, VIC 3121",144.998549,-37.823431,POINT (144.998549 -37.823431),True
15902160,"10 Bosisto Street, Richmond, VIC 3121",144.996995,-37.816708,POINT (144.996995 -37.816708),True
15902210,"Lennox Street, Richmond, VIC 3121",144.995416,-37.813491,POINT (144.995416 -37.813491),True
15902627,"8 Garfield Street, Richmond, VIC 3121",144.992796,-37.811916,POINT (144.992796 -37.811916),True
15903170,"18 Kelso Street, Richmond, VIC 3121",145.003879,-37.819635,POINT (145.003879 -37.819635),True
15903440,"Fordham Court, Richmond, VIC 3121",144.995383,-37.820116,POINT (144.995383 -37.820116),True
14883482,"42 Nelson Street, Ringwood, VIC 3134",145.222372,-37.811078,POINT (145.222372 -37.811078),True
14911400,"6 Kennedy Avenue, Ringwood, VIC 3134",145.22925,-37.805702,POINT (145.22925 -37.805702),True
15177149,"18 Bourke Street, Ringwood, VIC 3134",145.221711,-37.812915,POINT (145.221711 -37.812915),True
15858541,"9 Ford Street, Ringwood, VIC 3134",145.235648,-37.817489,POINT (145.235648 -37.817489),True
15875200,"Heywood Street, Ringwood, VIC 3134",145.223389,-37.82349,POINT (145.223389 -37.82349),True
15884400,"24 Sherbrook Avenue, Ringwood, VIC 3134",145.218758,-37.81468,POINT (145.218758 -37.81468),True
15890371,"160 Wantirna Road, Ringwood, VIC 3134",145.226991,-37.831031,POINT (145.226991 -37.831031),True
15892224,"40 Andrew Street, Ringwood, VIC 3134",145.222127,-37.80911,POINT (145.222127 -37.80911),True
15892489,"Lilian Pde, Ringwood, VIC 3134",145.252202,-37.793615,POINT (145.252202 -37.793615),True
15892631,"19 Pitt Street, Ringwood, VIC 3134",145.234128,-37.814589,POINT (145.234128 -37.814589),True
15894365,"58 Nelson Street, Ringwood, VIC 3134",145.223931,-37.811643,POINT (145.223931 -37.811643),True
15895122,"12 Bardia Street, Ringwood, VIC 3134",145.23358,-37.811835,POINT (145.23358 -37.811835),True
15896618,"14 Bond Street, Ringwood, VIC 3134",145.225583,-37.813845,POINT (145.225583 -37.813845),True
15897395,"Montgomery Street, Ringwood, VIC 3134",145.221758,-37.812228,POINT (145.221758 -37.812228),True
15901692,"376 Maroondah Highway, Ringwood, VIC 3134",145.217614,-37.817175,POINT (145.217614 -37.817175),True
15901787,"14 Andrew Street, Ringwood, VIC 3134",145.224663,-37.808251,POINT (145.224663 -37.808251),True
15901900,"3 Heatherbrae Avenue East, Ringwood, VIC 3134",145.218116,-37.814714,POINT (145.218116 -37.814714),True
14543482,"Rosette Crescent, Rockbank, VIC 3335",144.654491,-37.73676,POINT (144.654491 -37.73676),True
15171397,"Westcott Parade, Rockbank, VIC 3335",144.653227,-37.728617,POINT (144.653227 -37.728617),True
15738836,"Azalea Way, Rockbank, VIC 3335",144.655225,-37.740275,POINT (144.655225 -37.740275),True
15818352,"Hadlee Street, Rockbank, VIC 3335",144.648198,-37.733076,POINT (144.648198 -37.733076),True
15834892,"Roosevelt Drive, Rockbank, VIC 3335",144.66642,-37.737461,POINT (144.66642 -37.737461),True
15851686,"Bridgefield Parkway, Rockbank, VIC 3335",144.654232,-37.735162,POINT (144.654232 -37.735162),True
15855594,"Stewart Crescent, Rockbank, VIC 3335",144.667193,-37.734475,POINT (144.667193 -37.734475),True
15861521,"Bullion Drive, Rockbank, VIC 3335",144.659222,-37.717309,POINT (144.659222 -37.717309),True
15864675,"Restful Way, Rockbank, VIC 3335",144.65183,-37.73807,POINT (144.65183 -37.73807),True
15872556,"Decoco Road, Rockbank, VIC 3335",144.667669,-37.737616,POINT (144.667669 -37.737616),True
15872781,"Azalea Way, Rockbank, VIC 3335",144.655225,-37.740275,POINT (144.655225 -37.740275),True
15876935,"Socrates Way, Rockbank, VIC 3335",144.663035,-37.732955,POINT (144.663035 -37.732955),True
15877805,"Viola Drive, Rockbank, VIC 3335",144.658822,-37.740683,POINT (144.658822 -37.740683),True
15884074,"Lilypad Way, Rockbank, VIC 3335",144.654417,-37.740506,POINT (144.654417 -37.740506),True
15884264,"Oleander Drive Hoppers, Crossing, VIC 3029",144.672674,-37.867823,POINT (144.672674 -37.867823),True
15886216,"Rodney Court Hoppers, Crossing, VIC 3029",144.70744,-37.868182,POINT (144.70744 -37.868182),True
15887557,"26 Walpole Avenue, Rosebud, VIC 3939",144.886445,-38.365933,POINT (144.886445 -38.365933),True
15913283,"210 Jetty Road, Rosebud, VIC 3939",144.908478,-38.368682,POINT (144.908478 -38.368682),True
15914146,"Oakwood Court, Rosebud, VIC 3939",144.904081,-38.370137,POINT (144.904081 -38.370137),True
15927422,"Crest Drive, Rosebud, VIC 3939",144.923668,-38.374182,POINT (144.923668 -38.374182),True
15943573,"Second Avenue, Rosebud, VIC 3939",144.896744,-38.365929,POINT (144.896744 -38.365929),True
15944488,"Redmond Ct, Rosebud, VIC 3939",144.892491,-38.372568,POINT (144.892491 -38.372568),True
15948449,"Avalon Drive, Rosebud, VIC 3939",144.928491,-38.381222,POINT (144.928491 -38.381222),True
15949600,"Bella Vista Mews, Rosebud, VIC 3939",144.921148,-38.379424,POINT (144.921148 -38.379424),True
15951275,"74a Hayes Av, Rosebud, VIC 3939",144.911267,-38.366836,POINT (144.911267 -38.366836),True
15951954,"Second Avenue, Rosebud, VIC 3939",144.896744,-38.365929,POINT (144.896744 -38.365929),True
15953347,"Madura Street, Rosebud, VIC 3939",144.918278,-38.3551,POINT (144.918278 -38.3551),True
15953487,"Boneo Road, Rosebud, VIC 3939",144.889474,-38.364791,POINT (144.889474 -38.364791),True
15953640,"2a Pengana Street, Rosebud, VIC 3939",144.915793,-38.355089,POINT (144.915793 -38.355089),True
15954746,"17 Hope Street, Rosebud, VIC 3939",144.892765,-38.363345,POINT (144.892765 -38.363345),True
15954983,"Braidwood Av, Rosebud, VIC 3939",144.886678,-38.364289,POINT (144.886678 -38.364289),True
15955281,"Rosebud Parade, Rosebud, VIC 3939",144.906256,-38.355434,POINT (144.906256 -38.355434),True
15957141,"Eastbourne Road, Rosebud, VIC 3939",144.901894,-38.367742,POINT (144.901894 -38.367742),True
15959056,"866 Point Nepean Rd, Rosebud, VIC 3939",144.909342,-38.354025,POINT (144.909342 -38.354025),True
15665594,"150 Beach Road, Sandringham, VIC 3191",145.007323,-37.955806,POINT (145.007323 -37.955806),True
15813219,"Keats Street, Sandringham, VIC 3191",145.014728,-37.955387,POINT (145.014728 -37.955387),True
15878652,"7 Neptune Street, Sandringham, VIC 3191",145.019815,-37.951237,POINT (145.019815 -37.951237),True
15896111,"56 Abbott Street, Sandringham, VIC 3191",145.008401,-37.949487,POINT (145.008401 -37.949487),True
15897962,"22 Abbott Street, Sandringham, VIC 3191",145.00334,-37.948846,POINT (145.00334 -37.948846),True
15917225,"Brighton Street, Sandringham, VIC 3191",145.013263,-37.947659,POINT (145.013263 -37.947659),True
15925039,"26 Fernhill Road, Sandringham, VIC 3191",145.008917,-37.953663,POINT (145.008917 -37.953663),True
15928635,"Sandringham Road, Sandringham, VIC 3191",145.010131,-37.951018,POINT (145.010131 -37.951018),True
15931946,"22 Abbott Street, Sandringham, VIC 3191",145.00334,-37.948846,POINT (145.00334 -37.948846),True
15937363,"5a Norwood Street, Sandringham, VIC 3191",145.01192,-37.958852,POINT (145.01192 -37.958852),True
15937380,"45 Abbott Street, Sandringham, VIC 3191",145.006226,-37.948879,POINT (145.006226 -37.948879),True
15939099,"Sandringham Road, Sandringham, VIC 3191",145.010131,-37.951018,POINT (145.010131 -37.951018),True
15942434,"91 Beach Road, Sandringham, VIC 3191",145.000978,-37.946852,POINT (145.000978 -37.946852),True
15942967,"22a Fernhill Road, Sandringham, VIC 3191",145.007502,-37.951784,POINT (145.007502 -37.951784),True
15943907,"22 Abbott Street, Sandringham, VIC 3191",145.00334,-37.948846,POINT (145.00334 -37.948846),True
15954553,"226 Bay Road, Sandringham, VIC 3191",145.025732,-37.954549,POINT (145.025732 -37.954549),True
15956355,"21 Abbott Street, Sandringham, VIC 3191",145.017314,-37.950371,POINT (145.017314 -37.950371),True
15962679,"Tennyson Street, Sandringham, VIC 3191",145.005451,-37.953755,POINT (145.005451 -37.953755),True
15963524,"222 Bay Road, Sandringham, VIC 3191",145.025732,-37.954549,POINT (145.025732 -37.954549),True
15964401,"2 Sandringham Road, Sandringham, VIC 3191",145.005037,-37.951043,POINT (145.005037 -37.951043),True
15210015,"Zarro Street, Scoresby, VIC 3179",145.228758,-37.891253,POINT (145.228758 -37.891253),True
15583558,"George Street, Scoresby, VIC 3179",145.230826,-37.889035,POINT (145.230826 -37.889035),True
15858255,"Tulloch Grove Glen, Waverley, VIC 3150",145.150578,-37.898403,POINT (145.150578 -37.898403),True
15866669,"Gumtree Close Wheelers, Hill, VIC 3150",145.185295,-37.907342,POINT (145.185295 -37.907342),True
15866763,"Bogong Avenue Glen, Waverley, VIC 3150",145.160655,-37.881545,POINT (145.160655 -37.881545),True
15867702,"Johann Avenue, Scoresby, VIC 3179",145.237942,-37.89537,POINT (145.237942 -37.89537),True
15868151,"Cypress Avenue Glen, Waverley, VIC 3150",145.159591,-37.863597,POINT (145.159591 -37.863597),True
15883311,"Cumberland Court Glen, Waverley, VIC 3150",145.181596,-37.879472,POINT (145.181596 -37.879472),True
15884442,"Stud Road, Scoresby, VIC 3179",145.232727,-37.892554,POINT (145.232727 -37.892554),True
15885833,"Garrisson Drive Glen, Waverley, VIC 3150",145.175045,-37.878613,POINT (145.175045 -37.878613),True
15888591,"Jells Road Wheelers, Hill, VIC 3150",145.18898,-37.907504,POINT (145.18898 -37.907504),True
15889540,"Kauri Grove Glen, Waverley, VIC 3150",145.154851,-37.893127,POINT (145.154851 -37.893127),True
15892430,"George Street, Scoresby, VIC 3179",145.230826,-37.889035,POINT (145.230826 -37.889035),True
15896593,"11b Kensington Place Wantirna, South, VIC 3152",145.231823,-37.873947,POINT (145.231823 -37.873947),True
15901402,"17 Denver Crescent, Rowville, VIC 3178",145.229798,-37.918914,POINT (145.229798 -37.918914),True
15901782,"Cherrington Square, Wantirna, VIC 3152",145.238987,-37.859747,POINT (145.238987 -37.859747),True
15903138,"125 Jells Road Wheelers, Hill, VIC 3150",145.189393,-37.903942,POINT (145.189393 -37.903942),True
15903615,"14 Yvette Drive, Rowville, VIC 3178",145.247642,-37.927742,POINT (145.247642 -37.927742),True
15905158,"Downe Place, Wantirna, VIC 3152",145.239483,-37.849466,POINT (145.239483 -37.849466),True
7654562,"2 Truman Street South, Kingsville, VIC 3015",144.86917,-37.826478,POINT (144.86917 -37.826478),True
15709484,"96 Saltley Street South, Kingsville, VIC 3015",144.867152,-37.832344,POINT (144.867152 -37.832344),True
15724777,"88 Kernot Street South, Kingsville, VIC 3015",144.872054,-37.833224,POINT (144.872054 -37.833224),True
15808736,"2b Saltley Street South, Kingsville, VIC 3015",144.868211,-37.826163,POINT (144.868211 -37.826163),True
15815350,"7 New Street South, Kingsville, VIC 3015",144.866836,-37.829309,POINT (144.866836 -37.829309),True
15827065,"New Street South, Kingsville, VIC 3015",144.866836,-37.829309,POINT (144.866836 -37.829309),True
15846521,"Stephenson Street South, Kingsville, VIC 3015",144.874462,-37.832079,POINT (144.874462 -37.832079),True
15854198,"Watt Street South, Kingsville, VIC 3015",144.873512,-37.831709,POINT (144.873512 -37.831709),True
15858331,"2a Saltley Street South, Kingsville, VIC 3015",144.868211,-37.826163,POINT (144.868211 -37.826163),True
15861666,"10 Saltley Street South, Kingsville, VIC 3015",144.868043,-37.827126,POINT (144.868043 -37.827126),True
15866627,"108 Blackshaws Road South, Kingsville, VIC 3015",144.873796,-37.833551,POINT (144.873796 -37.833551),True
15868971,"45 Paxton Street South, Kingsville, VIC 3015",144.870209,-37.829365,POINT (144.870209 -37.829365),True
15871549,"176 Blackshaws Road South, Kingsville, VIC 3015",144.866826,-37.833037,POINT (144.866826 -37.833037),True
15878116,"96 Blackshaws Road South, Kingsville, VIC 3015",144.87509,-37.833924,POINT (144.87509 -37.833924),True
15883497,"Truman Street South, Kingsville, VIC 3015",144.86883,-37.829518,POINT (144.86883 -37.829518),True
15891188,"Aloha Street South, Kingsville, VIC 3015",144.870581,-37.8311,POINT (144.870581 -37.8311),True
15893147,"56 Saltley Street South, Kingsville, VIC 3015",144.867343,-37.829993,POINT (144.867343 -37.829993),True
15895336,"3 New Street South, Kingsville, VIC 3015",144.867536,-37.826286,POINT (144.867536 -37.826286),True
15728652,"50 Albert Road South, Melbourne, VIC 3205",144.971314,-37.834064,POINT (144.971314 -37.834064),True
15940071,"Tope Street South, Melbourne, VIC 3205",144.963578,-37.831397,POINT (144.963578 -37.831397),True
15944797,"Little Boundary Street South, Melbourne, VIC 3205",144.94847,-37.838342,POINT (144.94847 -37.838342),True
15947002,"297 Clarendon Street South, Melbourne, VIC 3205",144.961103,-37.833549,POINT (144.961103 -37.833549),True
15947669,"2 Albert Road South, Melbourne, VIC 3205",144.971196,-37.832808,POINT (144.971196 -37.832808),True
15949378,"Lyell Street South, Melbourne, VIC 3205",144.950785,-37.836525,POINT (144.950785 -37.836525),True
15950211,"338 Kings Way South, Melbourne, VIC 3205",144.96999,-37.834918,POINT (144.96999 -37.834918),True
15951587,"54c Napier Street South, Melbourne, VIC 3205",144.967286,-37.834569,POINT (144.967286 -37.834569),True
15952041,"50 Albert Road South, Melbourne, VIC 3205",144.971314,-37.834064,POINT (144.971314 -37.834064),True
15952149,"22 Dorcas Street South, Melbourne, VIC 3205",144.970286,-37.830196,POINT (144.970286 -37.830196),True
15952284,"50 Albert Road South, Melbourne, VIC 3205",144.971314,-37.834064,POINT (144.971314 -37.834064),True
15954381,"69 Dorcas Street South, Melbourne, VIC 3205",144.967873,-37.831116,POINT (144.967873 -37.831116),True
15954995,"75 Palmerston Cr South, Melbourne, VIC 3205",144.969079,-37.835307,POINT (144.969079 -37.835307),True
15955798,"52 Park Street South, Melbourne, VIC 3205",144.969162,-37.832817,POINT (144.969162 -37.832817),True
15956199,"52 Park Street South, Melbourne, VIC 3205",144.969162,-37.832817,POINT (144.969162 -37.832817),True
15957028,"Palmerston Crescent South, Melbourne, VIC 3205",144.96846,-37.835538,POINT (144.96846 -37.835538),True
15957839,"149 Nelson Road South, Melbourne, VIC 3205",144.951521,-37.838537,POINT (144.951521 -37.838537),True
15958058,"Pickles Street South, Melbourne, VIC 3205",144.947505,-37.83898,POINT (144.947505 -37.83898),True
15958144,"52 Park Street South, Melbourne, VIC 3205",144.969162,-37.832817,POINT (144.969162 -37.832817),True
15958406,"Church Street South, Melbourne, VIC 3205",144.961231,-37.837211,POINT (144.961231 -37.837211),True
12920385,"23 Kelvin Grove South, Morang, VIC 3752",145.091723,-37.649823,POINT (145.091723 -37.649823),True
14896024,"40 Gorge Road South, Morang, VIC 3752",145.09078,-37.650817,POINT (145.09078 -37.650817),True
15068461,"2 Leonie Close South, Morang, VIC 3752",145.096236,-37.649153,POINT (145.096236 -37.649153),True
15329090,"812 Plenty Road South, Morang, VIC 3752",145.088192,-37.652191,POINT (145.088192 -37.652191),True
15705606,"Mcgylnn Avenue South, Morang, VIC 3752",145.083632,-37.632398,POINT (145.083632 -37.632398),True
15848044,"5 Bethany Court South, Morang, VIC 3752",145.092521,-37.647801,POINT (145.092521 -37.647801),True
15851533,"St Johns Court South, Morang, VIC 3752",145.093459,-37.647778,POINT (145.093459 -37.647778),True
15853190,"11 Payne Place South, Morang, VIC 3752",145.093745,-37.651669,POINT (145.093745 -37.651669),True
15856763,"Jenolan Way South, Morang, VIC 3752",145.090255,-37.635433,POINT (145.090255 -37.635433),True
15859748,"313 The Lakes Boulevard South, Morang, VIC 3752",145.08625,-37.630425,POINT (145.08625 -37.630425),True
15861595,"Belinda Court South, Morang, VIC 3752",145.065469,-37.624378,POINT (145.065469 -37.624378),True
15863610,"Branch Street South, Morang, VIC 3752",145.076527,-37.649034,POINT (145.076527 -37.649034),True
15864112,"Williamsons Road South, Morang, VIC 3752",145.093506,-37.641985,POINT (145.093506 -37.641985),True
15864893,"Vautier Place South, Morang, VIC 3752",145.067448,-37.636961,POINT (145.067448 -37.636961),True
15866086,"Cassowary Road South, Morang, VIC 3752",145.068988,-37.626405,POINT (145.068988 -37.626405),True
15879817,"Pace Circuit South, Morang, VIC 3752",145.094776,-37.648364,POINT (145.094776 -37.648364),True
15887228,"Songbird Crescent South, Morang, VIC 3752",145.090401,-37.638538,POINT (145.090401 -37.638538),True
15888911,"790 Plenty Road South, Morang, VIC 3752",145.095632,-37.636664,POINT (145.095632 -37.636664),True
15896173,"Barmah Drive South, Morang, VIC 3752",145.10029,-37.617811,POINT (145.10029 -37.617811),True
13204673,"681 Chapel Street South, Yarra, VIC 3141",144.996249,-37.83509,POINT (144.996249 -37.83509),True
14593990,"27 Avoca St South, Yarra, VIC 3141",144.989158,-37.837212,POINT (144.989158 -37.837212),True
15303923,"8 Daly Street South, Yarra, VIC 3141",144.994691,-37.83777,POINT (144.994691 -37.83777),True
15743159,"961 Punt Road South, Yarra, VIC 3141",144.987765,-37.831205,POINT (144.987765 -37.831205),True
15762267,"Chambers Street South, Yarra, VIC 3141",144.994258,-37.840297,POINT (144.994258 -37.840297),True
15851209,"Walsh Street South, Yarra, VIC 3141",144.985634,-37.833727,POINT (144.985634 -37.833727),True
15896257,"35 Wilson Street South, Yarra, VIC 3141",144.997116,-37.843744,POINT (144.997116 -37.843744),True
15896648,"7 Claremont Street South, Yarra, VIC 3141",144.993551,-37.838291,POINT (144.993551 -37.838291),True
15896694,"241 Williams Road South, Yarra, VIC 3141",145.003963,-37.843178,POINT (145.003963 -37.843178),True
15897519,"43 Caroline Street South, Yarra, VIC 3141",144.987962,-37.837859,POINT (144.987962 -37.837859),True
15897699,"2 Dobson Street South, Yarra, VIC 3141",144.988296,-37.831728,POINT (144.988296 -37.831728),True
15897750,"45 Claremont Street South, Yarra, VIC 3141",144.993927,-37.836492,POINT (144.993927 -37.836492),True
15897951,"21 Rockley Road South, Yarra, VIC 3141",144.999733,-37.837292,POINT (144.999733 -37.837292),True
15898316,"206 Domain Road South, Yarra, VIC 3141",144.983903,-37.834095,POINT (144.983903 -37.834095),True
15898394,"273 Williams Road South, Yarra, VIC 3141",145.00462,-37.839884,POINT (145.00462 -37.839884),True
15898679,"20 Cromwell Road South, Yarra, VIC 3141",145.000185,-37.844601,POINT (145.000185 -37.844601),True
15899214,"Mason Street South, Yarra, VIC 3141",144.980781,-37.836669,POINT (144.980781 -37.836669),True
15899524,"275 Domain Road South, Yarra, VIC 3141",144.990415,-37.835296,POINT (144.990415 -37.835296),True
15900511,"649 Chapel Street South, Yarra, VIC 3141",144.995784,-37.837565,POINT (144.995784 -37.837565),True
15900707,"77 River Street South, Yarra, VIC 3141",144.997401,-37.836859,POINT (144.997401 -37.836859),True
15900756,"435 Punt Road South, Yarra, VIC 3141",144.984957,-37.845053,POINT (144.984957 -37.845053),True
15901250,"51 Davis Avenue South, Yarra, VIC 3141",144.99022,-37.840367,POINT (144.99022 -37.840367),True
15902289,"36 Darling Street South, Yarra, VIC 3141",144.992014,-37.836395,POINT (144.992014 -37.836395),True
15880021,"33 Clarke Street, Southbank, VIC 3006",144.959009,-37.826139,POINT (144.959009 -37.826139),True
15918010,"80 Clarendon Street, Southbank, VIC 3006",144.957564,-37.827084,POINT (144.957564 -37.827084),True
15918540,"88 Wells Street, Southbank, VIC 3006",144.968544,-37.827333,POINT (144.968544 -37.827333),True
15925735,"163 City Road, Southbank, VIC 3006",144.962558,-37.824159,POINT (144.962558 -37.824159),True
15934708,"61 Haig Street, Southbank, VIC 3006",144.957074,-37.826881,POINT (144.957074 -37.826881),True
15937619,"70 Southbank Boulevard, Southbank, VIC 3006",144.963784,-37.823119,POINT (144.963784 -37.823119),True
15943286,"245 City Road, Southbank, VIC 3006",144.962227,-37.824497,POINT (144.962227 -37.824497),True
15944321,"33 Clarke St, Southbank, VIC 3006",144.959009,-37.826139,POINT (144.959009 -37.826139),True
15944969,"1 Riverside Quay, Southbank, VIC 3006",144.963692,-37.822004,POINT (144.963692 -37.822004),True
15945027,"45 Clarke Street, Southbank, VIC 3006",144.959479,-37.826778,POINT (144.959479 -37.826778),True
15945940,"58 Clarke Street, Southbank, VIC 3006",144.959392,-37.827861,POINT (144.959392 -37.827861),True
15945965,"119 Kavanagh Street, Southbank, VIC 3006",144.962702,-37.825159,POINT (144.962702 -37.825159),True
15946370,"45 Clarke Street, Southbank, VIC 3006",144.959479,-37.826778,POINT (144.959479 -37.826778),True
15947767,"14 Kavanagh Street, Southbank, VIC 3006",144.966371,-37.822714,POINT (144.966371 -37.822714),True
15949777,"1 Riverside Quay, Southbank, VIC 3006",144.963692,-37.822004,POINT (144.963692 -37.822004),True
15955787,"119 Kavanagh Street, Southbank, VIC 3006",144.962702,-37.825159,POINT (144.962702 -37.825159),True
15956236,"245 City Road, Southbank, VIC 3006",144.962227,-37.824497,POINT (144.962227 -37.824497),True
15956935,"63 Haig Street, Southbank, VIC 3006",144.956694,-37.827679,POINT (144.956694 -37.827679),True
15957537,"102 Coventry Street, Southbank, VIC 3006",144.967936,-37.828809,POINT (144.967936 -37.828809),True
15958741,"45 Clarke Street, Southbank, VIC 3006",144.959479,-37.826778,POINT (144.959479 -37.826778),True
12809317,"31 Hope Street, Spotswood, VIC 3015",144.885826,-37.82953,POINT (144.885826 -37.82953),True
12874964,"107 Hudsons Road, Spotswood, VIC 3015",144.883983,-37.82971,POINT (144.883983 -37.82971),True
13305999,"Bernard Street, Spotswood, VIC 3015",144.890035,-37.831132,POINT (144.890035 -37.831132),True
13747688,"Stephenson Street, Spotswood, VIC 3015",144.87516,-37.828057,POINT (144.87516 -37.828057),True
14527886,"Corner Cnr Hudson Road Hall Street, Spotswood, VIC 3015",144.889151,-37.831933,POINT (144.889151 -37.831933),True
14583062,"7 Saltley Street, Spotswood, VIC 3015",144.889151,-37.831933,POINT (144.889151 -37.831933),True
14885462,"Hicks Street, Spotswood, VIC 3015",144.889151,-37.831933,POINT (144.889151 -37.831933),True
15178900,"36 Robert Street, Spotswood, VIC 3015",144.884759,-37.828994,POINT (144.884759 -37.828994),True
15757613,"7 Saltley Street, Spotswood, VIC 3015",144.889151,-37.831933,POINT (144.889151 -37.831933),True
15797115,"Hudsons Road, Spotswood, VIC 3015",144.882661,-37.829393,POINT (144.882661 -37.829393),True
15811014,"The Avenue, Spotswood, VIC 3015",144.882692,-37.827406,POINT (144.882692 -37.827406),True
15827083,"59 Truman Street, Spotswood, VIC 3015",144.889151,-37.831933,POINT (144.889151 -37.831933),True
15831870,"The Avenue, Spotswood, VIC 3015",144.882692,-37.827406,POINT (144.882692 -37.827406),True
15842676,"Hudsons Road, Spotswood, VIC 3015",144.882661,-37.829393,POINT (144.882661 -37.829393),True
15857538,"3 Mary Street, Spotswood, VIC 3015",144.88063,-37.828266,POINT (144.88063 -37.828266),True
15863156,"88 Hudsons Road, Spotswood, VIC 3015",144.884779,-37.82947,POINT (144.884779 -37.82947),True
15872286,"59 Truman Street, Spotswood, VIC 3015",144.889151,-37.831933,POINT (144.889151 -37.831933),True
15894744,"93 Dow Street Port, Melbourne, VIC 3207",144.940644,-37.842091,POINT (144.940644 -37.842091),True
15894745,"85 Rouse Street Port, Melbourne, VIC 3207",144.94148,-37.843549,POINT (144.94148 -37.843549),True
15513011,"Park Street St Kilda, West, VIC 3182",144.97288,-37.859445,POINT (144.97288 -37.859445),True
15862809,"41 Park Street St Kilda, West, VIC 3182",144.9719,-37.858689,POINT (144.9719 -37.858689),True
15890023,"4 Park Street St Kilda, West, VIC 3182",144.974282,-37.860513,POINT (144.974282 -37.860513),True
15900280,"83 Park St St Kilda, West, VIC 3182",144.968921,-37.856655,POINT (144.968921 -37.856655),True
15903056,"Longmore Street St Kilda, West, VIC 3182",144.970479,-37.85493,POINT (144.970479 -37.85493),True
15912084,"318 Beaconsfield Parade St Kilda, West, VIC 3182",144.96763,-37.856885,POINT (144.96763 -37.856885),True
15913497,"83 Park St St Kilda, West, VIC 3182",144.968921,-37.856655,POINT (144.968921 -37.856655),True
15920616,"127 Grey Street St Kilda, West, VIC 3182",144.97133,-37.857626,POINT (144.97133 -37.857626),True
15928639,"211 Canterbury Road St Kilda, West, VIC 3182",144.973524,-37.85668,POINT (144.973524 -37.85668),True
15928742,"323 Beaconsfield Parade St Kilda, West, VIC 3182",144.968179,-37.857171,POINT (144.968179 -37.857171),True
15928743,"323 Beaconsfield Parade St Kilda, West, VIC 3182",144.968179,-37.857171,POINT (144.968179 -37.857171),True
15930953,"350 Beaconsfield Parade St Kilda, West, VIC 3182",144.971612,-37.859648,POINT (144.971612 -37.859648),True
15937606,"25 York Street St Kilda, West, VIC 3182",144.970828,-37.856354,POINT (144.970828 -37.856354),True
15941905,"325 Beaconsfield Parade St Kilda, West, VIC 3182",144.968527,-37.857351,POINT (144.968527 -37.857351),True
15945140,"343 Beaconsfield Parade St Kilda, West, VIC 3182",144.970817,-37.858814,POINT (144.970817 -37.858814),True
15945563,"1 Park Street St Kilda, West, VIC 3182",144.974076,-37.861006,POINT (144.974076 -37.861006),True
15947901,"83 Park St St Kilda, West, VIC 3182",144.968921,-37.856655,POINT (144.968921 -37.856655),True
15950144,"321 Beaconsfield Parade St Kilda, West, VIC 3182",144.968034,-37.857099,POINT (144.968034 -37.857099),True
15951794,"350 Beaconsfield Parade St Kilda, West, VIC 3182",144.971612,-37.859648,POINT (144.971612 -37.859648),True
15952063,"83 Park Street St Kilda, West, VIC 3182",144.968921,-37.856655,POINT (144.968921 -37.856655),True
10592197,"Wedmore Crescent, Sunbury, VIC 3429",144.694097,-37.562112,POINT (144.694097 -37.562112),True
13609561,"Gap Road, Sunbury, VIC 3429",144.712829,-37.578762,POINT (144.712829 -37.578762),True
13741167,"179 Mitchells Lane, Sunbury, VIC 3429",144.703895,-37.584407,POINT (144.703895 -37.584407),True
14890264,"Syme Court, Sunbury, VIC 3429",144.706501,-37.579062,POINT (144.706501 -37.579062),True
15134765,"Phillip Drive, Sunbury, VIC 3429",144.7078,-37.56163,POINT (144.7078 -37.56163),True
15190014,"Burge Drive, Sunbury, VIC 3429",144.700419,-37.592125,POINT (144.700419 -37.592125),True
15907350,"69a Station Street, Sunbury, VIC 3429",144.732822,-37.584147,POINT (144.732822 -37.584147),True
15910161,"Station Street, Sunbury, VIC 3429",144.733091,-37.584521,POINT (144.733091 -37.584521),True
15910246,"Betula Terrace, Sunbury, VIC 3429",144.721889,-37.593403,POINT (144.721889 -37.593403),True
15910254,"Betula Terrace, Sunbury, VIC 3429",144.721889,-37.593403,POINT (144.721889 -37.593403),True
15932270,"Redstone Hill Road, Sunbury, VIC 3429",144.752925,-37.60089,POINT (144.752925 -37.60089),True
15933483,"Tulsa Drive, Sunbury, VIC 3429",144.754091,-37.580032,POINT (144.754091 -37.580032),True
15933837,"Gap Road, Sunbury, VIC 3429",144.712829,-37.578762,POINT (144.712829 -37.578762),True
15934189,"Watersprite Boulevard, Sunbury, VIC 3429",144.721875,-37.595406,POINT (144.721875 -37.595406),True
15941537,"Louis Way, Sunbury, VIC 3429",144.732028,-37.566212,POINT (144.732028 -37.566212),True
15941570,"Riddell Rd, Sunbury, VIC 3429",144.720069,-37.56771,POINT (144.720069 -37.56771),True
15943331,"Elizabeth Drive, Sunbury, VIC 3429",144.71034,-37.578366,POINT (144.71034 -37.578366),True
15948337,"Landsborough Drive, Sunbury, VIC 3429",144.707962,-37.579307,POINT (144.707962 -37.579307),True
15950298,"46 Mitchells Lane, Sunbury, VIC 3429",144.716487,-37.584737,POINT (144.716487 -37.584737),True
12675915,"Felix Way, Tarneit, VIC 3029",144.659575,-37.838448,POINT (144.659575 -37.838448),True
15036400,"Eddy Crescent, Tarneit, VIC 3029",144.67516,-37.823541,POINT (144.67516 -37.823541),True
15287717,"Serengeti Circuit, Tarneit, VIC 3029",144.674583,-37.829615,POINT (144.674583 -37.829615),True
15539910,"Beltana Avenue, Tarneit, VIC 3029",144.677199,-37.840386,POINT (144.677199 -37.840386),True
15784192,"Melville St, Tarneit, VIC 3029",144.685715,-37.837557,POINT (144.685715 -37.837557),True
15909852,"39 Claire Way, Tarneit, VIC 3029",144.665988,-37.850882,POINT (144.665988 -37.850882),True
15912987,"Lindrum Outlook, Tarneit, VIC 3029",144.655511,-37.865307,POINT (144.655511 -37.865307),True
15914173,"5 Crown Court, Tarneit, VIC 3029",144.659504,-37.864355,POINT (144.659504 -37.864355),True
15936555,"Ravenshaw Chase, Tarneit, VIC 3029",144.678391,-37.825233,POINT (144.678391 -37.825233),True
15936592,"Beachmere St, Tarneit, VIC 3029",144.660106,-37.833822,POINT (144.660106 -37.833822),True
15943070,"Stratus Street, Tarneit, VIC 3029",144.678391,-37.825233,POINT (144.678391 -37.825233),True
15946690,"Barron Street, Tarneit, VIC 3029",144.685081,-37.842363,POINT (144.685081 -37.842363),True
15948176,"Coffey Street, Tarneit, VIC 3029",144.680187,-37.828989,POINT (144.680187 -37.828989),True
15950118,"Cherish Drive, Tarneit, VIC 3029",144.68861,-37.818797,POINT (144.68861 -37.818797),True
15953769,"Duck Haven Place, Tarneit, VIC 3029",144.705278,-37.8444,POINT (144.705278 -37.8444),True
15956406,"Kew Avenue, Tarneit, VIC 3029",144.666343,-37.841162,POINT (144.666343 -37.841162),True
15957836,"5 Crown Court, Tarneit, VIC 3029",144.659504,-37.864355,POINT (144.659504 -37.864355),True
15960114,"Bandicoot Loop, Tarneit, VIC 3029",144.678391,-37.825233,POINT (144.678391 -37.825233),True
15960836,"Marengo Street, Tarneit, VIC 3029",144.689125,-37.838485,POINT (144.689125 -37.838485),True
15960845,"Modesto Drive, Tarneit, VIC 3029",144.662568,-37.821636,POINT (144.662568 -37.821636),True
14746957,"11 Monckton Place Caroline, Springs, VIC 3023",144.747102,-37.729157,POINT (144.747102 -37.729157),True
15077426,"The Esplanade Taylors, Hill, VIC 3037",144.743365,-37.720237,POINT (144.743365 -37.720237),True
15622717,"Kingston Drive Taylors, Hill, VIC 3037",144.751048,-37.713303,POINT (144.751048 -37.713303),True
15917379,"Synergy Court Taylors, Hill, VIC 3037",144.742866,-37.711596,POINT (144.742866 -37.711596),True
15939475,"Hawthorn Grove Taylors, Hill, VIC 3037",144.749999,-37.706659,POINT (144.749999 -37.706659),True
15947050,"18 Welwyn Parade Deer, Park, VIC 3023",144.771176,-37.764848,POINT (144.771176 -37.764848),True
15947914,"Nullarbor Place Caroline, Springs, VIC 3023",144.72467,-37.745025,POINT (144.72467 -37.745025),True
15950524,"93 Furlong Road, Cairnlea, VIC 3023",144.790482,-37.757524,POINT (144.790482 -37.757524),True
15953123,"Lancefield Drive Caroline, Springs, VIC 3023",144.737764,-37.709673,POINT (144.737764 -37.709673),True
15956151,"Coronation Street Taylors, Hill, VIC 3037",144.74606,-37.721642,POINT (144.74606 -37.721642),True
15957119,"Calthorpe Green Caroline, Springs, VIC 3023",144.729368,-37.73919,POINT (144.729368 -37.73919),True
15957909,"Sharrock Close Caroline, Springs, VIC 3023",144.743275,-37.744195,POINT (144.743275 -37.744195),True
15964663,"Belfort Street St, Albans, VIC 3021",144.818753,-37.750713,POINT (144.818753 -37.750713),True
10399082,"39 Edina Road Ferntree, Gully, VIC 3156",145.280579,-37.875513,POINT (145.280579 -37.875513),True
13402095,"22 Clyde Street Ferntree, Gully, VIC 3156",145.267909,-37.882282,POINT (145.267909 -37.882282),True
13973489,"Woodlea Place Ferntree, Gully, VIC 3156",145.261483,-37.899393,POINT (145.261483 -37.899393),True
15115136,"Folkstone Crescent Ferntree, Gully, VIC 3156",145.259481,-37.888778,POINT (145.259481 -37.888778),True
15249645,"2 Cindy Court Ferntree, Gully, VIC 3156",145.259916,-37.875904,POINT (145.259916 -37.875904),True
15839392,"10 Dorothy Grove Ferntree, Gully, VIC 3156",145.297437,-37.880556,POINT (145.297437 -37.880556),True
15841892,"4 Norvel Road Ferntree, Gully, VIC 3156",145.270477,-37.87112,POINT (145.270477 -37.87112),True
15869951,"Yarana Street Ferntree, Gully, VIC 3156",145.261246,-37.88215,POINT (145.261246 -37.88215),True
15878296,"11 Lane Road Ferntree, Gully, VIC 3156",145.292427,-37.877646,POINT (145.292427 -37.877646),True
15880354,"14 Adele Avenue Ferntree, Gully, VIC 3156",145.272642,-37.884581,POINT (145.272642 -37.884581),True
15880861,"The Crescent Ferntree, Gully, VIC 3156",145.289084,-37.881667,POINT (145.289084 -37.881667),True
15885369,"Watling Grove Ferntree, Gully, VIC 3156",145.259032,-37.88961,POINT (145.259032 -37.88961),True
14207090,"Chatsworth Quadrant Templestowe, Lower, VIC 3107",145.102782,-37.763108,POINT (145.102782 -37.763108),True
14346650,"Verene Avenue Templestowe, Lower, VIC 3107",145.116822,-37.767439,POINT (145.116822 -37.767439),True
15222736,"Thompsons Road Templestowe, Lower, VIC 3107",145.105054,-37.767163,POINT (145.105054 -37.767163),True
15575234,"213 Manningham Road Templestowe, Lower, VIC 3107",145.103299,-37.77204,POINT (145.103299 -37.77204),True
15782362,"231 High Street Templestowe, Lower, VIC 3107",145.116454,-37.770438,POINT (145.116454 -37.770438),True
15895718,"Hotham Street Templestowe, Lower, VIC 3107",145.110529,-37.771179,POINT (145.110529 -37.771179),True
15899186,"Hazel Drive Templestowe, Lower, VIC 3107",145.107835,-37.770257,POINT (145.107835 -37.770257),True
15905381,"Marcus Rd Templestowe, Lower, VIC 3107",145.104147,-37.769869,POINT (145.104147 -37.769869),True
15909332,"53 Astley Street Templestowe, Lower, VIC 3107",145.110248,-37.761644,POINT (145.110248 -37.761644),True
15916063,"44 Macedon Road Templestowe, Lower, VIC 3107",145.112823,-37.771661,POINT (145.112823 -37.771661),True
15922223,"Rose Avenue Templestowe, Lower, VIC 3107",145.100756,-37.76232,POINT (145.100756 -37.76232),True
15931664,"3 Joseph Street Templestowe, Lower, VIC 3107",145.114543,-37.771914,POINT (145.114543 -37.771914),True
15933304,"Manningham Road Templestowe, Lower, VIC 3107",145.099814,-37.770861,POINT (145.099814 -37.770861),True
15933494,"Pleasant Road Templestowe, Lower, VIC 3107",145.096014,-37.759106,POINT (145.096014 -37.759106),True
15939603,"Lowan Avenue Templestowe, Lower, VIC 3107",145.103466,-37.757935,POINT (145.103466 -37.757935),True
15945432,"Jeffrey Street Templestowe, Lower, VIC 3107",145.104896,-37.76445,POINT (145.104896 -37.76445),True
15947899,"Palmerston Avenue Templestowe, Lower, VIC 3107",145.120055,-37.775297,POINT (145.120055 -37.775297),True
15953013,"Thompsons Road Templestowe, Lower, VIC 3107",145.105054,-37.767163,POINT (145.105054 -37.767163),True
15954609,"16 Rosa Street Templestowe, Lower, VIC 3107",145.114064,-37.771376,POINT (145.114064 -37.771376),True
15958707,"21 Rosa Street Templestowe, Lower, VIC 3107",145.113653,-37.771611,POINT (145.113653 -37.771611),True
9278371,"162 Station Street, Thomastown, VIC 3074",145.015103,-37.680196,POINT (145.015103 -37.680196),True
10857088,"Poplar Street, Thomastown, VIC 3074",145.026395,-37.678902,POINT (145.026395 -37.678902),True
11425995,"196 Station Street, Thomastown, VIC 3074",145.015209,-37.67916,POINT (145.015209 -37.67916),True
12519403,"26 Westall Street, Thomastown, VIC 3074",145.012058,-37.674871,POINT (145.012058 -37.674871),True
13331516,"29 Mount View Road, Thomastown, VIC 3074",145.009555,-37.677635,POINT (145.009555 -37.677635),True
15908140,"23 Main Street, Thomastown, VIC 3074",145.009696,-37.679992,POINT (145.009696 -37.679992),True
15917807,"7 Dorothy Avenue, Thomastown, VIC 3074",145.015812,-37.68168,POINT (145.015812 -37.68168),True
15923053,"27 Westall Street, Thomastown, VIC 3074",145.011748,-37.675412,POINT (145.011748 -37.675412),True
15924329,"8 Plane Street, Thomastown, VIC 3074",145.023615,-37.67725,POINT (145.023615 -37.67725),True
15925617,"1 Edna Street, Thomastown, VIC 3074",145.021132,-37.682408,POINT (145.021132 -37.682408),True
15934428,"307 High Street, Thomastown, VIC 3074",145.014285,-37.676743,POINT (145.014285 -37.676743),True
15940647,"French Street, Thomastown, VIC 3074",145.0185,-37.67723,POINT (145.0185 -37.67723),True
15941493,"6 Pleasant Road, Thomastown, VIC 3074",145.013354,-37.677138,POINT (145.013354 -37.677138),True
15941494,"6 Pleasant Road, Thomastown, VIC 3074",145.013354,-37.677138,POINT (145.013354 -37.677138),True
15941495,"6 Pleasant Road, Thomastown, VIC 3074",145.013354,-37.677138,POINT (145.013354 -37.677138),True
15943633,"Edgars Road, Thomastown, VIC 3074",145.000749,-37.693794,POINT (145.000749 -37.693794),True
15945864,"1 Pinewood Drive, Thomastown, VIC 3074",144.999431,-37.683397,POINT (144.999431 -37.683397),True
15946873,", Thomastown, VIC 3074",145.006985,-37.683924,POINT (145.006985 -37.683924),True
15951717,"12 Alexander Avenue, Thomastown, VIC 3074",145.026307,-37.681654,POINT (145.026307 -37.681654),True
15951720,"12 Alexander Avenue, Thomastown, VIC 3074",145.026307,-37.681654,POINT (145.026307 -37.681654),True
15470628,"44 Woolton Avenue, Thornbury, VIC 3071",144.995445,-37.760794,POINT (144.995445 -37.760794),True
15517577,"636 High Street, Thornbury, VIC 3071",145.000547,-37.760216,POINT (145.000547 -37.760216),True
15804210,"44 Dundas Street, Thornbury, VIC 3071",145.005676,-37.753004,POINT (145.005676 -37.753004),True
15836730,"58 Clarendon Street, Thornbury, VIC 3071",145.004379,-37.760125,POINT (145.004379 -37.760125),True
15852714,"74 Dundas Street, Thornbury, VIC 3071",145.009402,-37.753464,POINT (145.009402 -37.753464),True
15862240,"288 St Georges Road, Thornbury, VIC 3071",144.993206,-37.761167,POINT (144.993206 -37.761167),True
15862811,"13 Mansfield Street, Thornbury, VIC 3071",145.002608,-37.756425,POINT (145.002608 -37.756425),True
15863647,"26 Normanby Avenue, Thornbury, VIC 3071",144.997338,-37.759066,POINT (144.997338 -37.759066),True
15864895,"73 Flinders Street, Thornbury, VIC 3071",145.006738,-37.756053,POINT (145.006738 -37.756053),True
15865353,"287 Rathmines Street, Thornbury, VIC 3071",145.018805,-37.764277,POINT (145.018805 -37.764277),True
15872421,"10 Anderson Road, Thornbury, VIC 3071",144.981361,-37.754702,POINT (144.981361 -37.754702),True
15873331,"68 Clarendon Street, Thornbury, VIC 3071",145.004854,-37.760427,POINT (145.004854 -37.760427),True
15874307,"85 Hutton Street, Thornbury, VIC 3071",144.993534,-37.755385,POINT (144.993534 -37.755385),True
15875101,"286 Mansfield Street, Thornbury, VIC 3071",145.023303,-37.758901,POINT (145.023303 -37.758901),True
15875739,"167 Darebin Road, Thornbury, VIC 3071",145.013145,-37.764553,POINT (145.013145 -37.764553),True
15877172,"48 Strettle Street, Thornbury, VIC 3071",144.983298,-37.751716,POINT (144.983298 -37.751716),True
15882037,"53 Normanby Avenue, Thornbury, VIC 3071",144.995384,-37.75925,POINT (144.995384 -37.75925),True
15883233,"287 Rathmines Street, Thornbury, VIC 3071",145.018805,-37.764277,POINT (145.018805 -37.764277),True
15886022,"Gooch Street, Thornbury, VIC 3071",145.024565,-37.760499,POINT (145.024565 -37.760499),True
15886177,"11 Kemp Street, Thornbury, VIC 3071",144.995138,-37.761921,POINT (144.995138 -37.761921),True
15877421,"Rathmines Street, Toorak, VIC 3142",145.005787,-37.838715,POINT (145.005787 -37.838715),True
15942099,"543a Toorak Road, Toorak, VIC 3142",145.01104,-37.841162,POINT (145.01104 -37.841162),True
15945134,"2a Myoora Road, Toorak, VIC 3142",145.020963,-37.844136,POINT (145.020963 -37.844136),True
15947621,"270 Williams Road, Toorak, VIC 3142",145.004699,-37.841577,POINT (145.004699 -37.841577),True
15948031,"10 Hopetoun Road, Toorak, VIC 3142",145.028072,-37.849784,POINT (145.028072 -37.849784),True
15949948,"508 Toorak Road, Toorak, VIC 3142",145.013379,-37.841788,POINT (145.013379 -37.841788),True
15950418,"10 Canberra Road, Toorak, VIC 3142",145.010151,-37.836185,POINT (145.010151 -37.836185),True
15951008,"Ashe Grove, Toorak, VIC 3142",145.0049,-37.845232,POINT (145.0049 -37.845232),True
15951048,"85 Mathoura Road, Toorak, VIC 3142",145.007575,-37.843663,POINT (145.007575 -37.843663),True
15952138,"425 Toorak Road, Toorak, VIC 3142",145.006543,-37.840635,POINT (145.006543 -37.840635),True
15954129,"Dalriada Street, Toorak, VIC 3142",145.017132,-37.841106,POINT (145.017132 -37.841106),True
15959443,"Balmerino Avenue, Toorak, VIC 3142",145.008888,-37.835804,POINT (145.008888 -37.835804),True
15960971,"29 May Road, Toorak, VIC 3142",145.005341,-37.847257,POINT (145.005341 -37.847257),True
15962928,"159 Alexandra Avenue, Toorak, VIC 3142",145.006586,-37.832282,POINT (145.006586 -37.832282),True
15963420,"573 Toorak Road, Toorak, VIC 3142",145.014778,-37.841612,POINT (145.014778 -37.841612),True
15963694,"2a Evelina Road, Toorak, VIC 3142",145.004101,-37.84646,POINT (145.004101 -37.84646),True
15965016,"Mathoura Road, Toorak, VIC 3142",145.007564,-37.84479,POINT (145.007564 -37.84479),True
15966620,"637 Orrong Road, Toorak, VIC 3142",145.012474,-37.847404,POINT (145.012474 -37.847404),True
15968264,"1059 Malvern Road, Toorak, VIC 3142",145.026191,-37.850957,POINT (145.026191 -37.850957),True
10033942,"2e Riverside Dve, Torquay, VIC 3228",144.327894,-38.321529,POINT (144.327894 -38.321529),True
15835685,"Highlander Street, Torquay, VIC 3228",144.322036,-38.318043,POINT (144.322036 -38.318043),True
15864558,"Centreside Drive, Torquay, VIC 3228",144.329556,-38.309155,POINT (144.329556 -38.309155),True
15865612,"Seahaze Drive, Torquay, VIC 3228",144.342629,-38.309986,POINT (144.342629 -38.309986),True
15873074,"Cosy Avenue, Torquay, VIC 3228",144.344104,-38.306333,POINT (144.344104 -38.306333),True
15878822,"18 Highlander Street, Torquay, VIC 3228",144.322469,-38.318023,POINT (144.322469 -38.318023),True
15880737,"Centreside Drive, Torquay, VIC 3228",144.329556,-38.309155,POINT (144.329556 -38.309155),True
15881055,"Merrijig Drive, Torquay, VIC 3228",144.329054,-38.308365,POINT (144.329054 -38.308365),True
15884132,"Mia Mia Way, Torquay, VIC 3228",144.308671,-38.324063,POINT (144.308671 -38.324063),True
15884192,"Falcon Drive, Torquay, VIC 3228",144.331016,-38.306965,POINT (144.331016 -38.306965),True
11773318,"Jarrah Court, Traralgon, VIC 3844",146.519527,-38.208896,POINT (146.519527 -38.208896),True
15203565,"Charles Street, Traralgon, VIC 3844",146.529407,-38.205991,POINT (146.529407 -38.205991),True
15817090,"Doyne Crescent, Traralgon, VIC 3844",146.523561,-38.187298,POINT (146.523561 -38.187298),True
15853144,"Brookes Street, Traralgon, VIC 3844",146.523939,-38.195846,POINT (146.523939 -38.195846),True
15891145,"Evelyn Court, Traralgon, VIC 3844",146.557308,-38.201158,POINT (146.557308 -38.201158),True
15925006,"Grey Street, Traralgon, VIC 3844",146.541989,-38.194175,POINT (146.541989 -38.194175),True
15941819,"Napier Place, Traralgon, VIC 3844",146.506674,-38.184996,POINT (146.506674 -38.184996),True
15945683,"Kosciuszko Street, Traralgon, VIC 3844",146.515071,-38.200042,POINT (146.515071 -38.200042),True
15945684,"Wirilda Crescent, Traralgon, VIC 3844",146.510017,-38.189829,POINT (146.510017 -38.189829),True
15945836,"Connaught Way, Traralgon, VIC 3844",146.514781,-38.20829,POINT (146.514781 -38.20829),True
15946941,"Gilwell Avenue, Traralgon, VIC 3844",146.52987,-38.189219,POINT (146.52987 -38.189219),True
15947750,"Chamberlain Court, Traralgon, VIC 3844",146.521398,-38.196622,POINT (146.521398 -38.196622),True
15948292,"114 Davidson Street, Traralgon, VIC 3844",146.55095,-38.191132,POINT (146.55095 -38.191132),True
15948676,"Monash Street, Traralgon, VIC 3844",146.55002,-38.199826,POINT (146.55002 -38.199826),True
15950353,"Ryan Avenue, Traralgon, VIC 3844",146.528868,-38.188701,POINT (146.528868 -38.188701),True
15950463,"Barker Cres, Traralgon, VIC 3844",146.527227,-38.188908,POINT (146.527227 -38.188908),True
15951253,"26 Tintern Place, Traralgon, VIC 3844",146.5265,-38.180252,POINT (146.5265 -38.180252),True
15952057,"Palmgate Terrace, Traralgon, VIC 3844",146.501969,-38.183378,POINT (146.501969 -38.183378),True
15954197,"Hyde Park Road, Traralgon, VIC 3844",146.526988,-38.20565,POINT (146.526988 -38.20565),True
15954535,"44 Gilmour Street, Traralgon, VIC 3844",146.520978,-38.186208,POINT (146.520978 -38.186208),True
15955361,"Duxbury Drive, Traralgon, VIC 3844",146.523979,-38.183082,POINT (146.523979 -38.183082),True
15956346,"Dalray Ct, Traralgon, VIC 3844",146.558818,-38.19853,POINT (146.558818 -38.19853),True
15591377,"Merribah Way, Truganina, VIC 3029",144.722676,-37.847909,POINT (144.722676 -37.847909),True
15813070,"Woolshed Drive, Truganina, VIC 3029",144.715342,-37.820558,POINT (144.715342 -37.820558),True
15847970,"Clara Avenue, Truganina, VIC 3029",144.75,-37.81667,POINT (144.75 -37.81667),True
15866923,"Glasshouse Way, Truganina, VIC 3029",144.711043,-37.833641,POINT (144.711043 -37.833641),True
15868269,"Landscape Drive, Truganina, VIC 3029",144.726448,-37.839804,POINT (144.726448 -37.839804),True
15869967,"10 Corymbia Court, Truganina, VIC 3029",144.724864,-37.842162,POINT (144.724864 -37.842162),True
15879197,"Saint Martins Boulevard, Truganina, VIC 3029",144.720802,-37.846473,POINT (144.720802 -37.846473),True
15879221,"Caucasus Street, Truganina, VIC 3029",144.75,-37.81667,POINT (144.75 -37.81667),True
15879612,"Rainier Drive, Truganina, VIC 3029",144.75,-37.81667,POINT (144.75 -37.81667),True
15879622,"Rainier Drive, Truganina, VIC 3029",144.75,-37.81667,POINT (144.75 -37.81667),True
15881630,"22 Savanna Parade, Truganina, VIC 3029",144.720603,-37.864211,POINT (144.720603 -37.864211),True
15881972,"Yosemite Street, Truganina, VIC 3029",144.75,-37.81667,POINT (144.75 -37.81667),True
15882807,"Bolte Drive, Truganina, VIC 3029",144.708844,-37.821331,POINT (144.708844 -37.821331),True
15883178,"Sabbadini Mews, Truganina, VIC 3029",144.706884,-37.835018,POINT (144.706884 -37.835018),True
15884134,"Ludo Circuit, Truganina, VIC 3029",144.726797,-37.825555,POINT (144.726797 -37.825555),True
15885930,"Bolivar Esplanade, Truganina, VIC 3029",144.740368,-37.843693,POINT (144.740368 -37.843693),True
15888377,"Dover Street, Truganina, VIC 3029",144.731413,-37.849626,POINT (144.731413 -37.849626),True
15888493,"Parkvista Drive, Truganina, VIC 3029",144.724283,-37.866012,POINT (144.724283 -37.866012),True
15889482,"Tony Drive, Truganina, VIC 3029",144.716234,-37.844495,POINT (144.716234 -37.844495),True
12290713,"42 Banksia Grove, Tullamarine, VIC 3043",144.881049,-37.704411,POINT (144.881049 -37.704411),True
12427906,"29 Waratah Avenue, Tullamarine, VIC 3043",144.882002,-37.705015,POINT (144.882002 -37.705015),True
12857566,"Catherine Avenue, Tullamarine, VIC 3043",144.876194,-37.698009,POINT (144.876194 -37.698009),True
14801025,"6a Malvern Avenue, Tullamarine, VIC 3043",144.879115,-37.702605,POINT (144.879115 -37.702605),True
14982395,"266 Melrose Drive, Tullamarine, VIC 3043",144.875388,-37.693811,POINT (144.875388 -37.693811),True
15141007,"Melrose Drive, Tullamarine, VIC 3043",144.879257,-37.698778,POINT (144.879257 -37.698778),True
15693027,"14a Fisher Grove, Tullamarine, VIC 3043",144.870516,-37.705537,POINT (144.870516 -37.705537),True
15721012,"1 Clyne Court, Tullamarine, VIC 3043",144.874797,-37.706001,POINT (144.874797 -37.706001),True
15835287,"112a Mickleham Rd, Tullamarine, VIC 3043",144.881135,-37.697086,POINT (144.881135 -37.697086),True
15857483,"Carol Grove, Tullamarine, VIC 3043",144.882352,-37.705921,POINT (144.882352 -37.705921),True
15859928,"Dawson Street, Tullamarine, VIC 3043",144.87168,-37.704192,POINT (144.87168 -37.704192),True
15866403,"306 Melrose Drive, Tullamarine, VIC 3043",144.873217,-37.691553,POINT (144.873217 -37.691553),True
15869046,"10 Banksia Grove, Tullamarine, VIC 3043",144.883577,-37.707296,POINT (144.883577 -37.707296),True
15871333,"139 Melrose Drive, Tullamarine, VIC 3043",144.884089,-37.705527,POINT (144.884089 -37.705527),True
15874598,"10 Banksia Grove, Tullamarine, VIC 3043",144.883577,-37.707296,POINT (144.883577 -37.707296),True
15881503,"56 Melrose Drive, Tullamarine, VIC 3043",144.879257,-37.698778,POINT (144.879257 -37.698778),True
15892323,"7 Spring Street, Tullamarine, VIC 3043",144.878331,-37.704997,POINT (144.878331 -37.704997),True
15903717,"Andlon Court, Tullamarine, VIC 3043",144.880273,-37.695034,POINT (144.880273 -37.695034),True
15299271,"9a Eama Court, Bulleen, VIC 3105",145.098865,-37.774652,POINT (145.098865 -37.774652),True
15303964,"75 Hawdon Street, Heidelberg, VIC 3084",145.064264,-37.756922,POINT (145.064264 -37.756922),True
15307820,"12 Powlett Street, Heidelberg, VIC 3084",145.059061,-37.754205,POINT (145.059061 -37.754205),True
15744281,"55 Yarra Street, Heidelberg, VIC 3084",145.065371,-37.758315,POINT (145.065371 -37.758315),True
15830842,"9 Martin Street, Heidelberg, VIC 3084",145.059664,-37.754165,POINT (145.059664 -37.754165),True
15886382,"550 Upper Heidelberg Road, Heidelberg, VIC 3084",145.056031,-37.75579,POINT (145.056031 -37.75579),True
15902902,"29 Elizabeth Street, Bulleen, VIC 3105",145.085021,-37.759092,POINT (145.085021 -37.759092),True
15903542,"9 Martin Street, Heidelberg, VIC 3084",145.059664,-37.754165,POINT (145.059664 -37.754165),True
10309934,"63 Edward Street, Shepparton, VIC 3630",145.407831,-36.378595,POINT (145.407831 -36.378595),True
10357190,"Howitt Road, Shepparton, VIC 3630",145.381273,-36.361257,POINT (145.381273 -36.361257),True
14642697,"Ryeland Drive, Shepparton, VIC 3630",145.41413,-36.351923,POINT (145.41413 -36.351923),True
15945307,"Sutherland Avenue, Shepparton, VIC 3630",145.408432,-36.372298,POINT (145.408432 -36.372298),True
15946403,"Devon Court, Shepparton, VIC 3630",145.409833,-36.399984,POINT (145.409833 -36.399984),True
15947113,"Lake Street, Shepparton, VIC 3630",145.399153,-36.391841,POINT (145.399153 -36.391841),True
15947691,"Ryeland Drive, Shepparton, VIC 3630",145.41413,-36.351923,POINT (145.41413 -36.351923),True
15948109,"Sutherland Avenue, Shepparton, VIC 3630",145.408432,-36.372298,POINT (145.408432 -36.372298),True
15960576,"Noosa Court, Shepparton, VIC 3630",145.406836,-36.36548,POINT (145.406836 -36.36548),True
15960964,"58 Railway Parade, Shepparton, VIC 3630",145.407938,-36.381256,POINT (145.407938 -36.381256),True
15961071,"Ferguson Road, Shepparton, VIC 3630",145.380106,-36.359734,POINT (145.380106 -36.359734),True
15964697,"Hamilton Street, Shepparton, VIC 3630",145.409817,-36.391731,POINT (145.409817 -36.391731),True
15965527,"315 Maude Street, Shepparton, VIC 3630",145.400172,-36.386937,POINT (145.400172 -36.386937),True
15965536,"Ann Court, Shepparton, VIC 3630",145.400778,-36.389503,POINT (145.400778 -36.389503),True
15966329,"129 Archer Street, Shepparton, VIC 3630",145.411912,-36.388577,POINT (145.411912 -36.388577),True
15966647,"Blair Court, Shepparton, VIC 3630",145.415904,-36.398347,POINT (145.415904 -36.398347),True
15299488,"Boronia Road Wantirna, South, VIC 3152",145.250618,-37.855184,POINT (145.250618 -37.855184),True
15368315,"Harcrest Boulevard Wantirna, South, VIC 3152",145.233743,-37.882346,POINT (145.233743 -37.882346),True
15549012,"Coleman Road Wantirna, South, VIC 3152",145.249425,-37.862113,POINT (145.249425 -37.862113),True
15639514,"1 Lynne Avenue Wantirna, South, VIC 3152",145.23941,-37.871086,POINT (145.23941 -37.871086),True
15717335,"Somerset Street Wantirna, South, VIC 3152",145.244448,-37.860303,POINT (145.244448 -37.860303),True
15824833,"Arbroath Road Wantirna, South, VIC 3152",145.245508,-37.859594,POINT (145.245508 -37.859594),True
15834787,"Landsdale Crescent Wantirna, South, VIC 3152",145.239351,-37.874507,POINT (145.239351 -37.874507),True
15836608,"Kirrawee Avenue Wantirna, South, VIC 3152",145.247248,-37.85906,POINT (145.247248 -37.85906),True
15844448,"Billara Close Wantirna, South, VIC 3152",145.247694,-37.855327,POINT (145.247694 -37.855327),True
15866888,"27 Sylphide Way Wantirna, South, VIC 3152",145.222439,-37.879127,POINT (145.222439 -37.879127),True
15868179,"Lewis Road Wantirna, South, VIC 3152",145.247917,-37.872964,POINT (145.247917 -37.872964),True
15869386,"11 Bent Court Wantirna, South, VIC 3152",145.24967,-37.86055,POINT (145.24967 -37.86055),True
15872212,"White Road Wantirna, South, VIC 3152",145.23604,-37.871306,POINT (145.23604 -37.871306),True
15876452,"35 Lewis Road Wantirna, South, VIC 3152",145.247917,-37.872964,POINT (145.247917 -37.872964),True
15877528,"3a Suffolk Street Wantirna, South, VIC 3152",145.244899,-37.863166,POINT (145.244899 -37.863166),True
15881911,"61 Cathies Lane Wantirna, South, VIC 3152",145.21516,-37.867984,POINT (145.21516 -37.867984),True
15883103,"436 Stud Road Wantirna, South, VIC 3152",145.232605,-37.874967,POINT (145.232605 -37.874967),True
15887651,"408 Burwood Highway Wantirna, South, VIC 3152",145.235816,-37.869449,POINT (145.235816 -37.869449),True
14294691,"Freeman Street, Wendouree, VIC 3355",143.837619,-37.535478,POINT (143.837619 -37.535478),True
15889236,"Dowling Street, Wendouree, VIC 3355",143.84117,-37.53496,POINT (143.84117 -37.53496),True
15892794,"Browns Parade, Wendouree, VIC 3355",143.837777,-37.537278,POINT (143.837777 -37.537278),True
15892955,"Gillies Street, Wendouree, VIC 3355",143.825632,-37.521581,POINT (143.825632 -37.521581),True
15904405,"Boronia Grove, Wendouree, VIC 3355",143.821958,-37.525483,POINT (143.821958 -37.525483),True
15907194,"Lake Street, Wendouree, VIC 3355",143.826558,-37.539527,POINT (143.826558 -37.539527),True
15914500,"300 Gillies Street, Wendouree, VIC 3355",143.822733,-37.537804,POINT (143.822733 -37.537804),True
15927062,"Forest Street, Wendouree, VIC 3355",143.832865,-37.531895,POINT (143.832865 -37.531895),True
15931774,"Violet Grove, Wendouree, VIC 3355",143.820523,-37.52908,POINT (143.820523 -37.52908),True
15933170,"Marigold Street, Wendouree, VIC 3355",143.822924,-37.529363,POINT (143.822924 -37.529363),True
15936296,"Eton Street, Wendouree, VIC 3355",143.836085,-37.530941,POINT (143.836085 -37.530941),True
15940180,"Edgar Street, Wendouree, VIC 3355",143.826932,-37.529834,POINT (143.826932 -37.529834),True
15940442,"300 Gillies Street North, Wendouree, VIC 3355",143.822733,-37.537804,POINT (143.822733 -37.537804),True
15950175,"Willow Grove, Wendouree, VIC 3355",143.824768,-37.525449,POINT (143.824768 -37.525449),True
15952341,"90 Learmonth Road, Wendouree, VIC 3355",143.818818,-37.534382,POINT (143.818818 -37.534382),True
15955337,"Evelyn Street, Wendouree, VIC 3355",143.835097,-37.524412,POINT (143.835097 -37.524412),True
15956908,"901 Gregory Street, Wendouree, VIC 3355",143.81149,-37.541252,POINT (143.81149 -37.541252),True
15958792,"Shirley Street, Wendouree, VIC 3355",143.837905,-37.53475,POINT (143.837905 -37.53475),True
15959174,"Elizabeth Street, Wendouree, VIC 3355",143.834057,-37.531337,POINT (143.834057 -37.531337),True
15959294,"Hastings Street, Wendouree, VIC 3355",143.828227,-37.531846,POINT (143.828227 -37.531846),True
13481443,"707 Barkly Street West, Footscray, VIC 3012",144.866978,-37.796357,POINT (144.866978 -37.796357),True
15565425,"Wellington Street West, Footscray, VIC 3012",144.867159,-37.791698,POINT (144.867159 -37.791698),True
15853672,"630 Barkly Street West, Footscray, VIC 3012",144.873188,-37.796802,POINT (144.873188 -37.796802),True
15854193,"103 Stanhope Street West, Footscray, VIC 3012",144.865153,-37.795062,POINT (144.865153 -37.795062),True
15855154,"1 Carmichael Street West, Footscray, VIC 3012",144.878982,-37.799131,POINT (144.878982 -37.799131),True
15857907,"48c Napoleon Street West, Footscray, VIC 3012",144.86669,-37.790787,POINT (144.86669 -37.790787),True
15858754,"699 Barkly Street West, Footscray, VIC 3012",144.867457,-37.796436,POINT (144.867457 -37.796436),True
15861585,"132 Rupert Street West, Footscray, VIC 3012",144.867203,-37.798019,POINT (144.867203 -37.798019),True
15867163,"15 Clarendon Parade West, Footscray, VIC 3012",144.868709,-37.805679,POINT (144.868709 -37.805679),True
15868378,"15 Hampton Parade West, Footscray, VIC 3012",144.868507,-37.806784,POINT (144.868507 -37.806784),True
15869308,"4 Clarendon Parade West, Footscray, VIC 3012",144.869913,-37.805202,POINT (144.869913 -37.805202),True
15870086,"38 Stanhope Street West, Footscray, VIC 3012",144.869462,-37.795089,POINT (144.869462 -37.795089),True
15871272,"24 Soudan Road West, Footscray, VIC 3012",144.880394,-37.791689,POINT (144.880394 -37.791689),True
15880787,"697 Barkly Street West, Footscray, VIC 3012",144.867726,-37.796442,POINT (144.867726 -37.796442),True
